t,phase,found,cx,cy,conf,cmd_vx,cmd_vy,cmd_vz,cmd_yawrate,vbx,vby,vd,roll_des,pitch_des,roll,pitch,yaw,roll_q,pitch_q,yaw_q,thrust,x,y,z
0.015,takeoff,1,324,177,0.52,0.00,0.00,-0.80,0.00,0.00,0.00,0.00,0.000,0.000,-0.000,0.311,3.141,-0.000,0.388,0.000,0.315,0.00,0.00,0.00
0.015,takeoff,1,324,177,0.52,0.00,0.00,-0.80,0.00,0.00,0.00,-0.00,0.000,0.000,-0.000,0.311,3.141,-0.000,0.388,0.000,0.315,-0.00,-0.00,0.02
0.015,takeoff,1,324,177,0.52,0.00,0.00,-0.80,0.00,0.00,0.00,-0.00,0.000,0.000,-0.000,0.311,3.141,-0.000,0.388,0.000,0.315,-0.00,-0.00,0.02
0.015,takeoff,1,324,177,0.52,0.00,0.00,-0.80,0.00,0.00,0.00,-0.00,0.000,0.000,-0.000,0.311,3.141,-0.000,0.388,0.000,0.315,-0.00,-0.00,0.02
0.031,takeoff,1,324,177,0.52,0.00,0.00,-0.80,0.00,0.00,0.00,-0.00,0.000,0.000,-0.000,0.311,3.141,-0.000,0.388,0.000,0.315,-0.00,-0.00,0.02
0.031,takeoff,1,324,177,0.52,0.00,0.00,-0.80,0.00,0.00,0.00,-0.00,0.000,0.000,-0.000,0.311,3.141,-0.000,0.388,0.000,0.315,-0.00,-0.00,0.02
0.031,takeoff,1,324,177,0.52,0.00,0.00,-0.80,0.00,0.00,0.00,-0.00,0.000,0.000,-0.000,0.311,3.141,-0.000,0.388,0.000,0.315,-0.00,-0.00,0.02
0.031,takeoff,1,324,177,0.52,0.00,0.00,-0.80,0.00,0.00,0.00,-0.00,0.000,0.000,-0.000,0.311,3.141,-0.000,0.388,0.000,0.315,-0.00,-0.00,0.02
0.031,takeoff,1,324,177,0.52,0.00,0.00,-0.80,0.00,0.00,0.00,-0.00,0.000,0.000,-0.000,0.311,3.141,-0.000,0.388,0.000,0.315,-0.00,-0.00,0.02
0.031,takeoff,1,324,177,0.52,0.00,0.00,-0.80,0.00,-0.00,-0.00,0.00,0.000,0.000,-0.000,0.311,3.141,-0.000,0.388,0.000,0.315,-0.00,-0.00,0.02
0.047,takeoff,1,324,177,0.52,0.00,0.00,-0.80,0.00,-0.00,-0.00,0.00,0.000,0.000,-0.000,0.311,3.141,-0.000,0.388,0.000,0.316,-0.00,-0.00,0.02
0.047,takeoff,1,324,177,0.52,0.00,0.00,-0.80,0.00,-0.00,-0.00,0.00,0.000,0.000,-0.000,0.311,3.141,-0.000,0.388,0.000,0.316,-0.00,-0.00,0.02
0.047,takeoff,1,324,177,0.52,0.00,0.00,-0.80,0.00,-0.00,-0.00,0.00,0.000,0.000,-0.000,0.311,3.141,-0.000,0.388,0.000,0.316,-0.00,-0.00,0.02
0.047,takeoff,1,324,177,0.52,0.00,0.00,-0.80,0.00,-0.00,-0.00,0.00,0.000,-0.000,-0.000,0.311,3.141,-0.000,0.388,0.000,0.316,-0.00,-0.00,0.02
0.047,takeoff,1,324,177,0.52,0.00,0.00,-0.80,0.00,0.00,-0.00,0.00,0.000,-0.000,-0.000,0.311,3.141,-0.000,0.388,0.000,0.316,-0.00,-0.00,0.02
0.047,takeoff,1,324,177,0.52,0.00,0.00,-0.80,0.00,0.00,-0.00,0.00,0.000,-0.000,-0.000,0.310,3.141,-0.000,0.388,0.000,0.316,-0.00,-0.00,0.02
0.062,takeoff,1,324,177,0.52,0.00,0.00,-0.80,0.00,0.00,-0.00,0.00,0.000,-0.000,-0.000,0.310,3.141,-0.000,0.388,0.000,0.317,-0.00,-0.00,0.02
0.062,takeoff,1,324,177,0.52,0.00,0.00,-0.80,0.00,0.00,-0.00,-0.02,0.000,-0.002,-0.000,0.310,3.141,-0.000,0.390,0.000,0.315,-0.00,-0.00,0.02
0.062,takeoff,1,324,177,0.52,0.00,0.00,-0.80,0.00,0.00,-0.00,-0.02,0.000,-0.002,-0.000,0.306,3.141,-0.000,0.384,0.000,0.315,-0.00,-0.00,0.02
0.062,takeoff,1,324,177,0.52,0.00,0.00,-0.80,0.00,0.01,-0.00,-0.02,0.000,-0.002,-0.000,0.306,3.141,-0.000,0.384,0.000,0.315,-0.00,-0.00,0.02
0.062,takeoff,1,324,177,0.52,0.00,0.00,-0.80,0.00,0.01,-0.00,-0.05,0.000,-0.004,-0.000,0.301,3.141,-0.000,0.382,0.000,0.312,-0.00,-0.00,0.02
0.078,takeoff,1,325,180,0.51,0.00,0.00,-0.80,0.00,0.01,-0.00,-0.05,0.000,-0.004,-0.000,0.301,3.141,-0.000,0.382,0.000,0.313,-0.00,-0.00,0.02
0.078,takeoff,1,325,180,0.51,0.00,0.00,-0.80,0.00,0.01,-0.00,-0.05,0.000,-0.004,-0.000,0.301,3.141,-0.000,0.382,0.000,0.313,-0.00,-0.00,0.02
0.078,takeoff,1,325,180,0.51,0.00,0.00,-0.80,0.00,0.03,-0.00,-0.07,0.000,-0.006,-0.000,0.295,3.141,-0.000,0.376,0.000,0.312,-0.00,-0.00,0.02
0.078,takeoff,1,325,180,0.51,0.00,0.00,-0.80,0.00,0.03,-0.00,-0.07,0.000,-0.006,-0.000,0.295,3.141,-0.000,0.376,0.000,0.312,-0.00,-0.00,0.02
0.078,takeoff,1,325,180,0.51,0.00,0.00,-0.80,0.00,0.03,-0.00,-0.07,0.000,-0.006,-0.000,0.295,3.141,-0.000,0.376,0.000,0.312,-0.00,-0.00,0.02
0.078,takeoff,1,325,180,0.51,0.00,0.00,-0.80,0.00,0.03,-0.00,-0.07,0.000,-0.006,-0.000,0.295,3.141,-0.000,0.376,0.000,0.312,-0.00,-0.00,0.02
0.093,takeoff,1,325,180,0.51,0.00,0.00,-0.80,0.00,0.03,-0.00,-0.07,0.000,-0.006,-0.000,0.278,3.141,-0.000,0.356,0.000,0.312,-0.00,-0.00,0.02
0.093,takeoff,1,325,180,0.51,0.00,0.00,-0.80,0.00,0.06,-0.00,-0.09,0.000,-0.010,-0.000,0.278,3.141,-0.001,0.361,0.000,0.310,-0.00,-0.00,0.02
0.093,takeoff,1,325,180,0.51,0.00,0.00,-0.80,0.00,0.06,-0.00,-0.09,0.000,-0.010,-0.000,0.278,3.141,-0.001,0.361,0.000,0.310,-0.00,-0.00,0.02
0.093,takeoff,1,325,180,0.51,0.00,0.00,-0.80,0.00,0.06,-0.00,-0.09,0.000,-0.010,-0.000,0.278,3.141,-0.001,0.361,0.000,0.310,-0.00,-0.00,0.02
0.093,takeoff,1,325,180,0.51,0.00,0.00,-0.80,0.00,0.06,-0.00,-0.09,0.000,-0.010,0.000,0.269,3.141,-0.000,0.349,0.000,0.310,-0.00,-0.00,0.02
0.093,takeoff,1,324,190,0.52,0.00,0.00,-0.80,0.00,0.06,-0.00,-0.10,0.001,-0.013,0.000,0.269,3.141,-0.001,0.352,0.000,0.309,-0.00,0.00,0.02
0.109,takeoff,1,324,190,0.52,0.00,0.00,-0.80,0.00,0.06,-0.00,-0.10,0.001,-0.013,0.000,0.269,3.141,-0.001,0.352,0.000,0.310,-0.00,0.00,0.02
0.109,takeoff,1,324,190,0.52,0.00,0.00,-0.80,0.00,0.09,-0.00,-0.10,0.001,-0.013,0.000,0.269,3.141,-0.001,0.352,0.000,0.310,-0.00,0.00,0.02
0.109,takeoff,1,324,190,0.52,0.00,0.00,-0.80,0.00,0.09,-0.00,-0.10,0.001,-0.013,0.000,0.259,3.141,-0.001,0.340,0.000,0.310,-0.00,0.00,0.02
0.109,takeoff,1,324,190,0.52,0.00,0.00,-0.80,0.00,0.09,-0.00,-0.10,0.001,-0.013,0.000,0.259,3.141,-0.001,0.340,0.000,0.310,-0.00,0.00,0.02
0.109,takeoff,1,324,190,0.52,0.00,0.00,-0.80,0.00,0.09,-0.00,-0.12,0.001,-0.017,0.000,0.259,3.141,-0.001,0.346,0.000,0.309,-0.00,0.00,0.02
0.109,takeoff,1,324,190,0.52,0.00,0.00,-0.80,0.00,0.09,-0.00,-0.12,0.001,-0.017,0.000,0.259,3.141,-0.001,0.346,0.000,0.309,-0.00,0.00,0.02
0.109,takeoff,1,324,190,0.52,0.00,0.00,-0.80,0.00,0.09,-0.00,-0.12,0.001,-0.017,0.000,0.242,3.141,-0.000,0.324,0.000,0.309,-0.00,0.00,0.02
0.125,takeoff,1,324,190,0.52,0.00,0.00,-0.80,0.00,0.13,-0.00,-0.12,0.001,-0.017,0.000,0.242,3.141,-0.000,0.324,0.000,0.309,-0.00,0.00,0.02
0.125,takeoff,1,324,190,0.52,0.00,0.00,-0.80,0.00,0.13,-0.00,-0.12,0.001,-0.017,0.000,0.242,3.141,-0.000,0.324,0.000,0.309,-0.00,0.00,0.02
0.125,takeoff,1,324,190,0.52,0.00,0.00,-0.80,0.00,0.13,-0.00,-0.12,0.001,-0.020,0.000,0.242,3.141,-0.000,0.327,0.000,0.309,-0.01,0.00,0.01
0.125,takeoff,1,324,190,0.52,0.00,0.00,-0.80,0.00,0.13,-0.00,-0.12,0.001,-0.020,0.000,0.234,3.141,-0.000,0.317,0.000,0.309,-0.01,0.00,0.01
0.125,takeoff,1,324,190,0.52,0.00,0.00,-0.80,0.00,0.13,-0.00,-0.12,0.001,-0.020,0.000,0.234,3.141,-0.000,0.317,0.000,0.309,-0.01,0.00,0.01
0.125,takeoff,1,324,190,0.52,0.00,0.00,-0.80,0.00,0.13,-0.00,-0.12,0.001,-0.020,0.000,0.234,3.141,-0.000,0.317,0.000,0.309,-0.01,0.00,0.01
0.140,takeoff,1,324,190,0.52,0.00,0.00,-0.80,0.00,0.16,-0.00,-0.14,0.001,-0.024,0.000,0.234,3.141,-0.000,0.323,0.000,0.308,-0.01,0.00,0.01
0.140,takeoff,1,324,203,0.52,0.00,0.00,-0.80,0.00,0.16,-0.00,-0.14,0.001,-0.024,0.000,0.228,3.141,-0.000,0.315,0.000,0.308,-0.01,0.00,0.01
0.140,takeoff,1,324,203,0.52,0.00,0.00,-0.80,0.00,0.16,-0.00,-0.14,0.001,-0.024,0.000,0.228,3.141,-0.000,0.315,0.000,0.308,-0.01,0.00,0.01
0.140,takeoff,1,324,203,0.52,0.00,0.00,-0.80,0.00,0.16,-0.00,-0.14,0.001,-0.024,0.000,0.228,3.141,-0.000,0.315,0.000,0.308,-0.01,0.00,0.01
0.140,takeoff,1,324,203,0.52,0.00,0.00,-0.80,0.00,0.16,-0.00,-0.14,0.001,-0.024,0.000,0.228,3.141,-0.000,0.315,0.000,0.308,-0.01,0.00,0.01
0.140,takeoff,1,324,203,0.52,0.00,0.00,-0.80,0.00,0.16,-0.00,-0.17,0.001,-0.029,0.000,0.216,3.141,-0.000,0.306,0.000,0.306,-0.01,0.00,0.01
0.140,takeoff,1,324,203,0.52,0.00,0.00,-0.80,0.00,0.20,-0.00,-0.17,0.001,-0.029,0.000,0.216,3.141,-0.000,0.306,0.000,0.306,-0.01,0.00,0.01
0.156,takeoff,1,324,203,0.52,0.00,0.00,-0.80,0.00,0.20,-0.00,-0.17,0.001,-0.029,0.000,0.216,3.141,-0.000,0.306,0.000,0.306,-0.01,0.00,0.01
0.156,takeoff,1,324,203,0.52,0.00,0.00,-0.80,0.00,0.20,-0.00,-0.17,0.001,-0.029,0.000,0.211,3.141,-0.000,0.300,0.000,0.306,-0.01,0.00,0.01
0.156,takeoff,1,324,203,0.52,0.00,0.00,-0.80,0.00,0.20,-0.00,-0.18,0.001,-0.031,0.000,0.211,3.141,-0.000,0.302,0.000,0.305,-0.01,0.00,0.01
0.156,takeoff,1,324,203,0.52,0.00,0.00,-0.80,0.00,0.20,-0.00,-0.18,0.001,-0.031,0.000,0.211,3.141,-0.000,0.302,0.000,0.305,-0.01,0.00,0.01
0.156,takeoff,1,324,203,0.52,0.00,0.00,-0.80,0.00,0.23,-0.00,-0.18,0.001,-0.031,0.000,0.211,3.141,-0.000,0.302,0.000,0.305,-0.01,0.00,0.01
0.156,takeoff,1,324,203,0.52,0.00,0.00,-0.80,0.00,0.23,-0.00,-0.18,0.001,-0.031,0.000,0.206,3.141,-0.000,0.296,0.000,0.305,-0.01,0.00,0.01
0.172,takeoff,1,324,203,0.52,0.00,0.00,-0.80,0.00,0.23,-0.00,-0.19,0.001,-0.033,0.000,0.206,3.141,-0.000,0.298,0.000,0.305,-0.02,0.00,0.01
0.172,takeoff,1,324,203,0.52,0.00,0.00,-0.80,0.00,0.23,-0.00,-0.19,0.001,-0.033,0.000,0.201,3.141,-0.000,0.292,0.000,0.305,-0.02,0.00,0.01
0.172,takeoff,1,325,212,0.51,0.00,0.00,-0.80,0.00,0.23,-0.00,-0.19,0.001,-0.033,0.000,0.201,3.141,-0.000,0.292,0.000,0.305,-0.02,0.00,0.01
0.172,takeoff,1,325,212,0.51,0.00,0.00,-0.80,0.00,0.26,-0.00,-0.22,0.001,-0.037,0.000,0.201,3.141,-0.000,0.297,0.000,0.303,-0.02,0.00,0.01
0.172,takeoff,1,325,212,0.51,0.00,0.00,-0.80,0.00,0.26,-0.00,-0.22,0.001,-0.037,0.000,0.195,3.141,-0.000,0.290,0.000,0.303,-0.02,0.00,0.01
0.172,takeoff,1,325,212,0.51,0.00,0.00,-0.80,0.00,0.26,-0.00,-0.22,0.001,-0.037,0.000,0.195,3.141,-0.000,0.290,0.000,0.303,-0.02,0.00,0.01
0.187,takeoff,1,325,212,0.51,0.00,0.00,-0.80,0.00,0.26,-0.00,-0.22,0.001,-0.037,0.000,0.195,3.141,-0.000,0.290,0.000,0.303,-0.02,0.00,0.01
0.187,takeoff,1,325,212,0.51,0.00,0.00,-0.80,0.00,0.26,-0.00,-0.22,0.001,-0.037,0.000,0.195,3.141,-0.000,0.290,0.000,0.303,-0.02,0.00,0.01
0.187,takeoff,1,325,212,0.51,0.00,0.00,-0.80,0.00,0.29,-0.00,-0.23,0.001,-0.039,0.000,0.190,3.141,-0.000,0.286,0.000,0.302,-0.02,0.00,0.00
0.187,takeoff,1,325,212,0.51,0.00,0.00,-0.80,0.00,0.29,-0.00,-0.23,0.001,-0.039,0.000,0.190,3.141,-0.000,0.286,0.000,0.302,-0.02,0.00,0.00
0.187,takeoff,1,325,212,0.51,0.00,0.00,-0.80,0.00,0.29,-0.00,-0.23,0.001,-0.039,0.000,0.190,3.141,-0.000,0.286,0.000,0.302,-0.02,0.00,0.00
0.187,takeoff,1,325,212,0.51,0.00,0.00,-0.80,0.00,0.29,-0.00,-0.23,0.001,-0.039,0.000,0.190,3.141,-0.000,0.286,0.000,0.302,-0.02,0.00,0.00
0.187,takeoff,1,325,212,0.51,0.00,0.00,-0.80,0.00,0.29,-0.00,-0.26,0.001,-0.043,0.000,0.178,3.141,-0.000,0.276,0.000,0.300,-0.03,0.00,-0.00
0.203,takeoff,1,325,212,0.51,0.00,0.00,-0.80,0.00,0.29,-0.00,-0.26,0.001,-0.043,0.000,0.178,3.141,-0.000,0.276,0.000,0.300,-0.03,0.00,-0.00
0.203,takeoff,1,325,212,0.51,0.00,0.00,-0.80,0.00,0.30,-0.00,-0.26,0.001,-0.043,0.000,0.178,3.141,-0.000,0.276,0.000,0.300,-0.03,0.00,-0.00
0.203,takeoff,1,325,212,0.51,0.00,0.00,-0.80,0.00,0.30,-0.00,-0.26,0.001,-0.043,0.000,0.178,3.141,-0.000,0.276,0.000,0.300,-0.03,0.00,-0.00
0.203,takeoff,1,325,212,0.51,0.00,0.00,-0.80,0.00,0.30,-0.00,-0.26,0.001,-0.043,0.000,0.173,3.141,-0.000,0.270,0.000,0.300,-0.03,0.00,-0.00
0.203,takeoff,1,326,222,0.51,0.00,0.00,-0.80,0.00,0.30,-0.00,-0.28,0.001,-0.045,0.000,0.173,3.141,-0.000,0.272,0.000,0.299,-0.03,0.00,-0.00
0.203,takeoff,1,326,222,0.51,0.00,0.00,-0.80,0.00,0.30,-0.00,-0.28,0.001,-0.045,0.000,0.173,3.141,-0.000,0.272,0.000,0.299,-0.03,0.00,-0.00
0.203,takeoff,1,326,222,0.51,0.00,0.00,-0.80,0.00,0.30,-0.00,-0.28,0.001,-0.045,0.000,0.173,3.141,-0.000,0.272,0.000,0.299,-0.03,0.00,-0.00
0.218,takeoff,1,326,222,0.51,0.00,0.00,-0.80,0.00,0.33,-0.00,-0.28,0.001,-0.045,0.000,0.168,3.141,-0.000,0.265,0.000,0.299,-0.03,0.00,-0.00
0.218,takeoff,1,326,222,0.51,0.00,0.00,-0.80,0.00,0.33,-0.00,-0.30,0.001,-0.048,0.000,0.168,3.141,-0.000,0.269,0.000,0.297,-0.04,0.00,-0.01
0.218,takeoff,1,326,222,0.51,0.00,0.00,-0.80,0.00,0.33,-0.00,-0.30,0.001,-0.048,0.000,0.168,3.141,-0.000,0.269,0.000,0.297,-0.04,0.00,-0.01
0.218,takeoff,1,326,222,0.51,0.00,0.00,-0.80,0.00,0.33,-0.00,-0.30,0.001,-0.048,0.000,0.157,3.141,-0.000,0.257,0.000,0.297,-0.04,0.00,-0.01
0.218,takeoff,1,326,222,0.51,0.00,0.00,-0.80,0.00,0.33,-0.00,-0.30,0.001,-0.048,0.000,0.157,3.141,-0.000,0.257,0.000,0.297,-0.04,0.00,-0.01
0.218,takeoff,1,326,222,0.51,0.00,0.00,-0.80,0.00,0.33,-0.00,-0.30,0.001,-0.048,0.000,0.157,3.141,-0.000,0.257,0.000,0.297,-0.04,0.00,-0.01
0.234,takeoff,1,326,222,0.51,0.00,0.00,-0.80,0.00,0.36,-0.00,-0.32,0.001,-0.049,0.000,0.157,3.141,-0.000,0.259,0.000,0.297,-0.04,0.00,-0.01
0.234,takeoff,1,326,222,0.51,0.00,0.00,-0.80,0.00,0.36,-0.00,-0.32,0.001,-0.049,0.000,0.153,3.141,-0.000,0.253,0.000,0.297,-0.04,0.00,-0.01
0.234,takeoff,1,326,222,0.51,0.00,0.00,-0.80,0.00,0.36,-0.00,-0.32,0.001,-0.049,0.000,0.153,3.141,-0.000,0.253,0.000,0.297,-0.04,0.00,-0.01
0.234,takeoff,1,326,222,0.51,0.00,0.00,-0.80,0.00,0.36,-0.00,-0.32,0.001,-0.049,0.000,0.153,3.141,-0.000,0.253,0.000,0.297,-0.04,0.00,-0.01
0.234,takeoff,1,326,222,0.51,0.00,0.00,-0.80,0.00,0.36,-0.00,-0.34,0.001,-0.052,0.000,0.148,3.141,-0.000,0.250,0.000,0.295,-0.04,0.00,-0.01
0.234,takeoff,1,326,230,0.52,0.00,0.00,-0.80,0.00,0.38,-0.00,-0.34,0.001,-0.052,0.000,0.148,3.141,-0.000,0.250,0.000,0.295,-0.04,0.00,-0.01
0.250,takeoff,1,326,230,0.52,0.00,0.00,-0.80,0.00,0.38,-0.00,-0.34,0.001,-0.052,0.000,0.148,3.141,-0.000,0.250,0.000,0.295,-0.04,0.00,-0.01
0.250,takeoff,1,326,230,0.52,0.00,0.00,-0.80,0.00,0.38,-0.00,-0.34,0.001,-0.052,0.000,0.148,3.141,-0.000,0.250,0.000,0.295,-0.04,0.00,-0.01
0.250,takeoff,1,326,230,0.52,0.00,0.00,-0.80,0.00,0.38,-0.00,-0.34,0.001,-0.052,0.000,0.143,3.141,-0.000,0.244,0.000,0.295,-0.04,0.00,-0.01
0.250,takeoff,1,326,230,0.52,0.00,0.00,-0.80,0.00,0.38,-0.00,-0.35,0.001,-0.054,0.000,0.143,3.141,-0.000,0.246,0.000,0.294,-0.05,0.00,-0.02
0.250,takeoff,1,326,230,0.52,0.00,0.00,-0.80,0.00,0.38,-0.00,-0.35,0.001,-0.054,0.000,0.143,3.141,-0.000,0.246,0.000,0.294,-0.05,0.00,-0.02
0.250,takeoff,1,326,230,0.52,0.00,0.00,-0.80,0.00,0.41,-0.00,-0.35,0.001,-0.054,0.000,0.134,3.141,-0.000,0.235,0.000,0.294,-0.05,0.00,-0.02
0.265,takeoff,1,326,230,0.52,0.00,0.00,-0.80,0.00,0.41,-0.00,-0.35,0.001,-0.054,0.000,0.134,3.141,-0.000,0.235,0.000,0.294,-0.05,0.00,-0.02
0.265,takeoff,1,326,230,0.52,0.00,0.00,-0.80,0.00,0.41,-0.00,-0.38,0.000,-0.057,0.000,0.134,3.141,-0.000,0.238,0.000,0.292,-0.05,0.00,-0.02
0.265,takeoff,1,326,230,0.52,0.00,0.00,-0.80,0.00,0.41,-0.00,-0.38,0.000,-0.057,0.000,0.134,3.141,-0.000,0.238,0.000,0.292,-0.05,0.00,-0.02
0.265,takeoff,1,326,230,0.52,0.00,0.00,-0.80,0.00,0.41,-0.00,-0.38,0.000,-0.057,0.000,0.129,3.141,-0.000,0.232,0.000,0.292,-0.05,0.00,-0.02
0.265,takeoff,1,326,236,0.51,0.00,0.00,-0.80,0.00,0.41,-0.00,-0.38,0.000,-0.057,0.000,0.129,3.141,-0.000,0.232,0.000,0.292,-0.05,0.00,-0.02
0.265,takeoff,1,326,236,0.51,0.00,0.00,-0.80,0.00,0.43,-0.00,-0.39,0.000,-0.058,0.000,0.129,3.141,-0.000,0.234,0.000,0.292,-0.06,0.00,-0.02
0.265,takeoff,1,326,236,0.51,0.00,0.00,-0.80,0.00,0.43,-0.00,-0.39,0.000,-0.058,0.000,0.129,3.141,-0.000,0.234,0.000,0.292,-0.06,0.00,-0.02
0.281,takeoff,1,326,236,0.51,0.00,0.00,-0.80,0.00,0.43,-0.00,-0.39,0.000,-0.058,0.000,0.125,3.141,-0.000,0.228,0.000,0.292,-0.06,0.00,-0.02
0.281,takeoff,1,326,236,0.51,0.00,0.00,-0.80,0.00,0.43,-0.00,-0.39,0.000,-0.058,0.000,0.125,3.141,-0.000,0.228,0.000,0.292,-0.06,0.00,-0.02
0.281,takeoff,1,326,236,0.51,0.00,0.00,-0.80,0.00,0.43,-0.00,-0.40,0.000,-0.060,0.000,0.125,3.141,-0.000,0.231,0.000,0.291,-0.06,0.00,-0.03
0.281,takeoff,1,326,236,0.51,0.00,0.00,-0.80,0.00,0.45,-0.00,-0.40,0.000,-0.060,0.000,0.121,3.141,-0.000,0.226,0.000,0.291,-0.06,0.00,-0.03
0.281,takeoff,1,326,236,0.51,0.00,0.00,-0.80,0.00,0.45,-0.00,-0.40,0.000,-0.060,0.000,0.121,3.141,-0.000,0.226,0.000,0.291,-0.06,0.00,-0.03
0.281,takeoff,1,326,236,0.51,0.00,0.00,-0.80,0.00,0.45,-0.00,-0.40,0.000,-0.060,0.000,0.121,3.141,-0.000,0.226,0.000,0.291,-0.06,0.00,-0.03
0.281,takeoff,1,326,236,0.51,0.00,0.00,-0.80,0.00,0.45,-0.00,-0.40,0.000,-0.060,0.000,0.121,3.141,-0.000,0.226,0.000,0.291,-0.06,0.00,-0.03
0.297,takeoff,1,326,236,0.51,0.00,0.00,-0.80,0.00,0.45,-0.00,-0.41,0.000,-0.061,0.000,0.112,3.141,-0.000,0.217,0.000,0.290,-0.07,0.00,-0.03
0.297,takeoff,1,326,236,0.51,0.00,0.00,-0.80,0.00,0.47,-0.00,-0.41,0.000,-0.061,0.000,0.112,3.141,-0.000,0.217,0.000,0.290,-0.07,0.00,-0.03
0.297,takeoff,1,326,236,0.51,0.00,0.00,-0.80,0.00,0.47,-0.00,-0.41,0.000,-0.061,0.000,0.112,3.141,-0.000,0.217,0.000,0.290,-0.07,0.00,-0.03
0.297,takeoff,1,326,236,0.51,0.00,0.00,-0.80,0.00,0.47,-0.00,-0.42,0.000,-0.063,0.000,0.108,3.141,-0.000,0.214,0.000,0.289,-0.07,0.00,-0.04
0.297,takeoff,1,326,244,0.52,0.00,0.00,-0.80,0.00,0.47,-0.00,-0.42,0.000,-0.063,0.000,0.108,3.141,-0.000,0.214,0.000,0.289,-0.07,0.00,-0.04
0.312,takeoff,1,326,244,0.52,0.00,0.00,-0.80,0.00,0.47,-0.00,-0.42,0.000,-0.063,0.000,0.108,3.141,-0.000,0.214,0.000,0.290,-0.07,0.00,-0.04
0.312,takeoff,1,326,244,0.52,0.00,0.00,-0.80,0.00,0.47,-0.00,-0.42,0.000,-0.063,0.000,0.104,3.141,-0.000,0.209,0.000,0.290,-0.07,0.00,-0.04
0.312,takeoff,1,326,244,0.52,0.00,0.00,-0.80,0.00,0.49,-0.00,-0.43,0.000,-0.064,0.000,0.104,3.141,-0.000,0.210,0.000,0.289,-0.08,0.00,-0.04
0.312,takeoff,1,326,244,0.52,0.00,0.00,-0.80,0.00,0.49,-0.00,-0.43,0.000,-0.064,0.000,0.104,3.141,-0.000,0.210,0.000,0.289,-0.08,0.00,-0.04
0.312,takeoff,1,326,244,0.52,0.00,0.00,-0.80,0.00,0.49,-0.00,-0.43,0.000,-0.064,0.000,0.100,3.141,-0.000,0.205,0.000,0.289,-0.08,0.00,-0.04
0.312,takeoff,1,326,244,0.52,0.00,0.00,-0.80,0.00,0.49,-0.00,-0.43,0.000,-0.064,0.000,0.100,3.141,-0.000,0.205,0.000,0.289,-0.08,0.00,-0.04
0.328,takeoff,1,326,244,0.52,0.00,0.00,-0.80,0.00,0.49,-0.00,-0.44,0.000,-0.066,0.000,0.100,3.141,-0.000,0.208,0.000,0.288,-0.09,0.00,-0.05
0.328,takeoff,1,326,244,0.52,0.00,0.00,-0.80,0.00,0.51,-0.00,-0.44,0.000,-0.066,0.000,0.100,3.141,-0.000,0.208,0.000,0.288,-0.09,0.00,-0.05
0.328,takeoff,1,326,244,0.52,0.00,0.00,-0.80,0.00,0.51,-0.00,-0.44,0.000,-0.066,0.000,0.092,3.141,-0.000,0.198,0.000,0.288,-0.09,0.00,-0.05
0.328,takeoff,1,326,244,0.52,0.00,0.00,-0.80,0.00,0.51,-0.00,-0.44,0.000,-0.066,0.000,0.092,3.141,-0.000,0.198,0.000,0.288,-0.09,0.00,-0.05
0.328,takeoff,1,326,244,0.52,0.00,0.00,-0.80,0.00,0.51,-0.00,-0.44,0.000,-0.066,0.000,0.092,3.141,-0.000,0.198,0.000,0.288,-0.09,0.00,-0.05
0.328,takeoff,1,326,244,0.52,0.00,0.00,-0.80,0.00,0.51,-0.00,-0.45,0.000,-0.068,0.000,0.092,3.141,-0.000,0.200,0.000,0.288,-0.09,0.00,-0.05
0.328,takeoff,1,326,244,0.52,0.00,0.00,-0.80,0.00,0.51,-0.00,-0.45,0.000,-0.068,0.000,0.088,3.141,-0.000,0.195,0.000,0.288,-0.09,0.00,-0.05
0.343,takeoff,1,326,244,0.52,0.00,0.00,-0.80,0.00,0.52,-0.00,-0.45,0.000,-0.068,0.000,0.088,3.141,-0.000,0.195,0.000,0.288,-0.09,0.00,-0.05
0.343,takeoff,1,326,244,0.52,0.00,0.00,-0.80,0.00,0.52,-0.00,-0.45,0.000,-0.068,0.000,0.088,3.141,-0.000,0.195,0.000,0.288,-0.09,0.00,-0.05
0.343,takeoff,1,326,244,0.52,0.00,0.00,-0.80,0.00,0.52,-0.00,-0.46,0.000,-0.068,0.000,0.088,3.141,-0.000,0.196,0.000,0.287,-0.10,0.00,-0.06
0.343,takeoff,1,326,244,0.52,0.00,0.00,-0.80,0.00,0.52,-0.00,-0.46,0.000,-0.068,0.000,0.085,3.141,-0.000,0.192,0.000,0.287,-0.10,0.00,-0.06
0.343,takeoff,1,326,250,0.52,0.00,0.00,-0.80,0.00,0.52,-0.00,-0.46,0.000,-0.068,0.000,0.085,3.141,-0.000,0.192,0.000,0.287,-0.10,0.00,-0.06
0.343,takeoff,1,326,250,0.52,0.00,0.00,-0.80,0.00,0.52,-0.00,-0.46,0.000,-0.068,0.000,0.085,3.141,-0.000,0.192,0.000,0.287,-0.10,0.00,-0.06
0.343,takeoff,1,326,250,0.52,0.00,0.00,-0.80,0.00,0.54,-0.00,-0.46,0.000,-0.068,0.000,0.085,3.141,-0.000,0.192,0.000,0.287,-0.10,0.00,-0.06
0.359,takeoff,1,326,250,0.52,0.00,0.00,-0.80,0.00,0.54,-0.00,-0.47,0.000,-0.070,0.000,0.079,3.141,-0.000,0.186,0.000,0.287,-0.10,0.00,-0.06
0.359,takeoff,1,326,250,0.52,0.00,0.00,-0.80,0.00,0.54,-0.00,-0.47,0.000,-0.070,0.000,0.079,3.141,-0.000,0.186,0.000,0.287,-0.10,0.00,-0.06
0.359,takeoff,1,326,250,0.52,0.00,0.00,-0.80,0.00,0.54,-0.00,-0.47,0.000,-0.070,0.000,0.079,3.141,-0.000,0.186,0.000,0.287,-0.10,0.00,-0.06
0.359,takeoff,1,326,250,0.52,0.00,0.00,-0.80,0.00,0.54,-0.00,-0.47,0.000,-0.070,0.000,0.079,3.141,-0.000,0.186,0.000,0.287,-0.10,0.00,-0.06
0.359,takeoff,1,326,250,0.52,0.00,0.00,-0.80,0.00,0.56,-0.00,-0.48,0.000,-0.071,0.000,0.076,3.141,-0.000,0.183,0.000,0.286,-0.11,0.00,-0.07
0.359,takeoff,1,326,250,0.52,0.00,0.00,-0.80,0.00,0.56,-0.00,-0.48,0.000,-0.071,0.000,0.076,3.141,-0.000,0.183,0.000,0.286,-0.11,0.00,-0.07
0.375,takeoff,1,326,250,0.52,0.00,0.00,-0.80,0.00,0.56,-0.00,-0.48,0.000,-0.071,0.000,0.076,3.141,-0.000,0.183,0.000,0.286,-0.11,0.00,-0.07
0.375,takeoff,1,326,256,0.52,0.00,0.00,-0.80,0.00,0.56,-0.00,-0.48,0.000,-0.071,0.000,0.069,3.141,-0.000,0.175,0.000,0.286,-0.11,0.00,-0.07
0.375,takeoff,1,326,256,0.52,0.00,0.00,-0.80,0.00,0.56,-0.00,-0.48,0.000,-0.071,0.000,0.069,3.141,-0.000,0.175,0.000,0.286,-0.11,0.00,-0.07
0.375,takeoff,1,326,256,0.52,0.00,0.00,-0.80,0.00,0.56,-0.00,-0.48,0.000,-0.072,0.000,0.069,3.141,-0.000,0.176,0.000,0.286,-0.12,0.00,-0.07
0.375,takeoff,1,326,256,0.52,0.00,0.00,-0.80,0.00,0.56,-0.00,-0.48,0.000,-0.072,0.000,0.069,3.141,-0.000,0.176,0.000,0.286,-0.12,0.00,-0.07
0.375,takeoff,1,326,256,0.52,0.00,0.00,-0.80,0.00,0.56,-0.00,-0.48,0.000,-0.072,0.000,0.066,3.141,-0.000,0.171,0.000,0.286,-0.12,0.00,-0.07
0.375,takeoff,1,326,256,0.52,0.00,0.00,-0.80,0.00,0.56,-0.00,-0.48,0.000,-0.072,0.000,0.066,3.141,-0.000,0.171,0.000,0.286,-0.12,0.00,-0.07
0.390,takeoff,1,326,256,0.52,0.00,0.00,-0.80,0.00,0.56,-0.00,-0.49,0.000,-0.073,0.000,0.066,3.141,-0.000,0.173,0.000,0.285,-0.12,0.00,-0.08
0.390,takeoff,1,326,256,0.52,0.00,0.00,-0.80,0.00,0.56,-0.00,-0.49,0.000,-0.073,0.000,0.066,3.141,-0.000,0.173,0.000,0.285,-0.12,0.00,-0.08
0.390,takeoff,1,326,256,0.52,0.00,0.00,-0.80,0.00,0.56,-0.00,-0.49,0.000,-0.073,0.000,0.062,3.141,-0.000,0.169,0.000,0.285,-0.12,0.00,-0.08
0.390,takeoff,1,326,256,0.52,0.00,0.00,-0.80,0.00,0.57,-0.00,-0.49,0.000,-0.073,0.000,0.062,3.141,-0.000,0.169,0.000,0.285,-0.12,0.00,-0.08
0.390,takeoff,1,326,256,0.52,0.00,0.00,-0.80,0.00,0.57,-0.00,-0.49,0.000,-0.073,0.000,0.062,3.141,-0.000,0.169,0.000,0.285,-0.12,0.00,-0.08
0.390,takeoff,1,326,256,0.52,0.00,0.00,-0.80,0.00,0.57,-0.00,-0.50,0.000,-0.073,0.000,0.059,3.141,-0.000,0.165,0.000,0.285,-0.13,0.00,-0.08
0.390,takeoff,1,326,256,0.52,0.00,0.00,-0.80,0.00,0.57,-0.00,-0.50,0.000,-0.073,0.000,0.059,3.141,-0.000,0.165,0.000,0.285,-0.13,0.00,-0.08
0.406,takeoff,1,326,256,0.52,0.00,0.00,-0.80,0.00,0.57,-0.00,-0.50,0.000,-0.073,0.000,0.059,3.141,-0.000,0.165,0.000,0.285,-0.13,0.00,-0.08
0.406,takeoff,1,326,256,0.52,0.00,0.00,-0.80,0.00,0.57,-0.00,-0.50,0.000,-0.073,0.000,0.059,3.141,-0.000,0.165,0.000,0.285,-0.13,0.00,-0.08
0.406,takeoff,1,326,262,0.51,0.00,0.00,-0.80,0.00,0.59,-0.00,-0.51,0.000,-0.074,0.000,0.053,3.141,-0.000,0.159,0.000,0.285,-0.14,0.00,-0.09
0.406,takeoff,1,326,262,0.51,0.00,0.00,-0.80,0.00,0.59,-0.00,-0.51,0.000,-0.074,0.000,0.053,3.141,-0.000,0.159,0.000,0.285,-0.14,0.00,-0.09
0.406,takeoff,1,326,262,0.51,0.00,0.00,-0.80,0.00,0.59,-0.00,-0.51,0.000,-0.074,0.000,0.053,3.141,-0.000,0.159,0.000,0.285,-0.14,0.00,-0.09
0.406,takeoff,1,326,262,0.51,0.00,0.00,-0.80,0.00,0.59,-0.00,-0.51,0.000,-0.074,0.000,0.053,3.141,-0.000,0.159,0.000,0.285,-0.14,0.00,-0.09
0.422,takeoff,1,326,262,0.51,0.00,0.00,-0.80,0.00,0.59,-0.00,-0.51,0.000,-0.074,0.000,0.050,3.141,-0.000,0.155,0.000,0.285,-0.14,0.00,-0.09
0.422,takeoff,1,326,262,0.51,0.00,0.00,-0.80,0.00,0.59,-0.00,-0.51,0.000,-0.075,0.000,0.050,3.141,-0.000,0.155,0.000,0.284,-0.14,0.00,-0.09
0.422,takeoff,1,326,262,0.51,0.00,0.00,-0.80,0.00,0.60,-0.00,-0.51,0.000,-0.075,0.000,0.050,3.141,-0.000,0.155,0.000,0.284,-0.14,0.00,-0.09
0.422,takeoff,1,326,262,0.51,0.00,0.00,-0.80,0.00,0.60,-0.00,-0.51,0.000,-0.075,0.000,0.050,3.141,-0.000,0.155,0.000,0.284,-0.14,0.00,-0.09
0.422,takeoff,1,326,262,0.51,0.00,0.00,-0.80,0.00,0.60,-0.00,-0.51,0.000,-0.075,0.000,0.047,3.141,-0.000,0.152,0.000,0.284,-0.14,0.00,-0.09
0.422,takeoff,1,326,262,0.51,0.00,0.00,-0.80,0.00,0.60,-0.00,-0.51,0.000,-0.075,0.000,0.047,3.141,-0.000,0.152,0.000,0.284,-0.14,0.00,-0.09
0.422,takeoff,1,326,262,0.51,0.00,0.00,-0.80,0.00,0.60,-0.00,-0.52,0.000,-0.075,0.000,0.047,3.141,-0.000,0.153,0.000,0.284,-0.15,0.00,-0.10
0.437,takeoff,1,326,262,0.51,0.00,0.00,-0.80,0.00,0.60,-0.00,-0.52,0.000,-0.075,0.000,0.047,3.141,-0.000,0.153,0.000,0.284,-0.15,0.00,-0.10
0.437,takeoff,1,326,262,0.51,0.00,0.00,-0.80,0.00,0.61,-0.00,-0.52,0.000,-0.075,0.000,0.044,3.141,-0.000,0.149,0.000,0.284,-0.15,0.00,-0.10
0.437,takeoff,1,326,262,0.51,0.00,0.00,-0.80,0.00,0.61,-0.00,-0.52,0.000,-0.075,0.000,0.044,3.141,-0.000,0.149,0.000,0.284,-0.15,0.00,-0.10
0.437,takeoff,1,326,262,0.51,0.00,0.00,-0.80,0.00,0.61,-0.00,-0.53,0.000,-0.076,0.000,0.044,3.141,-0.000,0.150,0.000,0.283,-0.15,0.00,-0.10
0.437,takeoff,1,325,266,0.50,0.00,0.00,-0.80,0.00,0.61,-0.00,-0.53,0.000,-0.076,0.000,0.044,3.141,-0.000,0.150,0.000,0.283,-0.15,0.00,-0.10
0.437,takeoff,1,325,266,0.50,0.00,0.00,-0.80,0.00,0.61,-0.00,-0.53,0.000,-0.076,0.000,0.038,3.141,-0.000,0.142,0.000,0.283,-0.15,0.00,-0.10
0.437,takeoff,1,325,266,0.50,0.00,0.00,-0.80,0.00,0.61,-0.00,-0.53,0.000,-0.076,0.000,0.038,3.141,-0.000,0.142,0.000,0.283,-0.15,0.00,-0.10
0.453,takeoff,1,325,266,0.50,0.00,0.00,-0.80,0.00,0.61,-0.00,-0.53,0.000,-0.076,0.000,0.038,3.141,-0.000,0.142,0.000,0.284,-0.15,0.00,-0.10
0.453,takeoff,1,325,266,0.50,0.00,0.00,-0.80,0.00,0.61,-0.00,-0.53,0.000,-0.076,0.000,0.038,3.141,-0.000,0.143,0.000,0.283,-0.16,0.00,-0.11
0.453,takeoff,1,325,266,0.50,0.00,0.00,-0.80,0.00,0.61,-0.00,-0.53,0.000,-0.076,0.000,0.035,3.141,-0.000,0.140,0.000,0.283,-0.16,0.00,-0.11
0.453,takeoff,1,325,266,0.50,0.00,0.00,-0.80,0.00,0.61,-0.00,-0.53,0.000,-0.076,0.000,0.035,3.141,-0.000,0.140,0.000,0.283,-0.16,0.00,-0.11
0.453,takeoff,1,325,266,0.50,0.00,0.00,-0.80,0.00,0.61,-0.00,-0.53,0.000,-0.076,0.000,0.035,3.141,-0.000,0.140,0.000,0.283,-0.16,0.00,-0.11
0.453,takeoff,1,325,266,0.50,0.00,0.00,-0.80,0.00,0.61,-0.00,-0.53,0.000,-0.076,0.000,0.035,3.141,-0.000,0.140,0.000,0.283,-0.16,0.00,-0.11
0.453,takeoff,1,325,266,0.50,0.00,0.00,-0.80,0.00,0.62,-0.00,-0.54,0.000,-0.077,0.000,0.033,3.141,-0.000,0.137,0.000,0.283,-0.17,0.00,-0.11
0.468,takeoff,1,325,266,0.50,0.00,0.00,-0.80,0.00,0.62,-0.00,-0.54,0.000,-0.077,0.000,0.033,3.141,-0.000,0.137,0.000,0.283,-0.17,0.00,-0.11
0.468,takeoff,1,325,266,0.50,0.00,0.00,-0.80,0.00,0.62,-0.00,-0.54,0.000,-0.077,0.000,0.033,3.141,-0.000,0.137,0.000,0.283,-0.17,0.00,-0.11
0.468,takeoff,1,325,266,0.50,0.00,0.00,-0.80,0.00,0.62,-0.00,-0.54,0.000,-0.077,0.000,0.033,3.141,-0.000,0.137,0.000,0.283,-0.17,0.00,-0.11
0.468,takeoff,1,325,266,0.50,0.00,0.00,-0.80,0.00,0.62,-0.00,-0.54,0.000,-0.077,0.000,0.030,3.141,-0.000,0.134,0.000,0.283,-0.17,0.00,-0.11
0.468,takeoff,1,325,266,0.50,0.00,0.00,-0.80,0.00,0.62,-0.00,-0.55,0.000,-0.077,0.000,0.030,3.141,-0.000,0.134,0.000,0.282,-0.18,0.00,-0.12
0.468,takeoff,1,325,266,0.50,0.00,0.00,-0.80,0.00,0.63,-0.00,-0.55,0.000,-0.077,0.000,0.030,3.141,-0.000,0.134,0.000,0.282,-0.18,0.00,-0.12
0.468,takeoff,1,326,272,0.50,0.00,0.00,-0.80,0.00,0.63,-0.00,-0.55,0.000,-0.077,0.000,0.025,3.141,-0.000,0.128,0.000,0.282,-0.18,0.00,-0.12
0.484,takeoff,1,326,272,0.50,0.00,0.00,-0.80,0.00,0.63,-0.00,-0.55,0.000,-0.077,0.000,0.025,3.141,-0.000,0.128,0.000,0.282,-0.18,0.00,-0.12
0.484,takeoff,1,326,272,0.50,0.00,0.00,-0.80,0.00,0.63,-0.00,-0.55,0.000,-0.078,0.000,0.025,3.141,-0.000,0.128,0.000,0.282,-0.18,0.00,-0.13
0.484,takeoff,1,326,272,0.50,0.00,0.00,-0.80,0.00,0.63,-0.00,-0.55,0.000,-0.078,0.000,0.025,3.141,-0.000,0.128,0.000,0.282,-0.18,0.00,-0.13
0.484,takeoff,1,326,272,0.50,0.00,0.00,-0.80,0.00,0.63,-0.00,-0.55,0.000,-0.078,0.000,0.022,3.141,-0.000,0.125,0.000,0.282,-0.18,0.00,-0.13
0.484,takeoff,1,326,272,0.50,0.00,0.00,-0.80,0.00,0.64,-0.00,-0.55,0.000,-0.078,0.000,0.022,3.141,-0.000,0.125,0.000,0.282,-0.18,0.00,-0.13
0.484,takeoff,1,326,272,0.50,0.00,0.00,-0.80,0.00,0.64,-0.00,-0.55,0.000,-0.078,0.000,0.022,3.141,-0.000,0.125,0.000,0.282,-0.18,0.00,-0.13
0.484,takeoff,1,326,272,0.50,0.00,0.00,-0.80,0.00,0.64,-0.00,-0.56,0.000,-0.078,0.000,0.022,3.141,-0.000,0.125,0.000,0.281,-0.19,0.00,-0.13
0.484,takeoff,1,326,272,0.50,0.00,0.00,-0.80,0.00,0.64,-0.00,-0.56,0.000,-0.078,0.000,0.020,3.141,-0.000,0.122,0.000,0.281,-0.19,0.00,-0.13
0.500,takeoff,1,326,272,0.50,0.00,0.00,-0.80,0.00,0.64,-0.00,-0.56,0.000,-0.078,0.000,0.020,3.141,-0.000,0.122,0.000,0.281,-0.19,0.00,-0.13
0.500,takeoff,1,326,272,0.50,0.00,0.00,-0.80,0.00,0.64,-0.00,-0.56,0.000,-0.078,0.000,0.020,3.141,-0.000,0.122,0.000,0.281,-0.19,0.00,-0.13
0.500,takeoff,1,326,272,0.50,0.00,0.00,-0.80,0.00,0.64,-0.00,-0.56,0.000,-0.078,0.000,0.020,3.141,-0.000,0.122,0.000,0.281,-0.19,0.00,-0.13
0.500,takeoff,1,326,275,0.50,0.00,0.00,-0.80,0.00,0.64,-0.00,-0.56,0.000,-0.078,0.000,0.018,3.141,-0.000,0.120,0.000,0.281,-0.19,0.00,-0.14
0.500,takeoff,1,326,275,0.50,0.00,0.00,-0.80,0.00,0.64,-0.00,-0.56,0.000,-0.078,0.000,0.018,3.141,-0.000,0.120,0.000,0.281,-0.19,0.00,-0.14
0.500,takeoff,1,326,275,0.50,0.00,0.00,-0.80,0.00,0.64,-0.00,-0.56,0.000,-0.078,0.000,0.018,3.141,-0.000,0.120,0.000,0.281,-0.19,0.00,-0.14
0.515,takeoff,1,326,275,0.50,0.00,0.00,-0.80,0.00,0.64,-0.00,-0.56,0.000,-0.078,0.000,0.015,3.141,-0.000,0.117,0.000,0.281,-0.19,0.00,-0.14
0.515,takeoff,1,326,275,0.50,0.00,0.00,-0.80,0.00,0.64,-0.00,-0.57,0.000,-0.078,0.000,0.015,3.141,-0.000,0.117,0.000,0.281,-0.20,0.00,-0.14
0.515,takeoff,1,326,275,0.50,0.00,0.00,-0.80,0.00,0.65,-0.00,-0.57,0.000,-0.078,0.000,0.015,3.141,-0.000,0.117,0.000,0.281,-0.20,0.00,-0.14
0.515,takeoff,1,326,275,0.50,0.00,0.00,-0.80,0.00,0.65,-0.00,-0.57,0.000,-0.078,0.000,0.015,3.141,-0.000,0.117,0.000,0.281,-0.20,0.00,-0.14
0.515,takeoff,1,326,275,0.50,0.00,0.00,-0.80,0.00,0.65,-0.00,-0.57,0.000,-0.078,0.000,0.011,3.141,-0.000,0.112,0.000,0.281,-0.20,0.00,-0.14
0.515,takeoff,1,326,275,0.50,0.00,0.00,-0.80,0.00,0.65,-0.00,-0.58,0.000,-0.078,0.000,0.011,3.141,-0.000,0.112,0.000,0.280,-0.21,0.00,-0.15
0.515,takeoff,1,326,275,0.50,0.00,0.00,-0.80,0.00,0.65,-0.00,-0.58,0.000,-0.078,0.000,0.011,3.141,-0.000,0.112,0.000,0.280,-0.21,0.00,-0.15
0.531,takeoff,1,326,275,0.50,0.00,0.00,-0.80,0.00,0.65,-0.00,-0.58,0.000,-0.078,0.000,0.011,3.141,-0.000,0.112,0.000,0.281,-0.21,0.00,-0.15
0.531,takeoff,1,326,275,0.50,0.00,0.00,-0.80,0.00,0.65,-0.00,-0.58,0.000,-0.078,0.000,0.009,3.141,-0.000,0.109,0.000,0.281,-0.21,0.00,-0.15
0.531,takeoff,1,326,275,0.50,0.00,0.00,-0.80,0.00,0.65,-0.00,-0.58,0.000,-0.078,0.000,0.009,3.141,-0.000,0.109,0.000,0.281,-0.21,0.00,-0.15
0.531,takeoff,1,326,275,0.50,0.00,0.00,-0.80,0.00,0.65,-0.00,-0.58,0.000,-0.079,0.000,0.009,3.141,-0.000,0.109,0.000,0.280,-0.22,0.00,-0.16
0.531,takeoff,1,326,275,0.50,0.00,0.00,-0.80,0.00,0.65,-0.00,-0.58,0.000,-0.079,0.000,0.009,3.141,-0.000,0.109,0.000,0.280,-0.22,0.00,-0.16
0.531,takeoff,1,326,279,0.49,0.00,0.00,-0.80,0.00,0.65,-0.00,-0.58,0.000,-0.079,0.000,0.006,3.141,-0.000,0.106,0.000,0.280,-0.22,0.00,-0.16
0.547,takeoff,1,326,279,0.49,0.00,0.00,-0.80,0.00,0.65,-0.00,-0.58,0.000,-0.079,0.000,0.006,3.141,-0.000,0.106,0.000,0.280,-0.22,0.00,-0.16
0.547,takeoff,1,326,279,0.49,0.00,0.00,-0.80,0.00,0.65,-0.00,-0.59,0.000,-0.079,0.000,0.006,3.141,-0.000,0.106,0.000,0.280,-0.22,0.00,-0.16
0.547,takeoff,1,326,279,0.49,0.00,0.00,-0.80,0.00,0.65,-0.00,-0.59,0.000,-0.079,0.000,0.002,3.141,-0.000,0.101,0.000,0.280,-0.22,0.00,-0.16
0.547,takeoff,1,326,279,0.49,0.00,0.00,-0.80,0.00,0.65,-0.00,-0.59,0.000,-0.079,0.000,0.002,3.141,-0.000,0.101,0.000,0.280,-0.22,0.00,-0.16
0.547,takeoff,1,326,279,0.49,0.00,0.00,-0.80,0.00,0.65,-0.00,-0.59,0.000,-0.079,0.000,0.002,3.141,-0.000,0.101,0.000,0.280,-0.22,0.00,-0.16
0.547,takeoff,1,326,279,0.49,0.00,0.00,-0.80,0.00,0.65,-0.00,-0.59,0.000,-0.079,0.000,0.002,3.141,-0.000,0.101,0.000,0.280,-0.22,0.00,-0.16
0.547,takeoff,1,326,279,0.49,0.00,0.00,-0.80,0.00,0.65,-0.00,-0.59,0.000,-0.079,0.000,0.000,3.141,0.000,0.099,0.000,0.280,-0.23,0.00,-0.17
0.562,takeoff,1,326,279,0.49,0.00,0.00,-0.80,0.00,0.65,-0.00,-0.59,0.000,-0.079,0.000,0.000,3.141,0.000,0.099,0.000,0.280,-0.23,0.00,-0.17
0.562,takeoff,1,326,279,0.49,0.00,0.00,-0.80,0.00,0.65,-0.00,-0.59,0.000,-0.079,0.000,0.000,3.141,0.000,0.099,0.000,0.280,-0.23,0.00,-0.17
0.562,takeoff,1,326,279,0.49,0.00,0.00,-0.80,0.00,0.65,-0.00,-0.60,0.000,-0.079,0.000,-0.002,3.141,0.000,0.096,0.000,0.280,-0.24,0.00,-0.17
0.562,takeoff,1,326,279,0.49,0.00,0.00,-0.80,0.00,0.66,-0.00,-0.60,0.000,-0.079,0.000,-0.002,3.141,0.000,0.096,0.000,0.280,-0.24,0.00,-0.17
0.562,takeoff,1,326,279,0.49,0.00,0.00,-0.80,0.00,0.66,-0.00,-0.60,0.000,-0.079,0.000,-0.002,3.141,0.000,0.096,0.000,0.280,-0.24,0.00,-0.17
0.578,takeoff,1,326,283,0.49,0.00,0.00,-0.80,0.00,0.66,-0.00,-0.60,0.000,-0.079,0.000,-0.003,3.141,0.000,0.094,0.000,0.280,-0.24,0.00,-0.17
0.578,takeoff,1,326,283,0.49,0.00,0.00,-0.80,0.00,0.66,-0.00,-0.60,0.000,-0.079,0.000,-0.003,3.141,0.000,0.094,0.000,0.280,-0.25,0.00,-0.18
0.578,takeoff,1,326,283,0.49,0.00,0.00,-0.80,0.00,0.66,-0.00,-0.60,0.000,-0.079,0.000,-0.003,3.141,0.000,0.094,0.000,0.280,-0.25,0.00,-0.18
0.578,takeoff,1,326,283,0.49,0.00,0.00,-0.80,0.00,0.66,-0.00,-0.60,0.000,-0.079,0.000,-0.003,3.141,0.000,0.094,0.000,0.280,-0.25,0.00,-0.18
0.578,takeoff,1,326,283,0.49,0.00,0.00,-0.80,0.00,0.66,-0.00,-0.60,0.000,-0.079,0.000,-0.007,3.141,0.000,0.089,0.000,0.280,-0.25,0.00,-0.18
0.578,takeoff,1,326,283,0.49,0.00,0.00,-0.80,0.00,0.66,-0.00,-0.61,0.000,-0.078,0.000,-0.007,3.141,0.000,0.089,0.000,0.280,-0.25,0.00,-0.19
0.578,takeoff,1,326,283,0.49,0.00,0.00,-0.80,0.00,0.66,-0.00,-0.61,0.000,-0.078,0.000,-0.007,3.141,0.000,0.089,0.000,0.280,-0.25,0.00,-0.19
0.593,takeoff,1,326,283,0.49,0.00,0.00,-0.80,0.00,0.66,-0.00,-0.61,0.000,-0.078,0.000,-0.009,3.141,0.000,0.087,0.000,0.280,-0.25,0.00,-0.19
0.593,takeoff,1,326,283,0.49,0.00,0.00,-0.80,0.00,0.66,-0.00,-0.61,0.000,-0.078,0.000,-0.009,3.141,0.000,0.087,0.000,0.280,-0.25,0.00,-0.19
0.593,takeoff,1,326,283,0.49,0.00,0.00,-0.80,0.00,0.66,-0.00,-0.61,0.000,-0.078,0.000,-0.009,3.141,0.000,0.087,0.000,0.280,-0.25,0.00,-0.19
0.593,takeoff,1,326,283,0.49,0.00,0.00,-0.80,0.00,0.66,-0.00,-0.62,0.000,-0.078,0.000,-0.009,3.141,0.000,0.087,0.000,0.280,-0.26,0.00,-0.19
0.593,takeoff,1,326,283,0.49,0.00,0.00,-0.80,0.00,0.66,-0.00,-0.62,0.000,-0.078,0.000,-0.011,3.141,0.000,0.085,0.000,0.280,-0.26,0.00,-0.19
0.593,takeoff,1,326,283,0.49,0.00,0.00,-0.80,0.00,0.66,-0.00,-0.62,0.000,-0.078,0.000,-0.011,3.141,0.000,0.085,0.000,0.280,-0.26,0.00,-0.19
0.593,takeoff,1,326,283,0.49,0.00,0.00,-0.80,0.00,0.66,-0.00,-0.62,0.000,-0.078,0.000,-0.011,3.141,0.000,0.085,0.000,0.280,-0.26,0.00,-0.19
0.609,takeoff,1,326,287,0.51,0.00,0.00,-0.80,0.00,0.66,-0.00,-0.62,0.000,-0.078,0.000,-0.011,3.141,0.000,0.084,0.000,0.280,-0.26,0.00,-0.20
0.609,takeoff,1,326,287,0.51,0.00,0.00,-0.80,0.00,0.66,-0.00,-0.62,0.000,-0.078,0.000,-0.012,3.141,0.000,0.082,0.000,0.280,-0.26,0.00,-0.20
0.609,takeoff,1,326,287,0.51,0.00,0.00,-0.80,0.00,0.66,-0.00,-0.62,0.000,-0.078,0.000,-0.012,3.141,0.000,0.082,0.000,0.280,-0.26,0.00,-0.20
0.609,takeoff,1,326,287,0.51,0.00,0.00,-0.80,0.00,0.66,-0.00,-0.62,0.000,-0.078,0.000,-0.012,3.141,0.000,0.082,0.000,0.280,-0.26,0.00,-0.20
0.609,takeoff,1,326,287,0.51,0.00,0.00,-0.80,0.00,0.66,-0.00,-0.63,0.000,-0.078,0.000,-0.015,3.141,0.000,0.078,0.000,0.280,-0.27,0.00,-0.21
0.609,takeoff,1,326,287,0.51,0.00,0.00,-0.80,0.00,0.66,-0.00,-0.63,0.000,-0.078,0.000,-0.015,3.141,0.000,0.078,0.000,0.280,-0.27,0.00,-0.21
0.625,takeoff,1,326,287,0.51,0.00,0.00,-0.80,0.00,0.66,-0.00,-0.63,0.000,-0.078,0.000,-0.015,3.141,0.000,0.078,0.000,0.280,-0.27,0.00,-0.21
0.625,takeoff,1,326,287,0.51,0.00,0.00,-0.80,0.00,0.66,-0.00,-0.63,0.000,-0.078,0.000,-0.015,3.141,0.000,0.078,0.000,0.280,-0.27,0.00,-0.21
0.625,takeoff,1,326,287,0.51,0.00,0.00,-0.80,0.00,0.66,-0.00,-0.63,0.000,-0.078,0.000,-0.017,3.141,0.000,0.076,0.000,0.280,-0.27,0.00,-0.21
0.625,takeoff,1,326,287,0.51,0.00,0.00,-0.80,0.00,0.66,-0.00,-0.63,0.000,-0.078,0.000,-0.017,3.141,0.000,0.076,0.000,0.280,-0.28,0.00,-0.21
0.625,takeoff,1,326,287,0.51,0.00,0.00,-0.80,0.00,0.66,-0.00,-0.63,0.000,-0.078,0.000,-0.017,3.141,0.000,0.076,0.000,0.280,-0.28,0.00,-0.21
0.625,takeoff,1,326,287,0.51,0.00,0.00,-0.80,0.00,0.66,-0.00,-0.63,0.000,-0.078,0.000,-0.017,3.141,0.000,0.076,0.000,0.280,-0.28,0.00,-0.21
0.640,takeoff,1,326,287,0.51,0.00,0.00,-0.80,0.00,0.66,-0.00,-0.63,0.000,-0.078,0.000,-0.019,3.141,0.000,0.074,0.000,0.280,-0.28,0.00,-0.21
0.640,takeoff,1,326,287,0.51,0.00,0.00,-0.80,0.00,0.66,-0.00,-0.64,0.000,-0.077,0.000,-0.019,3.141,0.000,0.074,0.000,0.280,-0.29,0.00,-0.22
0.640,takeoff,1,326,287,0.51,0.00,0.00,-0.80,0.00,0.66,-0.00,-0.64,0.000,-0.077,0.000,-0.019,3.141,0.000,0.074,0.000,0.280,-0.29,0.00,-0.22
0.640,takeoff,1,326,290,0.49,0.00,0.00,-0.80,0.00,0.66,-0.00,-0.64,0.000,-0.077,0.000,-0.019,3.141,0.000,0.074,0.000,0.280,-0.29,0.00,-0.22
0.640,takeoff,1,326,290,0.49,0.00,0.00,-0.80,0.00,0.66,-0.00,-0.64,0.000,-0.077,0.000,-0.021,3.141,0.000,0.070,0.000,0.280,-0.29,0.00,-0.22
0.640,takeoff,1,326,290,0.49,0.00,0.00,-0.80,0.00,0.66,-0.00,-0.64,0.000,-0.077,0.000,-0.021,3.141,0.000,0.070,0.000,0.280,-0.29,0.00,-0.22
0.640,takeoff,1,326,290,0.49,0.00,0.00,-0.80,0.00,0.66,-0.00,-0.65,0.000,-0.077,0.000,-0.021,3.141,0.000,0.070,0.000,0.280,-0.29,0.00,-0.23
0.656,takeoff,1,326,290,0.49,0.00,0.00,-0.80,0.00,0.66,-0.00,-0.65,0.000,-0.077,0.000,-0.021,3.141,0.000,0.070,0.000,0.280,-0.29,0.00,-0.23
0.656,takeoff,1,326,290,0.49,0.00,0.00,-0.80,0.00,0.66,-0.00,-0.65,0.000,-0.077,0.000,-0.023,3.141,0.000,0.068,0.000,0.280,-0.29,0.00,-0.23
0.656,takeoff,1,326,290,0.49,0.00,0.00,-0.80,0.00,0.66,-0.00,-0.65,0.000,-0.077,0.000,-0.023,3.141,0.000,0.068,0.000,0.280,-0.29,0.00,-0.23
0.656,takeoff,1,326,290,0.49,0.00,0.00,-0.80,0.00,0.66,-0.00,-0.65,0.000,-0.077,0.000,-0.023,3.141,0.000,0.068,0.000,0.280,-0.29,0.00,-0.23
0.656,takeoff,1,326,290,0.49,0.00,0.00,-0.80,0.00,0.66,-0.00,-0.65,0.000,-0.077,0.000,-0.023,3.141,0.000,0.067,0.000,0.280,-0.30,0.00,-0.23
0.656,takeoff,1,326,290,0.49,0.00,0.00,-0.80,0.00,0.66,-0.00,-0.65,0.000,-0.077,0.000,-0.024,3.141,0.000,0.066,0.000,0.280,-0.30,0.00,-0.23
0.656,takeoff,1,326,290,0.49,0.00,0.00,-0.80,0.00,0.66,-0.00,-0.65,0.000,-0.077,0.000,-0.024,3.141,0.000,0.066,0.000,0.280,-0.30,0.00,-0.23
0.656,takeoff,1,326,290,0.49,0.00,0.00,-0.80,0.00,0.65,-0.00,-0.65,0.000,-0.077,0.000,-0.024,3.141,0.000,0.066,0.000,0.280,-0.30,0.00,-0.23
0.672,takeoff,1,326,290,0.49,0.00,0.00,-0.80,0.00,0.65,-0.00,-0.65,0.000,-0.077,0.000,-0.024,3.141,0.000,0.066,0.000,0.280,-0.30,0.00,-0.23
0.672,takeoff,1,325,292,0.50,0.00,0.00,-0.80,0.00,0.65,-0.00,-0.66,0.000,-0.077,0.000,-0.026,3.141,0.000,0.064,0.000,0.280,-0.30,0.00,-0.24
0.672,takeoff,1,325,292,0.50,0.00,0.00,-0.80,0.00,0.65,-0.00,-0.66,0.000,-0.077,0.000,-0.026,3.141,0.000,0.064,0.000,0.280,-0.30,0.00,-0.24
0.672,takeoff,1,325,292,0.50,0.00,0.00,-0.80,0.00,0.65,-0.00,-0.66,0.000,-0.077,0.000,-0.026,3.141,0.000,0.064,0.000,0.280,-0.30,0.00,-0.24
0.672,takeoff,1,325,292,0.50,0.00,0.00,-0.80,0.00,0.65,-0.00,-0.66,0.000,-0.077,0.000,-0.026,3.141,0.000,0.064,0.000,0.280,-0.30,0.00,-0.24
0.672,takeoff,1,325,292,0.50,0.00,0.00,-0.80,0.00,0.65,-0.00,-0.66,0.000,-0.077,0.000,-0.026,3.141,0.000,0.064,0.000,0.280,-0.30,0.00,-0.24
0.672,takeoff,1,325,292,0.50,0.00,0.00,-0.80,0.00,0.65,-0.00,-0.67,0.000,-0.076,0.000,-0.028,3.141,0.000,0.060,0.000,0.280,-0.31,0.00,-0.25
0.687,takeoff,1,325,292,0.50,0.00,0.00,-0.80,0.00,0.65,-0.00,-0.67,0.000,-0.076,0.000,-0.028,3.141,0.000,0.060,0.000,0.280,-0.31,0.00,-0.25
0.687,takeoff,1,325,292,0.50,0.00,0.00,-0.80,0.00,0.65,-0.00,-0.67,0.000,-0.076,0.000,-0.028,3.141,0.000,0.060,0.000,0.280,-0.31,0.00,-0.25
0.687,takeoff,1,325,292,0.50,0.00,0.00,-0.80,0.00,0.65,-0.00,-0.67,0.000,-0.076,0.000,-0.028,3.141,0.000,0.060,0.000,0.280,-0.31,0.00,-0.25
0.687,takeoff,1,325,292,0.50,0.00,0.00,-0.80,0.00,0.65,-0.00,-0.67,0.000,-0.076,0.000,-0.029,3.141,0.000,0.058,0.000,0.280,-0.31,0.00,-0.25
0.687,takeoff,1,325,292,0.50,0.00,0.00,-0.80,0.00,0.65,-0.00,-0.67,0.000,-0.076,0.000,-0.029,3.141,0.000,0.058,0.000,0.280,-0.31,0.00,-0.25
0.687,takeoff,1,325,292,0.50,0.00,0.00,-0.80,0.00,0.65,-0.00,-0.67,0.000,-0.076,0.000,-0.029,3.141,0.000,0.058,0.000,0.280,-0.32,0.00,-0.25
0.687,takeoff,1,325,292,0.50,0.00,0.00,-0.80,0.00,0.65,-0.00,-0.67,0.000,-0.076,0.000,-0.029,3.141,0.000,0.058,0.000,0.280,-0.32,0.00,-0.25
0.687,takeoff,1,325,292,0.50,0.00,0.00,-0.80,0.00,0.65,-0.00,-0.67,0.000,-0.076,0.000,-0.031,3.141,0.000,0.056,0.000,0.280,-0.32,0.00,-0.25
0.703,takeoff,1,325,292,0.50,0.00,0.00,-0.80,0.00,0.65,-0.00,-0.67,0.000,-0.076,0.000,-0.031,3.141,0.000,0.056,0.000,0.280,-0.32,0.00,-0.25
0.703,takeoff,1,325,292,0.50,0.00,0.00,-0.80,0.00,0.65,-0.00,-0.67,0.000,-0.076,0.000,-0.031,3.141,0.000,0.056,0.000,0.280,-0.32,0.00,-0.25
0.703,takeoff,1,325,292,0.50,0.00,0.00,-0.80,0.00,0.65,-0.00,-0.68,0.000,-0.075,0.000,-0.031,3.141,0.000,0.055,0.000,0.280,-0.33,0.00,-0.26
0.703,takeoff,1,325,292,0.50,0.00,0.00,-0.80,0.00,0.65,-0.00,-0.68,0.000,-0.075,0.000,-0.031,3.141,0.000,0.055,0.000,0.280,-0.33,0.00,-0.26
0.703,takeoff,1,326,296,0.51,0.00,0.00,-0.80,0.00,0.65,-0.00,-0.68,0.000,-0.075,0.000,-0.032,3.141,0.000,0.054,0.000,0.280,-0.33,0.00,-0.26
0.703,takeoff,1,326,296,0.51,0.00,0.00,-0.80,0.00,0.65,-0.00,-0.68,0.000,-0.075,0.000,-0.032,3.141,0.000,0.054,0.000,0.280,-0.33,0.00,-0.26
0.703,takeoff,1,326,296,0.51,0.00,0.00,-0.80,0.00,0.65,-0.00,-0.68,0.000,-0.075,0.000,-0.032,3.141,0.000,0.054,0.000,0.280,-0.33,0.00,-0.26
0.718,takeoff,1,326,296,0.51,0.00,0.00,-0.80,0.00,0.65,-0.00,-0.69,0.000,-0.075,0.000,-0.032,3.141,0.000,0.054,0.000,0.280,-0.33,0.00,-0.27
0.718,takeoff,1,326,296,0.51,0.00,0.00,-0.80,0.00,0.65,-0.00,-0.69,0.000,-0.075,0.000,-0.033,3.141,0.000,0.052,0.000,0.280,-0.33,0.00,-0.27
0.718,takeoff,1,326,296,0.51,0.00,0.00,-0.80,0.00,0.65,-0.00,-0.69,0.000,-0.075,0.000,-0.033,3.141,0.000,0.052,0.000,0.280,-0.33,0.00,-0.27
0.718,takeoff,1,326,296,0.51,0.00,0.00,-0.80,0.00,0.64,-0.00,-0.69,0.000,-0.075,0.000,-0.033,3.141,0.000,0.052,0.000,0.280,-0.33,0.00,-0.27
0.718,takeoff,1,326,296,0.51,0.00,0.00,-0.80,0.00,0.64,-0.00,-0.69,0.000,-0.074,0.000,-0.033,3.141,0.000,0.052,0.000,0.280,-0.34,0.00,-0.27
0.718,takeoff,1,326,296,0.51,0.00,0.00,-0.80,0.00,0.64,-0.00,-0.69,0.000,-0.074,0.000,-0.035,3.141,0.000,0.049,0.000,0.280,-0.34,0.00,-0.27
0.718,takeoff,1,326,296,0.51,0.00,0.00,-0.80,0.00,0.64,-0.00,-0.69,0.000,-0.074,0.000,-0.035,3.141,0.000,0.049,0.000,0.280,-0.34,0.00,-0.27
0.718,takeoff,1,326,296,0.51,0.00,0.00,-0.80,0.00,0.64,-0.00,-0.69,0.000,-0.074,0.000,-0.035,3.141,0.000,0.049,0.000,0.280,-0.34,0.00,-0.27
0.734,takeoff,1,326,296,0.51,0.00,0.00,-0.80,0.00,0.64,-0.00,-0.69,0.000,-0.074,0.000,-0.035,3.141,0.000,0.049,0.000,0.280,-0.34,0.00,-0.27
0.734,takeoff,1,326,296,0.51,0.00,0.00,-0.80,0.00,0.64,-0.00,-0.69,0.000,-0.074,0.000,-0.036,3.141,0.000,0.048,0.000,0.280,-0.34,0.00,-0.27
0.734,takeoff,1,326,296,0.51,0.00,0.00,-0.80,0.00,0.64,-0.00,-0.70,0.000,-0.074,0.000,-0.036,3.141,0.000,0.047,0.000,0.280,-0.34,0.00,-0.28
0.734,takeoff,1,326,298,0.49,0.00,0.00,-0.80,0.00,0.64,-0.00,-0.70,0.000,-0.074,0.000,-0.036,3.141,0.000,0.047,0.000,0.280,-0.34,0.00,-0.28
0.734,takeoff,1,326,298,0.49,0.00,0.00,-0.80,0.00,0.64,-0.00,-0.70,0.000,-0.074,0.000,-0.036,3.141,0.000,0.047,0.000,0.280,-0.34,0.00,-0.28
0.734,takeoff,1,326,298,0.49,0.00,0.00,-0.80,0.00,0.64,-0.00,-0.70,0.000,-0.074,0.000,-0.037,3.141,0.000,0.046,0.000,0.280,-0.34,0.00,-0.28
0.734,takeoff,1,326,298,0.49,0.00,0.00,-0.80,0.00,0.64,-0.00,-0.71,0.000,-0.074,0.000,-0.037,3.141,0.000,0.045,0.000,0.280,-0.35,0.00,-0.29
0.750,takeoff,1,326,298,0.49,0.00,0.00,-0.80,0.00,0.64,-0.00,-0.71,0.000,-0.074,0.000,-0.037,3.141,0.000,0.045,0.000,0.280,-0.35,0.00,-0.29
0.750,takeoff,1,326,298,0.49,0.00,0.00,-0.80,0.00,0.64,-0.00,-0.71,0.000,-0.074,0.000,-0.037,3.141,0.000,0.045,0.000,0.280,-0.35,0.00,-0.29
0.750,takeoff,1,326,298,0.49,0.00,0.00,-0.80,0.00,0.64,-0.00,-0.71,0.000,-0.074,0.000,-0.037,3.141,0.000,0.045,0.000,0.280,-0.35,0.00,-0.29
0.750,takeoff,1,326,298,0.49,0.00,0.00,-0.80,0.00,0.64,-0.00,-0.71,0.000,-0.074,0.000,-0.038,3.141,0.000,0.044,0.000,0.280,-0.35,0.00,-0.29
0.750,takeoff,1,326,298,0.49,0.00,0.00,-0.80,0.00,0.64,-0.00,-0.71,0.000,-0.074,0.000,-0.038,3.141,0.000,0.044,0.000,0.280,-0.35,0.00,-0.29
0.750,takeoff,1,326,298,0.49,0.00,0.00,-0.80,0.00,0.64,-0.00,-0.71,0.000,-0.073,0.000,-0.038,3.141,0.000,0.043,0.000,0.280,-0.36,0.00,-0.30
0.750,takeoff,1,326,298,0.49,0.00,0.00,-0.80,0.00,0.64,-0.00,-0.71,0.000,-0.073,0.000,-0.038,3.141,0.000,0.043,0.000,0.280,-0.36,0.00,-0.30
0.750,takeoff,1,326,298,0.49,0.00,0.00,-0.80,0.00,0.64,-0.00,-0.71,0.000,-0.073,0.000,-0.040,3.141,0.000,0.041,0.000,0.280,-0.36,0.00,-0.30
0.765,takeoff,1,326,298,0.49,0.00,0.00,-0.80,0.00,0.64,-0.00,-0.71,0.000,-0.073,0.000,-0.040,3.141,0.000,0.041,0.000,0.280,-0.36,0.00,-0.30
0.765,takeoff,1,326,298,0.49,0.00,0.00,-0.80,0.00,0.63,-0.00,-0.71,0.000,-0.073,0.000,-0.040,3.141,0.000,0.041,0.000,0.280,-0.36,0.00,-0.30
0.765,takeoff,1,326,298,0.49,0.00,0.00,-0.80,0.00,0.63,-0.00,-0.72,0.000,-0.072,0.000,-0.040,3.141,0.000,0.040,0.000,0.280,-0.37,0.00,-0.31
0.765,takeoff,1,326,298,0.49,0.00,0.00,-0.80,0.00,0.63,-0.00,-0.72,0.000,-0.072,0.000,-0.041,3.141,0.000,0.039,0.000,0.280,-0.37,0.00,-0.31
0.765,takeoff,1,325,300,0.50,0.00,0.00,-0.80,0.00,0.63,-0.00,-0.72,0.000,-0.072,0.000,-0.041,3.141,0.000,0.039,0.000,0.280,-0.37,0.00,-0.31
0.765,takeoff,1,325,300,0.50,0.00,0.00,-0.80,0.00,0.63,-0.00,-0.72,0.000,-0.072,0.000,-0.041,3.141,0.000,0.039,0.000,0.280,-0.37,0.00,-0.31
0.781,takeoff,1,325,300,0.50,0.00,0.00,-0.80,0.00,0.63,-0.00,-0.73,0.000,-0.072,0.000,-0.042,3.141,0.000,0.037,0.000,0.280,-0.37,0.00,-0.31
0.781,takeoff,1,325,300,0.50,0.00,0.00,-0.80,0.00,0.63,-0.00,-0.73,0.000,-0.072,0.000,-0.042,3.141,0.000,0.037,0.000,0.280,-0.37,0.00,-0.31
0.781,takeoff,1,325,300,0.50,0.00,0.00,-0.80,0.00,0.63,-0.00,-0.73,0.000,-0.072,0.000,-0.042,3.141,0.000,0.037,0.000,0.280,-0.37,0.00,-0.31
0.781,takeoff,1,325,300,0.50,0.00,0.00,-0.80,0.00,0.63,-0.00,-0.73,0.000,-0.072,0.000,-0.042,3.141,0.000,0.037,0.000,0.280,-0.37,0.00,-0.31
0.781,takeoff,1,325,300,0.50,0.00,0.00,-0.80,0.00,0.63,-0.00,-0.73,0.000,-0.072,0.000,-0.042,3.141,0.000,0.037,0.000,0.280,-0.37,0.00,-0.31
0.781,takeoff,1,325,300,0.50,0.00,0.00,-0.80,0.00,0.63,-0.00,-0.74,0.000,-0.071,0.000,-0.043,3.141,0.000,0.034,0.000,0.280,-0.38,0.00,-0.32
0.781,takeoff,1,325,300,0.50,0.00,0.00,-0.80,0.00,0.62,-0.00,-0.74,0.000,-0.071,0.000,-0.043,3.141,0.000,0.034,0.000,0.280,-0.38,0.00,-0.32
0.781,takeoff,1,325,300,0.50,0.00,0.00,-0.80,0.00,0.62,-0.00,-0.74,0.000,-0.071,0.000,-0.043,3.141,0.000,0.034,0.000,0.280,-0.38,0.00,-0.32
0.797,takeoff,1,325,300,0.50,0.00,0.00,-0.80,0.00,0.62,-0.00,-0.74,0.000,-0.071,0.000,-0.043,3.141,0.000,0.034,0.000,0.280,-0.38,0.00,-0.32
0.797,takeoff,1,325,300,0.50,0.00,0.00,-0.80,0.00,0.62,-0.00,-0.74,0.000,-0.071,0.000,-0.044,3.141,0.000,0.034,0.000,0.280,-0.38,0.00,-0.32
0.797,takeoff,1,325,300,0.50,0.00,0.00,-0.80,0.00,0.62,-0.00,-0.74,0.000,-0.071,0.000,-0.044,3.141,0.000,0.033,0.000,0.280,-0.38,0.00,-0.33
0.797,takeoff,1,325,300,0.50,0.00,0.00,-0.80,0.00,0.62,-0.00,-0.74,0.000,-0.071,0.000,-0.044,3.141,0.000,0.033,0.000,0.280,-0.38,0.00,-0.33
0.797,takeoff,1,325,300,0.50,0.00,0.00,-0.80,0.00,0.62,-0.00,-0.74,0.000,-0.071,0.000,-0.044,3.141,0.000,0.033,0.000,0.280,-0.38,0.00,-0.33
0.797,takeoff,1,326,302,0.49,0.00,0.00,-0.80,0.00,0.62,-0.00,-0.74,0.000,-0.071,0.000,-0.045,3.141,0.000,0.032,0.000,0.280,-0.38,0.00,-0.33
0.797,takeoff,1,326,302,0.49,0.00,0.00,-0.80,0.00,0.62,-0.00,-0.74,0.000,-0.071,0.000,-0.045,3.141,0.000,0.032,0.000,0.280,-0.38,0.00,-0.33
0.812,takeoff,1,326,302,0.49,0.00,0.00,-0.80,0.00,0.62,-0.00,-0.75,0.000,-0.070,0.000,-0.045,3.141,0.000,0.031,0.000,0.280,-0.39,0.00,-0.34
0.812,takeoff,1,326,302,0.49,0.00,0.00,-0.80,0.00,0.62,-0.00,-0.75,0.000,-0.070,0.000,-0.045,3.141,0.000,0.031,0.000,0.280,-0.39,0.00,-0.34
0.812,takeoff,1,326,302,0.49,0.00,0.00,-0.80,0.00,0.62,-0.00,-0.75,0.000,-0.070,0.000,-0.046,3.141,0.000,0.030,0.000,0.280,-0.39,0.00,-0.34
0.812,takeoff,1,326,302,0.49,0.00,0.00,-0.80,0.00,0.62,-0.00,-0.75,0.000,-0.070,0.000,-0.046,3.141,0.000,0.030,0.000,0.280,-0.39,0.00,-0.34
0.812,takeoff,1,326,302,0.49,0.00,0.00,-0.80,0.00,0.61,-0.00,-0.75,0.000,-0.070,0.000,-0.046,3.141,0.000,0.030,0.000,0.280,-0.39,0.00,-0.34
0.812,takeoff,1,326,302,0.49,0.00,0.00,-0.80,0.00,0.61,-0.00,-0.76,0.000,-0.069,0.000,-0.046,3.141,0.000,0.030,0.000,0.280,-0.39,0.00,-0.34
0.812,takeoff,1,326,302,0.49,0.00,0.00,-0.80,0.00,0.61,-0.00,-0.76,0.000,-0.069,0.000,-0.047,3.141,0.000,0.028,0.000,0.280,-0.39,0.00,-0.34
0.812,takeoff,1,326,302,0.49,0.00,0.00,-0.80,0.00,0.61,-0.00,-0.76,0.000,-0.069,0.000,-0.047,3.141,0.000,0.028,0.000,0.280,-0.39,0.00,-0.34
0.828,takeoff,1,326,302,0.49,0.00,0.00,-0.80,0.00,0.61,-0.00,-0.76,0.000,-0.069,0.000,-0.047,3.141,0.000,0.028,0.000,0.280,-0.39,0.00,-0.34
0.828,takeoff,1,326,302,0.49,0.00,0.00,-0.80,0.00,0.61,-0.00,-0.76,0.000,-0.069,0.000,-0.047,3.141,0.000,0.028,0.000,0.280,-0.39,0.00,-0.34
0.828,takeoff,1,326,302,0.49,0.00,0.00,-0.80,0.00,0.61,-0.00,-0.76,0.000,-0.068,0.000,-0.047,3.141,0.000,0.026,0.000,0.280,-0.40,0.00,-0.36
0.828,takeoff,1,326,302,0.49,0.00,0.00,-0.80,0.00,0.61,-0.00,-0.76,0.000,-0.068,0.000,-0.047,3.141,0.000,0.026,0.000,0.280,-0.40,0.00,-0.36
0.828,takeoff,1,326,302,0.49,0.00,0.00,-0.80,0.00,0.61,-0.00,-0.76,0.000,-0.068,0.000,-0.047,3.141,0.000,0.026,0.000,0.280,-0.40,0.00,-0.36
0.828,takeoff,1,326,302,0.49,0.00,0.00,-0.80,0.00,0.61,-0.00,-0.76,0.000,-0.068,0.000,-0.047,3.141,0.000,0.026,0.000,0.280,-0.40,0.00,-0.36
0.828,takeoff,1,326,302,0.49,0.00,0.00,-0.80,0.00,0.61,-0.00,-0.76,0.000,-0.068,0.000,-0.047,3.141,0.000,0.026,0.000,0.280,-0.40,0.00,-0.36
0.843,takeoff,1,326,303,0.50,0.00,0.00,-0.80,0.00,0.61,-0.00,-0.77,0.000,-0.068,0.000,-0.048,3.141,0.000,0.025,0.000,0.280,-0.41,0.00,-0.36
0.843,takeoff,1,326,303,0.50,0.00,0.00,-0.80,0.00,0.61,-0.00,-0.77,0.000,-0.068,0.000,-0.048,3.141,0.000,0.025,0.000,0.280,-0.41,0.00,-0.36
0.843,takeoff,1,326,303,0.50,0.00,0.00,-0.80,0.00,0.60,-0.00,-0.77,0.000,-0.068,0.000,-0.048,3.141,0.000,0.025,0.000,0.280,-0.41,0.00,-0.36
0.843,takeoff,1,326,303,0.50,0.00,0.00,-0.80,0.00,0.60,-0.00,-0.77,0.000,-0.068,0.000,-0.048,3.141,0.000,0.025,0.000,0.280,-0.41,0.00,-0.36
0.843,takeoff,1,326,303,0.50,0.00,0.00,-0.80,0.00,0.60,-0.00,-0.77,0.000,-0.068,0.000,-0.049,3.141,0.000,0.024,0.000,0.280,-0.41,0.00,-0.36
0.843,takeoff,1,326,303,0.50,0.00,0.00,-0.80,0.00,0.60,-0.00,-0.78,0.000,-0.067,0.000,-0.049,3.141,0.000,0.023,0.000,0.280,-0.41,0.00,-0.37
0.843,takeoff,1,326,303,0.50,0.00,0.00,-0.80,0.00,0.60,-0.00,-0.78,0.000,-0.067,0.000,-0.049,3.141,0.000,0.023,0.000,0.280,-0.41,0.00,-0.37
0.843,takeoff,1,326,303,0.50,0.00,0.00,-0.80,0.00,0.60,-0.00,-0.78,0.000,-0.067,0.000,-0.049,3.141,0.000,0.023,0.000,0.280,-0.41,0.00,-0.37
0.859,takeoff,1,326,303,0.50,0.00,0.00,-0.80,0.00,0.60,-0.00,-0.78,0.000,-0.067,0.000,-0.049,3.141,0.000,0.023,0.000,0.280,-0.41,0.00,-0.37
0.859,takeoff,1,326,303,0.50,0.00,0.00,-0.80,0.00,0.60,-0.00,-0.78,0.000,-0.067,0.000,-0.050,3.141,0.000,0.022,0.000,0.280,-0.41,0.00,-0.37
0.859,takeoff,1,326,303,0.50,0.00,0.00,-0.80,0.00,0.59,-0.00,-0.78,0.000,-0.067,0.000,-0.050,3.141,0.000,0.021,0.000,0.280,-0.42,0.00,-0.38
0.859,takeoff,1,326,303,0.50,0.00,0.00,-0.80,0.00,0.59,-0.00,-0.78,0.000,-0.067,0.000,-0.050,3.141,0.000,0.021,0.000,0.280,-0.42,0.00,-0.38
0.859,takeoff,1,326,303,0.50,0.00,0.00,-0.80,0.00,0.59,-0.00,-0.78,0.000,-0.067,0.000,-0.050,3.141,0.000,0.021,0.000,0.280,-0.42,0.00,-0.38
0.859,takeoff,1,326,303,0.50,0.00,0.00,-0.80,0.00,0.59,-0.00,-0.78,0.000,-0.067,0.000,-0.050,3.141,0.000,0.021,0.000,0.280,-0.42,0.00,-0.38
0.859,takeoff,1,326,303,0.50,0.00,0.00,-0.80,0.00,0.59,-0.00,-0.78,0.000,-0.067,0.000,-0.050,3.141,0.000,0.021,0.000,0.280,-0.42,0.00,-0.38
0.859,takeoff,1,326,303,0.50,0.00,0.00,-0.80,0.00,0.59,-0.00,-0.78,0.000,-0.067,0.000,-0.050,3.141,0.000,0.021,0.000,0.280,-0.42,0.00,-0.38
0.875,takeoff,1,326,303,0.50,0.00,0.00,-0.80,0.00,0.59,-0.00,-0.79,0.000,-0.066,0.000,-0.050,3.141,0.000,0.020,0.000,0.280,-0.42,0.00,-0.38
0.875,takeoff,1,326,303,0.50,0.00,0.00,-0.80,0.00,0.59,-0.00,-0.79,0.000,-0.066,0.000,-0.050,3.141,0.000,0.020,0.000,0.280,-0.42,0.00,-0.38
0.875,takeoff,1,326,304,0.50,0.00,0.00,-0.80,0.00,0.59,-0.00,-0.79,0.000,-0.066,0.000,-0.051,3.141,0.000,0.019,0.000,0.280,-0.42,0.00,-0.38
0.875,takeoff,1,326,304,0.50,0.00,0.00,-0.80,0.00,0.59,-0.00,-0.79,0.000,-0.066,0.000,-0.051,3.141,0.000,0.019,0.000,0.280,-0.42,0.00,-0.38
0.875,takeoff,1,326,304,0.50,0.00,0.00,-0.80,0.00,0.59,-0.00,-0.79,0.000,-0.066,0.000,-0.051,3.141,0.000,0.019,0.000,0.280,-0.42,0.00,-0.38
0.875,takeoff,1,326,304,0.50,0.00,0.00,-0.80,0.00,0.59,-0.00,-0.80,0.000,-0.065,0.000,-0.051,3.141,0.000,0.018,0.000,0.280,-0.43,0.00,-0.39
0.875,takeoff,1,326,304,0.50,0.00,0.00,-0.80,0.00,0.59,-0.00,-0.80,0.000,-0.065,0.000,-0.051,3.141,0.000,0.018,0.000,0.280,-0.43,0.00,-0.39
0.875,takeoff,1,326,304,0.50,0.00,0.00,-0.80,0.00,0.59,-0.00,-0.80,0.000,-0.065,0.000,-0.051,3.141,0.000,0.018,0.000,0.280,-0.43,0.00,-0.39
0.890,takeoff,1,326,304,0.50,0.00,0.00,-0.80,0.00,0.59,-0.00,-0.80,0.000,-0.065,0.000,-0.051,3.141,0.000,0.018,0.000,0.280,-0.43,0.00,-0.39
0.890,takeoff,1,326,304,0.50,0.00,0.00,-0.80,0.00,0.58,-0.00,-0.80,0.000,-0.065,0.000,-0.051,3.141,0.000,0.018,0.000,0.280,-0.43,0.00,-0.39
0.890,takeoff,1,326,304,0.50,0.00,0.00,-0.80,0.00,0.58,-0.00,-0.80,0.000,-0.065,0.000,-0.051,3.141,0.000,0.018,0.000,0.280,-0.43,0.00,-0.39
0.890,takeoff,1,326,304,0.50,0.00,0.00,-0.80,0.00,0.58,-0.00,-0.80,0.000,-0.065,0.000,-0.052,3.141,0.000,0.017,0.000,0.280,-0.43,0.00,-0.40
0.890,takeoff,1,326,304,0.50,0.00,0.00,-0.80,0.00,0.58,-0.00,-0.80,0.000,-0.065,0.000,-0.052,3.141,0.000,0.017,0.000,0.280,-0.43,0.00,-0.40
0.890,takeoff,1,326,304,0.50,0.00,0.00,-0.80,0.00,0.58,-0.00,-0.80,0.000,-0.065,0.000,-0.052,3.141,0.000,0.017,0.000,0.280,-0.43,0.00,-0.40
0.890,takeoff,1,326,304,0.50,0.00,0.00,-0.80,0.00,0.58,-0.00,-0.80,0.000,-0.065,0.000,-0.052,3.141,0.000,0.017,0.000,0.280,-0.43,0.00,-0.40
0.890,takeoff,1,326,304,0.50,0.00,0.00,-0.80,0.00,0.57,-0.00,-0.80,0.000,-0.065,0.000,-0.052,3.141,0.000,0.016,0.000,0.280,-0.43,0.00,-0.40
0.906,takeoff,1,326,304,0.50,0.00,0.00,-0.80,0.00,0.57,-0.00,-0.81,0.000,-0.064,0.000,-0.052,3.141,0.000,0.014,0.000,0.280,-0.44,0.00,-0.41
0.906,takeoff,1,326,305,0.49,0.00,0.00,-0.80,0.00,0.57,-0.00,-0.81,0.000,-0.064,0.000,-0.052,3.141,0.000,0.014,0.000,0.280,-0.44,0.00,-0.41
0.906,takeoff,1,326,305,0.49,0.00,0.00,-0.80,0.00,0.57,-0.00,-0.81,0.000,-0.064,0.000,-0.052,3.141,0.000,0.014,0.000,0.280,-0.44,0.00,-0.41
0.906,takeoff,1,326,305,0.49,0.00,0.00,-0.80,0.00,0.57,-0.00,-0.81,0.000,-0.064,0.000,-0.053,3.141,0.000,0.014,0.000,0.280,-0.44,0.00,-0.41
0.906,takeoff,1,326,305,0.49,0.00,0.00,-0.80,0.00,0.57,-0.00,-0.81,0.000,-0.064,0.000,-0.053,3.141,0.000,0.014,0.000,0.280,-0.44,0.00,-0.41
0.906,takeoff,1,326,305,0.49,0.00,0.00,-0.80,0.00,0.57,-0.00,-0.82,0.000,-0.063,0.000,-0.053,3.141,0.000,0.013,0.000,0.280,-0.45,0.00,-0.42
0.906,takeoff,1,326,305,0.49,0.00,0.00,-0.80,0.00,0.57,-0.00,-0.82,0.000,-0.063,0.000,-0.053,3.141,0.000,0.013,0.000,0.280,-0.45,0.00,-0.42
0.906,takeoff,1,326,305,0.49,0.00,0.00,-0.80,0.00,0.57,-0.00,-0.82,0.000,-0.063,0.000,-0.053,3.141,0.000,0.013,0.000,0.280,-0.45,0.00,-0.42
0.922,takeoff,1,326,305,0.49,0.00,0.00,-0.80,0.00,0.57,-0.00,-0.82,0.000,-0.063,0.000,-0.053,3.141,0.000,0.012,0.000,0.280,-0.45,0.00,-0.42
0.922,takeoff,1,326,305,0.49,0.00,0.00,-0.80,0.00,0.57,-0.00,-0.82,0.000,-0.063,0.000,-0.053,3.141,0.000,0.012,0.000,0.280,-0.45,0.00,-0.42
0.922,takeoff,1,326,305,0.49,0.00,0.00,-0.80,0.00,0.57,-0.00,-0.82,0.000,-0.062,0.000,-0.053,3.141,0.000,0.012,0.000,0.280,-0.45,0.00,-0.43
0.922,takeoff,1,326,305,0.49,0.00,0.00,-0.80,0.00,0.57,-0.00,-0.82,0.000,-0.062,0.000,-0.053,3.141,0.000,0.012,0.000,0.280,-0.45,0.00,-0.43
0.922,takeoff,1,326,305,0.49,0.00,0.00,-0.80,0.00,0.56,-0.00,-0.82,0.000,-0.062,0.000,-0.054,3.141,0.000,0.011,0.000,0.280,-0.45,0.00,-0.43
0.922,takeoff,1,326,305,0.49,0.00,0.00,-0.80,0.00,0.56,-0.00,-0.82,0.000,-0.062,0.000,-0.054,3.141,0.000,0.011,0.000,0.280,-0.45,0.00,-0.43
0.922,takeoff,1,326,305,0.49,0.00,0.00,-0.80,0.00,0.56,-0.00,-0.82,0.000,-0.062,0.000,-0.054,3.141,0.000,0.011,0.000,0.280,-0.45,0.00,-0.43
0.937,takeoff,1,326,305,0.49,0.00,0.00,-0.80,0.00,0.56,-0.00,-0.83,0.000,-0.062,0.000,-0.054,3.141,0.000,0.010,0.000,0.280,-0.46,0.00,-0.44
0.937,takeoff,1,326,305,0.49,0.00,0.00,-0.80,0.00,0.56,-0.00,-0.83,0.000,-0.062,0.000,-0.054,3.141,0.000,0.010,0.000,0.280,-0.46,0.00,-0.44
0.937,takeoff,1,326,306,0.50,0.00,0.00,-0.80,0.00,0.56,-0.00,-0.83,0.000,-0.062,0.000,-0.054,3.141,0.000,0.009,0.000,0.280,-0.46,0.00,-0.44
0.937,takeoff,1,326,306,0.50,0.00,0.00,-0.80,0.00,0.55,-0.00,-0.83,0.000,-0.062,0.000,-0.054,3.141,0.000,0.009,0.000,0.280,-0.46,0.00,-0.44
0.937,takeoff,1,326,306,0.50,0.00,0.00,-0.80,0.00,0.55,-0.00,-0.84,0.000,-0.061,0.000,-0.054,3.141,0.000,0.009,0.000,0.280,-0.46,0.00,-0.45
0.953,takeoff,1,326,306,0.50,0.00,0.00,-0.80,0.00,0.55,-0.00,-0.84,0.000,-0.061,0.000,-0.054,3.141,0.000,0.008,0.000,0.280,-0.46,0.00,-0.45
0.953,takeoff,1,326,306,0.50,0.00,0.00,-0.80,0.00,0.55,-0.00,-0.84,0.000,-0.061,0.000,-0.054,3.141,0.000,0.008,0.000,0.280,-0.46,0.00,-0.45
0.953,takeoff,1,326,306,0.50,0.00,0.00,-0.80,0.00,0.55,-0.00,-0.84,0.000,-0.061,0.000,-0.055,3.141,0.000,0.008,0.000,0.280,-0.46,0.00,-0.45
0.953,takeoff,1,326,306,0.50,0.00,0.00,-0.80,0.00,0.55,-0.00,-0.84,0.000,-0.060,0.000,-0.055,3.141,0.000,0.007,0.000,0.280,-0.47,0.00,-0.46
0.953,takeoff,1,326,306,0.50,0.00,0.00,-0.80,0.00,0.55,-0.00,-0.84,0.000,-0.060,0.000,-0.055,3.141,0.000,0.007,0.000,0.280,-0.47,0.00,-0.46
0.953,takeoff,1,326,306,0.50,0.00,0.00,-0.80,0.00,0.55,-0.00,-0.84,0.000,-0.060,0.000,-0.055,3.141,0.000,0.007,0.000,0.280,-0.47,0.00,-0.46
0.953,takeoff,1,326,306,0.50,0.00,0.00,-0.80,0.00,0.55,-0.00,-0.84,0.000,-0.060,0.000,-0.055,3.141,0.000,0.006,0.000,0.280,-0.47,0.00,-0.46
0.968,takeoff,1,326,306,0.50,0.00,0.00,-0.80,0.00,0.55,-0.00,-0.84,0.000,-0.060,0.000,-0.055,3.141,0.000,0.006,0.000,0.280,-0.47,0.00,-0.46
0.968,takeoff,1,326,306,0.50,0.00,0.00,-0.80,0.00,0.55,-0.00,-0.85,0.000,-0.060,0.000,-0.055,3.141,0.000,0.006,0.000,0.280,-0.47,0.00,-0.46
0.968,takeoff,1,326,306,0.50,0.00,0.00,-0.80,0.00,0.54,-0.00,-0.85,0.000,-0.060,0.000,-0.055,3.141,0.000,0.006,0.000,0.280,-0.47,0.00,-0.46
0.968,takeoff,1,326,306,0.50,0.00,0.00,-0.80,0.00,0.54,-0.00,-0.85,0.000,-0.060,0.000,-0.055,3.141,0.000,0.005,0.000,0.280,-0.47,0.00,-0.46
0.968,takeoff,1,326,307,0.49,0.00,0.00,-0.80,0.00,0.54,-0.00,-0.85,0.000,-0.060,0.000,-0.055,3.141,0.000,0.005,0.000,0.280,-0.47,0.00,-0.46
0.968,takeoff,1,326,307,0.49,0.00,0.00,-0.80,0.00,0.54,-0.00,-0.85,0.000,-0.060,0.000,-0.055,3.141,0.000,0.005,0.000,0.280,-0.47,0.00,-0.46
0.968,takeoff,1,326,307,0.49,0.00,0.00,-0.80,0.00,0.54,-0.00,-0.86,0.000,-0.059,0.000,-0.055,3.141,0.000,0.004,0.000,0.280,-0.48,0.00,-0.48
0.984,takeoff,1,326,307,0.49,0.00,0.00,-0.80,0.00,0.54,-0.00,-0.86,0.000,-0.059,0.000,-0.055,3.141,0.000,0.004,0.000,0.280,-0.48,0.00,-0.48
0.984,takeoff,1,326,307,0.49,0.00,0.00,-0.80,0.00,0.54,-0.00,-0.86,0.000,-0.059,0.000,-0.055,3.141,0.000,0.004,0.000,0.280,-0.48,0.00,-0.48
0.984,takeoff,1,326,307,0.49,0.00,0.00,-0.80,0.00,0.53,-0.00,-0.86,0.000,-0.059,0.000,-0.055,3.141,0.000,0.004,0.000,0.280,-0.48,0.00,-0.48
0.984,takeoff,1,326,307,0.49,0.00,0.00,-0.80,0.00,0.53,-0.00,-0.86,0.000,-0.059,0.000,-0.055,3.141,0.000,0.004,0.000,0.280,-0.48,0.00,-0.48
0.984,takeoff,1,326,307,0.49,0.00,0.00,-0.80,0.00,0.53,-0.00,-0.86,0.000,-0.058,0.000,-0.055,3.141,0.000,0.003,0.000,0.280,-0.48,0.00,-0.48
0.984,takeoff,1,326,307,0.49,0.00,0.00,-0.80,0.00,0.53,-0.00,-0.86,0.000,-0.058,0.000,-0.056,3.141,0.000,0.003,0.000,0.280,-0.48,0.00,-0.48
0.984,takeoff,1,326,307,0.49,0.00,0.00,-0.80,0.00,0.53,-0.00,-0.86,0.000,-0.058,0.000,-0.056,3.141,0.000,0.003,0.000,0.280,-0.48,0.00,-0.48
0.984,takeoff,1,326,307,0.49,0.00,0.00,-0.80,0.00,0.53,-0.00,-0.86,0.000,-0.058,0.000,-0.056,3.141,0.000,0.003,0.000,0.280,-0.48,0.00,-0.48
1.000,takeoff,1,326,307,0.49,0.00,0.00,-0.80,0.00,0.52,-0.00,-0.86,0.000,-0.058,0.000,-0.056,3.141,0.000,0.003,0.000,0.280,-0.48,0.00,-0.48
1.000,takeoff,1,326,307,0.49,0.00,0.00,-0.80,0.00,0.52,-0.00,-0.87,0.000,-0.057,0.000,-0.056,3.141,0.000,0.001,0.000,0.280,-0.49,0.00,-0.49
