t,phase,found,cx,cy,wpx,hpx,conf,cmd_vx,cmd_vy,cmd_vz,cmd_yawrate,vbx,vby,vd,roll_des,pitch_des,roll,pitch,yaw,roll_q,pitch_q,yaw_q,thrust,x,y,z
0.000,takeoff,1,324,177,39,40,0.52,0.00,0.00,-0.80,0.00,0.00,0.00,0.00,0.000,0.000,-0.000,0.311,3.141,-0.000,0.388,0.000,0.314,0.00,0.00,0.00
0.016,takeoff,1,324,177,39,40,0.52,0.00,0.00,-0.80,0.00,0.00,0.00,-0.00,0.000,0.000,-0.000,0.311,3.141,-0.000,0.388,0.000,0.315,-0.00,-0.00,0.02
0.016,takeoff,1,324,177,39,40,0.52,0.00,0.00,-0.80,0.00,0.00,0.00,-0.00,0.000,0.000,-0.000,0.311,3.141,-0.000,0.388,0.000,0.315,-0.00,-0.00,0.02
0.016,takeoff,1,324,177,39,40,0.52,0.00,0.00,-0.80,0.00,0.00,0.00,-0.00,0.000,0.000,-0.000,0.311,3.141,-0.000,0.388,0.000,0.315,-0.00,-0.00,0.02
0.016,takeoff,1,324,177,39,40,0.52,0.00,0.00,-0.80,0.00,0.00,0.00,-0.00,0.000,0.000,-0.000,0.311,3.141,-0.000,0.388,0.000,0.315,-0.00,-0.00,0.02
0.016,takeoff,1,324,177,39,40,0.52,0.00,0.00,-0.80,0.00,0.00,0.00,-0.00,0.000,0.000,-0.000,0.311,3.141,-0.000,0.388,0.000,0.315,-0.00,-0.00,0.02
0.032,takeoff,1,324,177,39,40,0.52,0.00,0.00,-0.80,0.00,0.00,0.00,-0.00,0.000,0.000,-0.000,0.311,3.141,-0.000,0.388,0.000,0.315,-0.00,-0.00,0.02
0.032,takeoff,1,324,177,39,40,0.52,0.00,0.00,-0.80,0.00,0.00,0.00,0.01,0.000,0.000,-0.000,0.311,3.141,-0.000,0.388,0.000,0.316,-0.00,-0.00,0.02
0.032,takeoff,1,324,177,39,40,0.52,0.00,0.00,-0.80,0.00,0.00,0.00,0.01,0.000,0.000,-0.000,0.311,3.141,-0.000,0.388,0.000,0.316,-0.00,-0.00,0.02
0.032,takeoff,1,324,177,39,40,0.52,0.00,0.00,-0.80,0.00,-0.00,-0.00,0.01,0.000,0.000,-0.000,0.311,3.141,-0.000,0.388,0.000,0.316,-0.00,-0.00,0.02
0.032,takeoff,1,324,177,39,40,0.52,0.00,0.00,-0.80,0.00,-0.00,-0.00,0.01,0.000,0.000,-0.000,0.311,3.141,-0.000,0.388,0.000,0.316,-0.00,-0.00,0.02
0.032,takeoff,1,324,177,39,40,0.52,0.00,0.00,-0.80,0.00,-0.00,-0.00,0.00,0.000,0.000,-0.000,0.311,3.141,-0.000,0.388,0.000,0.315,-0.00,-0.00,0.02
0.047,takeoff,1,324,177,39,40,0.52,0.00,0.00,-0.80,0.00,-0.00,-0.00,0.00,0.000,0.000,-0.000,0.311,3.141,-0.000,0.388,0.000,0.316,-0.00,-0.00,0.02
0.047,takeoff,1,324,177,39,40,0.52,0.00,0.00,-0.80,0.00,-0.00,-0.00,0.00,0.000,0.000,-0.000,0.311,3.141,-0.000,0.388,0.000,0.316,-0.00,-0.00,0.02
0.047,takeoff,1,324,177,39,40,0.52,0.00,0.00,-0.80,0.00,0.00,-0.00,0.00,0.000,0.000,-0.000,0.311,3.141,-0.000,0.388,0.000,0.316,-0.00,-0.00,0.02
0.047,takeoff,1,324,177,39,40,0.52,0.00,0.00,-0.80,0.00,0.00,-0.00,-0.00,0.000,-0.001,-0.000,0.311,3.141,-0.000,0.389,0.000,0.316,-0.00,-0.00,0.02
0.047,takeoff,1,324,177,39,40,0.52,0.00,0.00,-0.80,0.00,0.00,-0.00,-0.00,0.000,-0.001,-0.000,0.310,3.141,-0.000,0.389,0.000,0.316,-0.00,-0.00,0.02
0.047,takeoff,1,324,177,39,40,0.52,0.00,0.00,-0.80,0.00,0.00,-0.00,-0.00,0.000,-0.001,-0.000,0.310,3.141,-0.000,0.389,0.000,0.316,-0.00,-0.00,0.02
0.063,takeoff,1,324,177,39,40,0.52,0.00,0.00,-0.80,0.00,0.00,-0.00,-0.00,0.000,-0.001,-0.000,0.310,3.141,-0.000,0.389,0.000,0.316,-0.00,-0.00,0.02
0.063,takeoff,1,324,177,39,40,0.52,0.00,0.00,-0.80,0.00,0.01,-0.00,-0.02,0.000,-0.002,-0.000,0.309,3.141,-0.000,0.388,0.000,0.315,-0.00,-0.00,0.02
0.063,takeoff,1,324,177,39,40,0.52,0.00,0.00,-0.80,0.00,0.01,-0.00,-0.02,0.000,-0.002,-0.000,0.309,3.141,-0.000,0.388,0.000,0.315,-0.00,-0.00,0.02
0.063,takeoff,1,324,177,39,40,0.52,0.00,0.00,-0.80,0.00,0.01,-0.00,-0.02,0.000,-0.002,-0.000,0.309,3.141,-0.000,0.388,0.000,0.315,-0.00,-0.00,0.02
0.063,takeoff,1,324,177,39,40,0.52,0.00,0.00,-0.80,0.00,0.01,-0.00,-0.02,0.000,-0.002,-0.000,0.309,3.141,-0.000,0.388,0.000,0.315,-0.00,-0.00,0.02
0.063,takeoff,1,324,177,39,40,0.52,0.00,0.00,-0.80,0.00,0.01,-0.00,-0.02,0.000,-0.002,-0.000,0.306,3.141,-0.000,0.384,0.000,0.315,-0.00,-0.00,0.02
0.079,takeoff,1,324,177,39,40,0.52,0.00,0.00,-0.80,0.00,0.01,-0.00,-0.05,0.000,-0.004,-0.000,0.306,3.141,-0.000,0.388,0.000,0.313,-0.00,-0.00,0.02
0.079,takeoff,1,324,177,39,40,0.52,0.00,0.00,-0.80,0.00,0.02,-0.00,-0.05,0.000,-0.004,-0.000,0.306,3.141,-0.000,0.388,0.000,0.313,-0.00,-0.00,0.02
0.079,takeoff,1,325,180,40,41,0.51,0.00,0.00,-0.80,0.00,0.02,-0.00,-0.05,0.000,-0.004,-0.000,0.295,3.141,-0.000,0.374,0.000,0.313,-0.00,-0.00,0.02
0.079,takeoff,1,325,180,40,41,0.51,0.00,0.00,-0.80,0.00,0.02,-0.00,-0.05,0.000,-0.004,-0.000,0.295,3.141,-0.000,0.374,0.000,0.313,-0.00,-0.00,0.02
0.079,takeoff,1,325,180,40,41,0.51,0.00,0.00,-0.80,0.00,0.02,-0.00,-0.07,0.000,-0.006,-0.000,0.295,3.141,-0.000,0.376,0.000,0.312,-0.00,-0.00,0.02
0.079,takeoff,1,325,180,40,41,0.51,0.00,0.00,-0.80,0.00,0.02,-0.00,-0.07,0.000,-0.006,-0.000,0.295,3.141,-0.000,0.376,0.000,0.312,-0.00,-0.00,0.02
0.079,takeoff,1,325,180,40,41,0.51,0.00,0.00,-0.80,0.00,0.02,-0.00,-0.07,0.000,-0.006,-0.000,0.287,3.141,-0.000,0.367,0.000,0.312,-0.00,-0.00,0.02
0.094,takeoff,1,325,180,40,41,0.51,0.00,0.00,-0.80,0.00,0.04,-0.00,-0.07,0.000,-0.006,-0.000,0.287,3.141,-0.000,0.367,0.000,0.312,-0.00,-0.00,0.02
0.094,takeoff,1,325,180,40,41,0.51,0.00,0.00,-0.80,0.00,0.04,-0.00,-0.10,0.000,-0.010,-0.000,0.287,3.141,-0.000,0.372,0.000,0.310,-0.00,-0.00,0.02
0.094,takeoff,1,325,180,40,41,0.51,0.00,0.00,-0.80,0.00,0.04,-0.00,-0.10,0.000,-0.010,-0.000,0.287,3.141,-0.000,0.372,0.000,0.310,-0.00,-0.00,0.02
0.094,takeoff,1,325,180,40,41,0.51,0.00,0.00,-0.80,0.00,0.04,-0.00,-0.10,0.000,-0.010,-0.000,0.279,3.141,-0.000,0.361,0.000,0.310,-0.00,-0.00,0.02
0.094,takeoff,1,325,180,40,41,0.51,0.00,0.00,-0.80,0.00,0.04,-0.00,-0.10,0.000,-0.010,-0.000,0.279,3.141,-0.000,0.361,0.000,0.310,-0.00,-0.00,0.02
0.094,takeoff,1,325,180,40,41,0.51,0.00,0.00,-0.80,0.00,0.09,-0.00,-0.10,0.000,-0.010,-0.000,0.279,3.141,-0.000,0.361,0.000,0.310,-0.00,-0.00,0.02
0.110,takeoff,1,325,180,40,41,0.51,0.00,0.00,-0.80,0.00,0.09,-0.00,-0.11,0.000,-0.014,-0.000,0.269,3.141,-0.001,0.354,0.000,0.310,-0.00,0.00,0.02
0.110,takeoff,1,325,180,40,41,0.51,0.00,0.00,-0.80,0.00,0.09,-0.00,-0.11,0.000,-0.014,-0.000,0.269,3.141,-0.001,0.354,0.000,0.310,-0.00,0.00,0.02
0.110,takeoff,1,325,180,40,41,0.51,0.00,0.00,-0.80,0.00,0.09,-0.00,-0.11,0.000,-0.014,-0.000,0.269,3.141,-0.001,0.354,0.000,0.310,-0.00,0.00,0.02
0.110,takeoff,1,325,180,40,41,0.51,0.00,0.00,-0.80,0.00,0.09,-0.00,-0.11,0.000,-0.014,-0.000,0.269,3.141,-0.001,0.354,0.000,0.310,-0.00,0.00,0.02
0.110,takeoff,1,324,194,39,39,0.53,0.00,0.00,-0.80,0.00,0.09,-0.00,-0.11,0.000,-0.014,-0.000,0.255,3.141,-0.001,0.337,0.000,0.310,-0.00,0.00,0.02
0.110,takeoff,1,324,194,39,39,0.53,0.00,0.00,-0.80,0.00,0.09,-0.00,-0.11,0.000,-0.016,-0.000,0.255,3.141,-0.001,0.339,0.000,0.309,-0.00,0.00,0.02
0.110,takeoff,1,324,194,39,39,0.53,0.00,0.00,-0.80,0.00,0.12,-0.00,-0.11,0.000,-0.016,-0.000,0.255,3.141,-0.001,0.339,0.000,0.309,-0.00,0.00,0.02
0.125,takeoff,1,324,194,39,39,0.53,0.00,0.00,-0.80,0.00,0.12,-0.00,-0.11,0.000,-0.016,-0.000,0.255,3.141,-0.001,0.339,0.000,0.310,-0.00,0.00,0.02
0.125,takeoff,1,324,194,39,39,0.53,0.00,0.00,-0.80,0.00,0.12,-0.00,-0.11,0.000,-0.016,-0.000,0.246,3.141,-0.001,0.328,0.000,0.310,-0.00,0.00,0.02
0.125,takeoff,1,324,194,39,39,0.53,0.00,0.00,-0.80,0.00,0.12,-0.00,-0.13,0.000,-0.021,-0.000,0.246,3.141,-0.001,0.334,0.000,0.309,-0.01,0.00,0.01
0.125,takeoff,1,324,194,39,39,0.53,0.00,0.00,-0.80,0.00,0.12,-0.00,-0.13,0.000,-0.021,-0.000,0.246,3.141,-0.001,0.334,0.000,0.309,-0.01,0.00,0.01
0.125,takeoff,1,324,194,39,39,0.53,0.00,0.00,-0.80,0.00,0.15,-0.00,-0.13,0.000,-0.021,-0.000,0.231,3.141,-0.001,0.315,0.000,0.309,-0.01,0.00,0.01
0.125,takeoff,1,324,194,39,39,0.53,0.00,0.00,-0.80,0.00,0.15,-0.00,-0.13,0.000,-0.021,-0.000,0.231,3.141,-0.001,0.315,0.000,0.309,-0.01,0.00,0.01
0.141,takeoff,1,324,194,39,39,0.53,0.00,0.00,-0.80,0.00,0.15,-0.00,-0.14,0.000,-0.023,-0.000,0.231,3.141,-0.001,0.317,0.000,0.308,-0.01,0.00,0.01
0.141,takeoff,1,324,194,39,39,0.53,0.00,0.00,-0.80,0.00,0.15,-0.00,-0.14,0.000,-0.023,-0.000,0.231,3.141,-0.001,0.317,0.000,0.308,-0.01,0.00,0.01
0.141,takeoff,1,324,194,39,39,0.53,0.00,0.00,-0.80,0.00,0.15,-0.00,-0.14,0.000,-0.023,-0.000,0.225,3.141,-0.001,0.310,0.000,0.308,-0.01,0.00,0.01
0.141,takeoff,1,324,194,39,39,0.53,0.00,0.00,-0.80,0.00,0.15,-0.00,-0.14,0.000,-0.023,-0.000,0.225,3.141,-0.001,0.310,0.000,0.308,-0.01,0.00,0.01
0.141,takeoff,1,324,194,39,39,0.53,0.00,0.00,-0.80,0.00,0.19,-0.00,-0.16,0.000,-0.027,-0.000,0.225,3.141,-0.001,0.315,0.000,0.307,-0.01,0.00,0.01
0.141,takeoff,1,324,194,39,39,0.53,0.00,0.00,-0.80,0.00,0.19,-0.00,-0.16,0.000,-0.027,-0.000,0.225,3.141,-0.001,0.315,0.000,0.307,-0.01,0.00,0.01
0.157,takeoff,1,324,206,39,39,0.52,0.00,0.00,-0.80,0.00,0.19,-0.00,-0.16,0.000,-0.027,0.000,0.219,3.141,-0.000,0.308,0.000,0.307,-0.01,0.00,0.01
0.157,takeoff,1,324,206,39,39,0.52,0.00,0.00,-0.80,0.00,0.19,-0.00,-0.16,0.000,-0.027,0.000,0.219,3.141,-0.000,0.308,0.000,0.307,-0.01,0.00,0.01
0.157,takeoff,1,324,206,39,39,0.52,0.00,0.00,-0.80,0.00,0.19,-0.00,-0.16,0.000,-0.027,0.000,0.219,3.141,-0.000,0.308,0.000,0.307,-0.01,0.00,0.01
0.157,takeoff,1,324,206,39,39,0.52,0.00,0.00,-0.80,0.00,0.22,-0.00,-0.17,0.000,-0.029,0.000,0.209,3.141,-0.000,0.298,0.000,0.306,-0.01,0.00,0.01
0.157,takeoff,1,324,206,39,39,0.52,0.00,0.00,-0.80,0.00,0.22,-0.00,-0.17,0.000,-0.029,0.000,0.209,3.141,-0.000,0.298,0.000,0.306,-0.01,0.00,0.01
0.157,takeoff,1,324,206,39,39,0.52,0.00,0.00,-0.80,0.00,0.22,-0.00,-0.17,0.000,-0.029,0.000,0.209,3.141,-0.000,0.298,0.000,0.306,-0.01,0.00,0.01
0.157,takeoff,1,324,206,39,39,0.52,0.00,0.00,-0.80,0.00,0.22,-0.00,-0.17,0.000,-0.029,0.000,0.209,3.141,-0.000,0.298,0.000,0.306,-0.01,0.00,0.01
0.172,takeoff,1,324,206,39,39,0.52,0.00,0.00,-0.80,0.00,0.22,-0.00,-0.20,0.000,-0.034,0.000,0.204,3.141,-0.000,0.296,0.000,0.304,-0.02,0.00,0.01
0.172,takeoff,1,324,206,39,39,0.52,0.00,0.00,-0.80,0.00,0.22,-0.00,-0.20,0.000,-0.034,0.000,0.204,3.141,-0.000,0.296,0.000,0.304,-0.02,0.00,0.01
0.172,takeoff,1,324,206,39,39,0.52,0.00,0.00,-0.80,0.00,0.25,-0.00,-0.20,0.000,-0.034,0.000,0.204,3.141,-0.000,0.296,0.000,0.304,-0.02,0.00,0.01
0.172,takeoff,1,324,206,39,39,0.52,0.00,0.00,-0.80,0.00,0.25,-0.00,-0.20,0.000,-0.034,0.000,0.204,3.141,-0.000,0.296,0.000,0.304,-0.02,0.00,0.01
0.172,takeoff,1,324,214,39,39,0.52,0.00,0.00,-0.80,0.00,0.25,-0.00,-0.20,0.000,-0.034,0.000,0.198,3.141,-0.000,0.290,0.000,0.304,-0.02,0.00,0.01
0.172,takeoff,1,324,214,39,39,0.52,0.00,0.00,-0.80,0.00,0.25,-0.00,-0.21,0.000,-0.036,0.000,0.198,3.141,-0.000,0.292,0.000,0.303,-0.02,0.00,0.01
0.172,takeoff,1,324,214,39,39,0.52,0.00,0.00,-0.80,0.00,0.25,-0.00,-0.21,0.000,-0.036,0.000,0.198,3.141,-0.000,0.292,0.000,0.303,-0.02,0.00,0.01
0.188,takeoff,1,324,214,39,39,0.52,0.00,0.00,-0.80,0.00,0.25,-0.00,-0.21,0.000,-0.036,0.000,0.198,3.141,-0.000,0.292,0.000,0.304,-0.02,0.00,0.01
0.188,takeoff,1,324,214,39,39,0.52,0.00,0.00,-0.80,0.00,0.26,-0.00,-0.21,0.000,-0.036,0.000,0.193,3.141,-0.000,0.286,0.000,0.304,-0.02,0.00,0.01
0.188,takeoff,1,324,214,39,39,0.52,0.00,0.00,-0.80,0.00,0.26,-0.00,-0.24,0.000,-0.039,0.000,0.193,3.141,-0.000,0.290,0.000,0.302,-0.02,0.00,0.00
0.188,takeoff,1,324,214,39,39,0.52,0.00,0.00,-0.80,0.00,0.26,-0.00,-0.24,0.000,-0.039,0.000,0.193,3.141,-0.000,0.290,0.000,0.302,-0.02,0.00,0.00
0.188,takeoff,1,324,214,39,39,0.52,0.00,0.00,-0.80,0.00,0.26,-0.00,-0.24,0.000,-0.039,0.000,0.182,3.141,-0.000,0.277,0.000,0.302,-0.02,0.00,0.00
0.188,takeoff,1,324,214,39,39,0.52,0.00,0.00,-0.80,0.00,0.26,-0.00,-0.24,0.000,-0.039,0.000,0.182,3.141,-0.000,0.277,0.000,0.302,-0.02,0.00,0.00
0.188,takeoff,1,324,214,39,39,0.52,0.00,0.00,-0.80,0.00,0.26,-0.00,-0.24,0.000,-0.039,0.000,0.182,3.141,-0.000,0.277,0.000,0.302,-0.02,0.00,0.00
0.204,takeoff,1,324,214,39,39,0.52,0.00,0.00,-0.80,0.00,0.29,-0.00,-0.25,0.000,-0.041,0.000,0.182,3.141,-0.000,0.279,0.000,0.301,-0.03,0.00,0.00
0.204,takeoff,1,324,214,39,39,0.52,0.00,0.00,-0.80,0.00,0.29,-0.00,-0.25,0.000,-0.041,0.000,0.177,3.141,-0.000,0.273,0.000,0.301,-0.03,0.00,0.00
0.204,takeoff,1,324,214,39,39,0.52,0.00,0.00,-0.80,0.00,0.29,-0.00,-0.25,0.000,-0.041,0.000,0.177,3.141,-0.000,0.273,0.000,0.301,-0.03,0.00,0.00
0.204,takeoff,1,324,214,39,39,0.52,0.00,0.00,-0.80,0.00,0.29,-0.00,-0.25,0.000,-0.041,0.000,0.177,3.141,-0.000,0.273,0.000,0.301,-0.03,0.00,0.00
0.204,takeoff,1,324,214,39,39,0.52,0.00,0.00,-0.80,0.00,0.29,-0.00,-0.28,0.000,-0.045,0.000,0.171,3.141,-0.000,0.270,0.000,0.299,-0.03,0.00,-0.00
0.204,takeoff,1,325,222,40,40,0.52,0.00,0.00,-0.80,0.00,0.33,-0.00,-0.28,0.000,-0.045,0.000,0.171,3.141,-0.000,0.270,0.000,0.299,-0.03,0.00,-0.00
0.219,takeoff,1,325,222,40,40,0.52,0.00,0.00,-0.80,0.00,0.33,-0.00,-0.28,0.000,-0.045,0.000,0.171,3.141,-0.000,0.270,0.000,0.299,-0.03,0.00,-0.00
0.219,takeoff,1,325,222,40,40,0.52,0.00,0.00,-0.80,0.00,0.33,-0.00,-0.28,0.000,-0.045,0.000,0.171,3.141,-0.000,0.270,0.000,0.299,-0.03,0.00,-0.00
0.219,takeoff,1,325,222,40,40,0.52,0.00,0.00,-0.80,0.00,0.33,-0.00,-0.31,0.000,-0.048,0.000,0.166,3.141,-0.000,0.268,0.000,0.297,-0.04,0.00,-0.01
0.219,takeoff,1,325,222,40,40,0.52,0.00,0.00,-0.80,0.00,0.33,-0.00,-0.31,0.000,-0.048,0.000,0.166,3.141,-0.000,0.268,0.000,0.297,-0.04,0.00,-0.01
0.219,takeoff,1,325,222,40,40,0.52,0.00,0.00,-0.80,0.00,0.33,-0.00,-0.31,0.000,-0.048,0.000,0.166,3.141,-0.000,0.268,0.000,0.297,-0.04,0.00,-0.01
0.219,takeoff,1,325,222,40,40,0.52,0.00,0.00,-0.80,0.00,0.36,-0.00,-0.31,0.000,-0.048,0.000,0.156,3.141,-0.000,0.256,0.000,0.297,-0.04,0.00,-0.01
0.219,takeoff,1,325,222,40,40,0.52,0.00,0.00,-0.80,0.00,0.36,-0.00,-0.31,0.000,-0.048,0.000,0.156,3.141,-0.000,0.256,0.000,0.297,-0.04,0.00,-0.01
0.235,takeoff,1,325,222,40,40,0.52,0.00,0.00,-0.80,0.00,0.36,-0.00,-0.32,0.000,-0.050,0.000,0.156,3.141,-0.000,0.258,0.000,0.296,-0.04,0.00,-0.01
0.235,takeoff,1,325,222,40,40,0.52,0.00,0.00,-0.80,0.00,0.36,-0.00,-0.32,0.000,-0.050,0.000,0.156,3.141,-0.000,0.258,0.000,0.296,-0.04,0.00,-0.01
0.235,takeoff,1,325,222,40,40,0.52,0.00,0.00,-0.80,0.00,0.36,-0.00,-0.32,0.000,-0.050,0.000,0.151,3.141,-0.000,0.251,0.000,0.296,-0.04,0.00,-0.01
0.235,takeoff,1,325,222,40,40,0.52,0.00,0.00,-0.80,0.00,0.36,-0.00,-0.32,0.000,-0.050,0.000,0.151,3.141,-0.000,0.251,0.000,0.296,-0.04,0.00,-0.01
0.235,takeoff,1,325,222,40,40,0.52,0.00,0.00,-0.80,0.00,0.38,-0.00,-0.34,0.000,-0.053,0.000,0.151,3.141,-0.000,0.255,0.000,0.294,-0.04,0.00,-0.01
0.235,takeoff,1,325,222,40,40,0.52,0.00,0.00,-0.80,0.00,0.38,-0.00,-0.34,0.000,-0.053,0.000,0.151,3.141,-0.000,0.255,0.000,0.294,-0.04,0.00,-0.01
0.250,takeoff,1,325,230,40,40,0.52,0.00,0.00,-0.80,0.00,0.38,-0.00,-0.34,0.000,-0.053,0.000,0.147,3.141,-0.000,0.249,0.000,0.295,-0.04,0.00,-0.01
0.250,takeoff,1,325,230,40,40,0.52,0.00,0.00,-0.80,0.00,0.38,-0.00,-0.34,0.000,-0.053,0.000,0.147,3.141,-0.000,0.249,0.000,0.295,-0.04,0.00,-0.01
0.250,takeoff,1,325,230,40,40,0.52,0.00,0.00,-0.80,0.00,0.38,-0.00,-0.34,0.000,-0.053,0.000,0.147,3.141,-0.000,0.249,0.000,0.295,-0.04,0.00,-0.01
0.250,takeoff,1,325,230,40,40,0.52,0.00,0.00,-0.80,0.00,0.38,-0.00,-0.36,0.000,-0.054,0.000,0.142,3.141,-0.000,0.245,0.000,0.294,-0.05,0.00,-0.02
0.250,takeoff,1,325,230,40,40,0.52,0.00,0.00,-0.80,0.00,0.41,-0.00,-0.36,0.000,-0.054,0.000,0.142,3.141,-0.000,0.245,0.000,0.294,-0.05,0.00,-0.02
0.250,takeoff,1,325,230,40,40,0.52,0.00,0.00,-0.80,0.00,0.41,-0.00,-0.36,0.000,-0.054,0.000,0.142,3.141,-0.000,0.245,0.000,0.294,-0.05,0.00,-0.02
0.266,takeoff,1,325,230,40,40,0.52,0.00,0.00,-0.80,0.00,0.41,-0.00,-0.36,0.000,-0.054,0.000,0.142,3.141,-0.000,0.245,0.000,0.294,-0.05,0.00,-0.02
0.266,takeoff,1,325,230,40,40,0.52,0.00,0.00,-0.80,0.00,0.41,-0.00,-0.37,0.000,-0.056,0.000,0.137,3.141,-0.000,0.241,0.000,0.293,-0.05,0.00,-0.02
0.266,takeoff,1,325,230,40,40,0.52,0.00,0.00,-0.80,0.00,0.41,-0.00,-0.37,0.000,-0.056,0.000,0.137,3.141,-0.000,0.241,0.000,0.293,-0.05,0.00,-0.02
0.266,takeoff,1,325,230,40,40,0.52,0.00,0.00,-0.80,0.00,0.41,-0.00,-0.37,0.000,-0.056,0.000,0.137,3.141,-0.000,0.241,0.000,0.293,-0.05,0.00,-0.02
0.266,takeoff,1,325,230,40,40,0.52,0.00,0.00,-0.80,0.00,0.43,-0.00,-0.37,0.000,-0.056,0.000,0.137,3.141,-0.000,0.241,0.000,0.293,-0.05,0.00,-0.02
0.266,takeoff,1,325,230,40,40,0.52,0.00,0.00,-0.80,0.00,0.43,-0.00,-0.39,0.000,-0.059,0.000,0.126,3.141,-0.000,0.231,0.000,0.291,-0.06,0.00,-0.02
0.266,takeoff,1,325,230,40,40,0.52,0.00,0.00,-0.80,0.00,0.43,-0.00,-0.39,0.000,-0.059,0.000,0.126,3.141,-0.000,0.231,0.000,0.291,-0.06,0.00,-0.02
0.282,takeoff,1,326,238,41,41,0.51,0.00,0.00,-0.80,0.00,0.43,-0.00,-0.39,0.000,-0.059,0.000,0.126,3.141,-0.000,0.231,0.000,0.292,-0.06,0.00,-0.02
0.282,takeoff,1,326,238,41,41,0.51,0.00,0.00,-0.80,0.00,0.43,-0.00,-0.39,0.000,-0.059,0.000,0.126,3.141,-0.000,0.231,0.000,0.292,-0.06,0.00,-0.02
0.282,takeoff,1,326,238,41,41,0.51,0.00,0.00,-0.80,0.00,0.43,-0.00,-0.39,0.000,-0.059,0.000,0.122,3.141,-0.000,0.226,0.000,0.292,-0.06,0.00,-0.02
0.282,takeoff,1,326,238,41,41,0.51,0.00,0.00,-0.80,0.00,0.45,-0.00,-0.40,0.000,-0.060,0.000,0.122,3.141,-0.000,0.227,0.000,0.291,-0.06,0.00,-0.03
0.282,takeoff,1,326,238,41,41,0.51,0.00,0.00,-0.80,0.00,0.45,-0.00,-0.40,0.000,-0.060,0.000,0.122,3.141,-0.000,0.227,0.000,0.291,-0.06,0.00,-0.03
0.282,takeoff,1,326,238,41,41,0.51,0.00,0.00,-0.80,0.00,0.45,-0.00,-0.40,0.000,-0.060,0.000,0.118,3.141,-0.000,0.222,0.000,0.291,-0.06,0.00,-0.03
0.297,takeoff,1,326,238,41,41,0.51,0.00,0.00,-0.80,0.00,0.45,-0.00,-0.40,0.000,-0.060,0.000,0.118,3.141,-0.000,0.222,0.000,0.291,-0.06,0.00,-0.03
0.297,takeoff,1,326,238,41,41,0.51,0.00,0.00,-0.80,0.00,0.45,-0.00,-0.42,0.000,-0.062,0.000,0.118,3.141,-0.000,0.225,0.000,0.290,-0.07,0.00,-0.03
0.297,takeoff,1,326,238,41,41,0.51,0.00,0.00,-0.80,0.00,0.47,-0.00,-0.42,0.000,-0.062,0.000,0.118,3.141,-0.000,0.225,0.000,0.290,-0.07,0.00,-0.03
0.297,takeoff,1,326,238,41,41,0.51,0.00,0.00,-0.80,0.00,0.47,-0.00,-0.42,0.000,-0.062,0.000,0.113,3.141,-0.000,0.219,0.000,0.290,-0.07,0.00,-0.03
0.297,takeoff,1,326,238,41,41,0.51,0.00,0.00,-0.80,0.00,0.47,-0.00,-0.42,0.000,-0.062,0.000,0.113,3.141,-0.000,0.219,0.000,0.290,-0.07,0.00,-0.03
0.297,takeoff,1,326,238,41,41,0.51,0.00,0.00,-0.80,0.00,0.47,-0.00,-0.42,0.000,-0.062,0.000,0.113,3.141,-0.000,0.219,0.000,0.290,-0.07,0.00,-0.03
0.297,takeoff,1,326,238,41,41,0.51,0.00,0.00,-0.80,0.00,0.47,-0.00,-0.42,0.000,-0.063,0.000,0.113,3.141,-0.000,0.220,0.000,0.289,-0.07,0.00,-0.04
0.313,takeoff,1,326,238,41,41,0.51,0.00,0.00,-0.80,0.00,0.47,-0.00,-0.42,0.000,-0.063,0.000,0.105,3.141,-0.000,0.210,0.000,0.290,-0.07,0.00,-0.04
0.313,takeoff,1,326,238,41,41,0.51,0.00,0.00,-0.80,0.00,0.48,-0.00,-0.42,0.000,-0.063,0.000,0.105,3.141,-0.000,0.210,0.000,0.290,-0.07,0.00,-0.04
0.313,takeoff,1,326,244,41,40,0.51,0.00,0.00,-0.80,0.00,0.48,-0.00,-0.42,0.000,-0.063,0.000,0.105,3.141,-0.000,0.210,0.000,0.290,-0.07,0.00,-0.04
0.313,takeoff,1,326,244,41,40,0.51,0.00,0.00,-0.80,0.00,0.48,-0.00,-0.43,0.000,-0.065,0.000,0.105,3.141,-0.000,0.212,0.000,0.289,-0.08,0.00,-0.04
0.313,takeoff,1,326,244,41,40,0.51,0.00,0.00,-0.80,0.00,0.48,-0.00,-0.43,0.000,-0.065,0.000,0.101,3.141,-0.000,0.207,0.000,0.289,-0.08,0.00,-0.04
0.313,takeoff,1,326,244,41,40,0.51,0.00,0.00,-0.80,0.00,0.48,-0.00,-0.43,0.000,-0.065,0.000,0.101,3.141,-0.000,0.207,0.000,0.289,-0.08,0.00,-0.04
0.313,takeoff,1,326,244,41,40,0.51,0.00,0.00,-0.80,0.00,0.48,-0.00,-0.43,0.000,-0.065,0.000,0.101,3.141,-0.000,0.207,0.000,0.289,-0.08,0.00,-0.04
0.329,takeoff,1,326,244,41,40,0.51,0.00,0.00,-0.80,0.00,0.50,-0.00,-0.43,0.000,-0.065,0.000,0.097,3.141,-0.000,0.202,0.000,0.289,-0.08,0.00,-0.04
0.329,takeoff,1,326,244,41,40,0.51,0.00,0.00,-0.80,0.00,0.50,-0.00,-0.44,0.000,-0.066,0.000,0.097,3.141,-0.000,0.204,0.000,0.289,-0.08,0.00,-0.05
0.329,takeoff,1,326,244,41,40,0.51,0.00,0.00,-0.80,0.00,0.50,-0.00,-0.44,0.000,-0.066,0.000,0.097,3.141,-0.000,0.204,0.000,0.289,-0.08,0.00,-0.05
0.329,takeoff,1,326,244,41,40,0.51,0.00,0.00,-0.80,0.00,0.50,-0.00,-0.44,0.000,-0.066,0.000,0.097,3.141,-0.000,0.204,0.000,0.289,-0.08,0.00,-0.05
0.329,takeoff,1,326,244,41,40,0.51,0.00,0.00,-0.80,0.00,0.50,-0.00,-0.44,0.000,-0.066,0.000,0.093,3.141,-0.000,0.199,0.000,0.289,-0.08,0.00,-0.05
0.329,takeoff,1,326,244,41,40,0.51,0.00,0.00,-0.80,0.00,0.50,-0.00,-0.44,0.000,-0.066,0.000,0.093,3.141,-0.000,0.199,0.000,0.289,-0.08,0.00,-0.05
0.329,takeoff,1,326,244,41,40,0.51,0.00,0.00,-0.80,0.00,0.50,-0.00,-0.45,0.000,-0.067,0.000,0.093,3.141,-0.000,0.201,0.000,0.288,-0.09,0.00,-0.05
0.344,takeoff,1,326,244,41,40,0.51,0.00,0.00,-0.80,0.00,0.52,-0.00,-0.45,0.000,-0.067,0.000,0.093,3.141,-0.000,0.201,0.000,0.288,-0.09,0.00,-0.05
0.344,takeoff,1,326,244,41,40,0.51,0.00,0.00,-0.80,0.00,0.52,-0.00,-0.45,0.000,-0.067,0.000,0.086,3.141,-0.000,0.192,0.000,0.288,-0.09,0.00,-0.05
0.344,takeoff,1,326,244,41,40,0.51,0.00,0.00,-0.80,0.00,0.52,-0.00,-0.45,0.000,-0.067,0.000,0.086,3.141,-0.000,0.192,0.000,0.288,-0.09,0.00,-0.05
0.344,takeoff,1,326,250,41,43,0.50,0.00,0.00,-0.80,0.00,0.52,-0.00,-0.46,0.000,-0.068,0.000,0.086,3.141,-0.000,0.193,0.000,0.288,-0.10,0.00,-0.05
0.344,takeoff,1,326,250,41,43,0.50,0.00,0.00,-0.80,0.00,0.52,-0.00,-0.46,0.000,-0.068,0.000,0.082,3.141,-0.000,0.188,0.000,0.288,-0.10,0.00,-0.05
0.344,takeoff,1,326,250,41,43,0.50,0.00,0.00,-0.80,0.00,0.53,-0.00,-0.46,0.000,-0.068,0.000,0.082,3.141,-0.000,0.188,0.000,0.288,-0.10,0.00,-0.05
0.360,takeoff,1,326,250,41,43,0.50,0.00,0.00,-0.80,0.00,0.53,-0.00,-0.46,0.000,-0.068,0.000,0.082,3.141,-0.000,0.188,0.000,0.288,-0.10,0.00,-0.05
0.360,takeoff,1,326,250,41,43,0.50,0.00,0.00,-0.80,0.00,0.53,-0.00,-0.47,0.000,-0.070,0.000,0.079,3.141,-0.000,0.185,0.000,0.287,-0.10,0.00,-0.06
0.360,takeoff,1,326,250,41,43,0.50,0.00,0.00,-0.80,0.00,0.53,-0.00,-0.47,0.000,-0.070,0.000,0.079,3.141,-0.000,0.185,0.000,0.287,-0.10,0.00,-0.06
0.360,takeoff,1,326,250,41,43,0.50,0.00,0.00,-0.80,0.00,0.53,-0.00,-0.47,0.000,-0.070,0.000,0.079,3.141,-0.000,0.185,0.000,0.287,-0.10,0.00,-0.06
0.360,takeoff,1,326,250,41,43,0.50,0.00,0.00,-0.80,0.00,0.53,-0.00,-0.47,0.000,-0.070,0.000,0.079,3.141,-0.000,0.185,0.000,0.287,-0.10,0.00,-0.06
0.360,takeoff,1,326,250,41,43,0.50,0.00,0.00,-0.80,0.00,0.55,-0.00,-0.47,0.000,-0.070,0.000,0.075,3.141,-0.000,0.182,0.000,0.287,-0.11,0.00,-0.06
0.375,takeoff,1,326,250,41,43,0.50,0.00,0.00,-0.80,0.00,0.55,-0.00,-0.47,0.000,-0.070,0.000,0.075,3.141,-0.000,0.182,0.000,0.287,-0.11,0.00,-0.06
0.375,takeoff,1,326,250,41,43,0.50,0.00,0.00,-0.80,0.00,0.55,-0.00,-0.47,0.000,-0.070,0.000,0.075,3.141,-0.000,0.182,0.000,0.287,-0.11,0.00,-0.06
0.375,takeoff,1,326,250,41,43,0.50,0.00,0.00,-0.80,0.00,0.55,-0.00,-0.47,0.000,-0.070,0.000,0.075,3.141,-0.000,0.182,0.000,0.287,-0.11,0.00,-0.06
0.375,takeoff,1,326,250,41,43,0.50,0.00,0.00,-0.80,0.00,0.55,-0.00,-0.48,0.000,-0.072,0.000,0.068,3.141,-0.000,0.175,0.000,0.286,-0.12,0.00,-0.07
0.375,takeoff,1,326,250,41,43,0.50,0.00,0.00,-0.80,0.00,0.56,-0.00,-0.48,0.000,-0.072,0.000,0.068,3.141,-0.000,0.175,0.000,0.286,-0.12,0.00,-0.07
0.375,takeoff,1,326,256,41,43,0.51,0.00,0.00,-0.80,0.00,0.56,-0.00,-0.48,0.000,-0.072,0.000,0.068,3.141,-0.000,0.175,0.000,0.286,-0.12,0.00,-0.07
0.375,takeoff,1,326,256,41,43,0.51,0.00,0.00,-0.80,0.00,0.56,-0.00,-0.48,0.000,-0.072,0.000,0.068,3.141,-0.000,0.175,0.000,0.286,-0.12,0.00,-0.07
0.375,takeoff,1,326,256,41,43,0.51,0.00,0.00,-0.80,0.00,0.56,-0.00,-0.48,0.000,-0.072,0.000,0.065,3.141,-0.000,0.171,0.000,0.286,-0.12,0.00,-0.07
0.391,takeoff,1,326,256,41,43,0.51,0.00,0.00,-0.80,0.00,0.56,-0.00,-0.49,0.000,-0.072,0.000,0.065,3.141,-0.000,0.172,0.000,0.286,-0.12,0.00,-0.07
0.391,takeoff,1,326,256,41,43,0.51,0.00,0.00,-0.80,0.00,0.56,-0.00,-0.49,0.000,-0.072,0.000,0.065,3.141,-0.000,0.172,0.000,0.286,-0.12,0.00,-0.07
0.391,takeoff,1,326,256,41,43,0.51,0.00,0.00,-0.80,0.00,0.57,-0.00,-0.49,0.000,-0.072,0.000,0.062,3.141,-0.000,0.167,0.000,0.286,-0.12,0.00,-0.07
0.391,takeoff,1,326,256,41,43,0.51,0.00,0.00,-0.80,0.00,0.57,-0.00,-0.49,0.000,-0.072,0.000,0.062,3.141,-0.000,0.167,0.000,0.286,-0.12,0.00,-0.07
0.391,takeoff,1,326,256,41,43,0.51,0.00,0.00,-0.80,0.00,0.57,-0.00,-0.49,0.000,-0.072,0.000,0.062,3.141,-0.000,0.167,0.000,0.286,-0.12,0.00,-0.07
0.391,takeoff,1,326,256,41,43,0.51,0.00,0.00,-0.80,0.00,0.57,-0.00,-0.50,0.000,-0.073,0.000,0.062,3.141,-0.000,0.169,0.000,0.285,-0.13,0.00,-0.08
0.407,takeoff,1,326,256,41,43,0.51,0.00,0.00,-0.80,0.00,0.57,-0.00,-0.50,0.000,-0.073,0.000,0.059,3.141,-0.000,0.165,0.000,0.285,-0.13,0.00,-0.08
0.407,takeoff,1,326,256,41,43,0.51,0.00,0.00,-0.80,0.00,0.57,-0.00,-0.50,0.000,-0.073,0.000,0.059,3.141,-0.000,0.165,0.000,0.285,-0.13,0.00,-0.08
0.407,takeoff,1,326,256,41,43,0.51,0.00,0.00,-0.80,0.00,0.57,-0.00,-0.50,0.000,-0.073,0.000,0.059,3.141,-0.000,0.165,0.000,0.285,-0.13,0.00,-0.08
0.407,takeoff,1,326,256,41,43,0.51,0.00,0.00,-0.80,0.00,0.59,-0.00,-0.50,0.000,-0.074,0.000,0.059,3.141,-0.000,0.165,0.000,0.285,-0.13,0.00,-0.09
0.407,takeoff,1,326,256,41,43,0.51,0.00,0.00,-0.80,0.00,0.59,-0.00,-0.50,0.000,-0.074,0.000,0.052,3.141,-0.000,0.158,0.000,0.285,-0.13,0.00,-0.09
0.407,takeoff,1,326,256,41,43,0.51,0.00,0.00,-0.80,0.00,0.59,-0.00,-0.50,0.000,-0.074,0.000,0.052,3.141,-0.000,0.158,0.000,0.285,-0.13,0.00,-0.09
0.407,takeoff,1,326,256,41,43,0.51,0.00,0.00,-0.80,0.00,0.59,-0.00,-0.50,0.000,-0.074,0.000,0.052,3.141,-0.000,0.158,0.000,0.285,-0.13,0.00,-0.09
0.422,takeoff,1,326,262,41,44,0.50,0.00,0.00,-0.80,0.00,0.59,-0.00,-0.50,0.000,-0.074,0.000,0.052,3.141,-0.000,0.158,0.000,0.285,-0.13,0.00,-0.09
0.422,takeoff,1,326,262,41,44,0.50,0.00,0.00,-0.80,0.00,0.59,-0.00,-0.51,0.000,-0.075,0.000,0.049,3.141,-0.000,0.155,0.000,0.284,-0.14,0.00,-0.09
0.422,takeoff,1,326,262,41,44,0.50,0.00,0.00,-0.80,0.00,0.60,-0.00,-0.51,0.000,-0.075,0.000,0.049,3.141,-0.000,0.155,0.000,0.284,-0.14,0.00,-0.09
0.422,takeoff,1,326,262,41,44,0.50,0.00,0.00,-0.80,0.00,0.60,-0.00,-0.51,0.000,-0.075,0.000,0.049,3.141,-0.000,0.155,0.000,0.284,-0.14,0.00,-0.09
0.422,takeoff,1,326,262,41,44,0.50,0.00,0.00,-0.80,0.00,0.60,-0.00,-0.51,0.000,-0.075,0.000,0.049,3.141,-0.000,0.155,0.000,0.284,-0.14,0.00,-0.09
0.422,takeoff,1,326,262,41,44,0.50,0.00,0.00,-0.80,0.00,0.60,-0.00,-0.51,0.000,-0.075,0.000,0.046,3.141,-0.000,0.151,0.000,0.284,-0.14,0.00,-0.09
0.422,takeoff,1,326,262,41,44,0.50,0.00,0.00,-0.80,0.00,0.60,-0.00,-0.52,0.000,-0.075,0.000,0.046,3.141,-0.000,0.152,0.000,0.284,-0.15,0.00,-0.10
0.438,takeoff,1,326,262,41,44,0.50,0.00,0.00,-0.80,0.00,0.60,-0.00,-0.52,0.000,-0.075,0.000,0.046,3.141,-0.000,0.152,0.000,0.284,-0.15,0.00,-0.10
0.438,takeoff,1,326,262,41,44,0.50,0.00,0.00,-0.80,0.00,0.61,-0.00,-0.52,0.000,-0.075,0.000,0.046,3.141,-0.000,0.152,0.000,0.284,-0.15,0.00,-0.10
0.438,takeoff,1,326,262,41,44,0.50,0.00,0.00,-0.80,0.00,0.61,-0.00,-0.52,0.000,-0.075,0.000,0.044,3.141,-0.000,0.148,0.000,0.284,-0.15,0.00,-0.10
0.438,takeoff,1,326,262,41,44,0.50,0.00,0.00,-0.80,0.00,0.61,-0.00,-0.53,0.000,-0.076,0.000,0.044,3.141,-0.000,0.149,0.000,0.283,-0.16,0.00,-0.10
0.438,takeoff,1,326,262,41,44,0.50,0.00,0.00,-0.80,0.00,0.61,-0.00,-0.53,0.000,-0.076,0.000,0.044,3.141,-0.000,0.149,0.000,0.283,-0.16,0.00,-0.10
0.438,takeoff,1,326,266,41,44,0.50,0.00,0.00,-0.80,0.00,0.61,-0.00,-0.53,0.000,-0.076,0.000,0.044,3.141,-0.000,0.149,0.000,0.283,-0.16,0.00,-0.10
0.438,takeoff,1,326,266,41,44,0.50,0.00,0.00,-0.80,0.00,0.61,-0.00,-0.53,0.000,-0.076,0.000,0.038,3.141,-0.000,0.142,0.000,0.283,-0.16,0.00,-0.10
0.454,takeoff,1,326,266,41,44,0.50,0.00,0.00,-0.80,0.00,0.61,-0.00,-0.53,0.000,-0.076,0.000,0.038,3.141,-0.000,0.142,0.000,0.284,-0.16,0.00,-0.10
0.454,takeoff,1,326,266,41,44,0.50,0.00,0.00,-0.80,0.00,0.61,-0.00,-0.53,0.000,-0.076,0.000,0.038,3.141,-0.000,0.143,0.000,0.283,-0.16,0.00,-0.11
0.454,takeoff,1,326,266,41,44,0.50,0.00,0.00,-0.80,0.00,0.61,-0.00,-0.53,0.000,-0.076,0.000,0.038,3.141,-0.000,0.143,0.000,0.283,-0.16,0.00,-0.11
0.454,takeoff,1,326,266,41,44,0.50,0.00,0.00,-0.80,0.00,0.61,-0.00,-0.53,0.000,-0.076,0.000,0.035,3.141,-0.000,0.139,0.000,0.283,-0.16,0.00,-0.11
0.454,takeoff,1,326,266,41,44,0.50,0.00,0.00,-0.80,0.00,0.61,-0.00,-0.53,0.000,-0.076,0.000,0.035,3.141,-0.000,0.139,0.000,0.283,-0.16,0.00,-0.11
0.454,takeoff,1,326,266,41,44,0.50,0.00,0.00,-0.80,0.00,0.62,-0.00,-0.54,0.000,-0.077,0.000,0.035,3.141,-0.000,0.140,0.000,0.283,-0.17,0.00,-0.11
0.469,takeoff,1,326,266,41,44,0.50,0.00,0.00,-0.80,0.00,0.62,-0.00,-0.54,0.000,-0.077,0.000,0.032,3.141,-0.000,0.136,0.000,0.283,-0.17,0.00,-0.11
0.469,takeoff,1,326,266,41,44,0.50,0.00,0.00,-0.80,0.00,0.62,-0.00,-0.54,0.000,-0.077,0.000,0.032,3.141,-0.000,0.136,0.000,0.283,-0.17,0.00,-0.11
0.469,takeoff,1,326,266,41,44,0.50,0.00,0.00,-0.80,0.00,0.62,-0.00,-0.54,0.000,-0.077,0.000,0.032,3.141,-0.000,0.136,0.000,0.283,-0.17,0.00,-0.11
0.469,takeoff,1,326,266,41,44,0.50,0.00,0.00,-0.80,0.00,0.62,-0.00,-0.54,0.000,-0.077,0.000,0.032,3.141,-0.000,0.136,0.000,0.283,-0.17,0.00,-0.11
0.469,takeoff,1,326,266,41,44,0.50,0.00,0.00,-0.80,0.00,0.62,-0.00,-0.55,0.000,-0.077,0.000,0.027,3.141,-0.000,0.130,0.000,0.282,-0.17,0.00,-0.12
0.469,takeoff,1,326,266,41,44,0.50,0.00,0.00,-0.80,0.00,0.63,-0.00,-0.55,0.000,-0.077,0.000,0.027,3.141,-0.000,0.130,0.000,0.282,-0.17,0.00,-0.12
0.469,takeoff,1,326,272,41,44,0.50,0.00,0.00,-0.80,0.00,0.63,-0.00,-0.55,0.000,-0.077,0.000,0.027,3.141,-0.000,0.130,0.000,0.282,-0.17,0.00,-0.12
0.485,takeoff,1,326,272,41,44,0.50,0.00,0.00,-0.80,0.00,0.63,-0.00,-0.55,0.000,-0.077,0.000,0.027,3.141,-0.000,0.130,0.000,0.283,-0.17,0.00,-0.12
0.485,takeoff,1,326,272,41,44,0.50,0.00,0.00,-0.80,0.00,0.63,-0.00,-0.55,0.000,-0.077,0.000,0.025,3.141,-0.000,0.128,0.000,0.282,-0.18,0.00,-0.13
0.485,takeoff,1,326,272,41,44,0.50,0.00,0.00,-0.80,0.00,0.63,-0.00,-0.55,0.000,-0.077,0.000,0.025,3.141,-0.000,0.128,0.000,0.282,-0.18,0.00,-0.13
0.485,takeoff,1,326,272,41,44,0.50,0.00,0.00,-0.80,0.00,0.63,-0.00,-0.55,0.000,-0.077,0.000,0.025,3.141,-0.000,0.128,0.000,0.282,-0.18,0.00,-0.13
0.485,takeoff,1,326,272,41,44,0.50,0.00,0.00,-0.80,0.00,0.63,-0.00,-0.55,0.000,-0.077,0.000,0.025,3.141,-0.000,0.128,0.000,0.282,-0.18,0.00,-0.13
0.485,takeoff,1,326,272,41,44,0.50,0.00,0.00,-0.80,0.00,0.63,-0.00,-0.56,0.000,-0.078,0.000,0.022,3.141,-0.000,0.125,0.000,0.282,-0.19,0.00,-0.13
0.500,takeoff,1,326,272,41,44,0.50,0.00,0.00,-0.80,0.00,0.63,-0.00,-0.56,0.000,-0.078,0.000,0.022,3.141,-0.000,0.125,0.000,0.282,-0.19,0.00,-0.13
0.500,takeoff,1,326,272,41,44,0.50,0.00,0.00,-0.80,0.00,0.63,-0.00,-0.56,0.000,-0.078,0.000,0.022,3.141,-0.000,0.125,0.000,0.282,-0.19,0.00,-0.13
0.500,takeoff,1,326,272,41,44,0.50,0.00,0.00,-0.80,0.00,0.64,-0.00,-0.56,0.000,-0.078,0.000,0.020,3.141,-0.000,0.122,0.000,0.282,-0.19,0.00,-0.13
0.500,takeoff,1,326,272,41,44,0.50,0.00,0.00,-0.80,0.00,0.64,-0.00,-0.57,0.000,-0.078,0.000,0.020,3.141,-0.000,0.122,0.000,0.281,-0.20,0.00,-0.14
0.500,takeoff,1,326,272,41,44,0.50,0.00,0.00,-0.80,0.00,0.64,-0.00,-0.57,0.000,-0.078,0.000,0.020,3.141,-0.000,0.122,0.000,0.281,-0.20,0.00,-0.14
0.500,takeoff,1,326,272,41,44,0.50,0.00,0.00,-0.80,0.00,0.64,-0.00,-0.57,0.000,-0.078,0.000,0.015,3.141,-0.000,0.116,0.000,0.281,-0.20,0.00,-0.14
0.516,takeoff,1,326,272,41,44,0.50,0.00,0.00,-0.80,0.00,0.64,-0.00,-0.57,0.000,-0.078,0.000,0.015,3.141,-0.000,0.116,0.000,0.281,-0.20,0.00,-0.14
0.516,takeoff,1,326,276,41,43,0.51,0.00,0.00,-0.80,0.00,0.64,-0.00,-0.57,0.000,-0.078,0.000,0.015,3.141,-0.000,0.117,0.000,0.281,-0.20,0.00,-0.14
0.516,takeoff,1,326,276,41,43,0.51,0.00,0.00,-0.80,0.00,0.64,-0.00,-0.57,0.000,-0.078,0.000,0.015,3.141,-0.000,0.117,0.000,0.281,-0.20,0.00,-0.14
0.516,takeoff,1,326,276,41,43,0.51,0.00,0.00,-0.80,0.00,0.64,-0.00,-0.57,0.000,-0.078,0.000,0.013,3.141,-0.000,0.114,0.000,0.281,-0.20,0.00,-0.14
0.516,takeoff,1,326,276,41,43,0.51,0.00,0.00,-0.80,0.00,0.64,-0.00,-0.57,0.000,-0.078,0.000,0.013,3.141,-0.000,0.114,0.000,0.281,-0.20,0.00,-0.14
0.516,takeoff,1,326,276,41,43,0.51,0.00,0.00,-0.80,0.00,0.64,-0.00,-0.58,0.000,-0.078,0.000,0.013,3.141,-0.000,0.114,0.000,0.280,-0.21,0.00,-0.15
0.516,takeoff,1,326,276,41,43,0.51,0.00,0.00,-0.80,0.00,0.64,-0.00,-0.58,0.000,-0.078,0.000,0.013,3.141,-0.000,0.114,0.000,0.280,-0.21,0.00,-0.15
0.532,takeoff,1,326,276,41,43,0.51,0.00,0.00,-0.80,0.00,0.65,-0.00,-0.58,0.000,-0.078,0.000,0.011,3.141,-0.000,0.111,0.000,0.280,-0.21,0.00,-0.15
0.532,takeoff,1,326,276,41,43,0.51,0.00,0.00,-0.80,0.00,0.65,-0.00,-0.58,0.000,-0.078,0.000,0.011,3.141,-0.000,0.111,0.000,0.280,-0.21,0.00,-0.15
0.532,takeoff,1,326,276,41,43,0.51,0.00,0.00,-0.80,0.00,0.65,-0.00,-0.58,0.000,-0.078,0.000,0.011,3.141,-0.000,0.111,0.000,0.280,-0.21,0.00,-0.15
0.532,takeoff,1,326,276,41,43,0.51,0.00,0.00,-0.80,0.00,0.65,-0.00,-0.58,0.000,-0.078,0.000,0.006,3.141,-0.000,0.106,0.000,0.280,-0.21,0.00,-0.15
0.532,takeoff,1,326,276,41,43,0.51,0.00,0.00,-0.80,0.00,0.65,-0.00,-0.58,0.000,-0.078,0.000,0.006,3.141,-0.000,0.106,0.000,0.280,-0.21,0.00,-0.15
0.532,takeoff,1,326,276,41,43,0.51,0.00,0.00,-0.80,0.00,0.65,-0.00,-0.58,0.000,-0.078,0.000,0.006,3.141,-0.000,0.106,0.000,0.280,-0.21,0.00,-0.15
0.547,takeoff,1,326,276,41,43,0.51,0.00,0.00,-0.80,0.00,0.65,-0.00,-0.58,0.000,-0.078,0.000,0.006,3.141,-0.000,0.106,0.000,0.280,-0.21,0.00,-0.15
0.547,takeoff,1,326,276,41,43,0.51,0.00,0.00,-0.80,0.00,0.65,-0.00,-0.58,0.000,-0.078,0.000,0.004,3.141,-0.000,0.103,0.000,0.280,-0.21,0.00,-0.15
0.547,takeoff,1,325,280,42,44,0.51,0.00,0.00,-0.80,0.00,0.65,-0.00,-0.59,0.000,-0.079,0.000,0.004,3.141,-0.000,0.104,0.000,0.280,-0.22,0.00,-0.16
0.547,takeoff,1,325,280,42,44,0.51,0.00,0.00,-0.80,0.00,0.65,-0.00,-0.59,0.000,-0.079,0.000,0.004,3.141,-0.000,0.104,0.000,0.280,-0.22,0.00,-0.16
0.547,takeoff,1,325,280,42,44,0.51,0.00,0.00,-0.80,0.00,0.65,-0.00,-0.59,0.000,-0.079,0.000,0.004,3.141,-0.000,0.104,0.000,0.280,-0.22,0.00,-0.16
0.547,takeoff,1,325,280,42,44,0.51,0.00,0.00,-0.80,0.00,0.65,-0.00,-0.59,0.000,-0.079,0.000,0.002,3.141,-0.000,0.101,0.000,0.280,-0.22,0.00,-0.16
0.547,takeoff,1,325,280,42,44,0.51,0.00,0.00,-0.80,0.00,0.65,-0.00,-0.59,0.000,-0.079,0.000,0.002,3.141,-0.000,0.101,0.000,0.280,-0.23,0.00,-0.17
0.563,takeoff,1,325,280,42,44,0.51,0.00,0.00,-0.80,0.00,0.65,-0.00,-0.59,0.000,-0.079,0.000,0.002,3.141,-0.000,0.101,0.000,0.280,-0.23,0.00,-0.17
0.563,takeoff,1,325,280,42,44,0.51,0.00,0.00,-0.80,0.00,0.65,-0.00,-0.59,0.000,-0.079,0.000,0.002,3.141,-0.000,0.101,0.000,0.280,-0.23,0.00,-0.17
0.563,takeoff,1,325,280,42,44,0.51,0.00,0.00,-0.80,0.00,0.65,-0.00,-0.59,0.000,-0.079,0.000,0.000,3.141,-0.000,0.099,0.000,0.280,-0.23,0.00,-0.17
0.563,takeoff,1,325,280,42,44,0.51,0.00,0.00,-0.80,0.00,0.65,-0.00,-0.60,0.000,-0.079,0.000,0.000,3.141,-0.000,0.099,0.000,0.280,-0.24,0.00,-0.17
0.563,takeoff,1,325,280,42,44,0.51,0.00,0.00,-0.80,0.00,0.65,-0.00,-0.60,0.000,-0.079,0.000,0.000,3.141,-0.000,0.099,0.000,0.280,-0.24,0.00,-0.17
0.563,takeoff,1,325,280,42,44,0.51,0.00,0.00,-0.80,0.00,0.66,-0.00,-0.60,0.000,-0.079,0.000,0.000,3.141,-0.000,0.099,0.000,0.280,-0.24,0.00,-0.17
0.563,takeoff,1,325,280,42,44,0.51,0.00,0.00,-0.80,0.00,0.66,-0.00,-0.60,0.000,-0.079,0.000,-0.004,3.141,-0.000,0.094,0.000,0.280,-0.24,0.00,-0.17
0.579,takeoff,1,325,280,42,44,0.51,0.00,0.00,-0.80,0.00,0.66,-0.00,-0.60,0.000,-0.079,0.000,-0.004,3.141,-0.000,0.094,0.000,0.280,-0.24,0.00,-0.17
0.579,takeoff,1,325,280,42,44,0.51,0.00,0.00,-0.80,0.00,0.66,-0.00,-0.60,0.000,-0.078,0.000,-0.004,3.141,0.000,0.094,0.000,0.280,-0.24,0.00,-0.18
0.579,takeoff,1,325,280,42,44,0.51,0.00,0.00,-0.80,0.00,0.66,-0.00,-0.60,0.000,-0.078,0.000,-0.004,3.141,0.000,0.094,0.000,0.280,-0.24,0.00,-0.18
0.579,takeoff,1,325,280,42,44,0.51,0.00,0.00,-0.80,0.00,0.66,-0.00,-0.60,0.000,-0.078,0.000,-0.005,3.141,0.000,0.091,0.000,0.280,-0.24,0.00,-0.18
0.579,takeoff,1,326,284,41,44,0.51,0.00,0.00,-0.80,0.00,0.66,-0.00,-0.60,0.000,-0.078,0.000,-0.005,3.141,0.000,0.091,0.000,0.280,-0.24,0.00,-0.18
0.579,takeoff,1,326,284,41,44,0.51,0.00,0.00,-0.80,0.00,0.66,-0.00,-0.60,0.000,-0.078,0.000,-0.005,3.141,0.000,0.091,0.000,0.280,-0.24,0.00,-0.18
0.579,takeoff,1,326,284,41,44,0.51,0.00,0.00,-0.80,0.00,0.66,-0.00,-0.61,0.000,-0.078,0.000,-0.005,3.141,0.000,0.091,0.000,0.280,-0.25,0.00,-0.19
0.594,takeoff,1,326,284,41,44,0.51,0.00,0.00,-0.80,0.00,0.66,-0.00,-0.61,0.000,-0.078,0.000,-0.007,3.141,0.000,0.089,0.000,0.280,-0.25,0.00,-0.19
0.594,takeoff,1,326,284,41,44,0.51,0.00,0.00,-0.80,0.00,0.66,-0.00,-0.61,0.000,-0.078,0.000,-0.007,3.141,0.000,0.089,0.000,0.280,-0.25,0.00,-0.19
0.594,takeoff,1,326,284,41,44,0.51,0.00,0.00,-0.80,0.00,0.66,-0.00,-0.61,0.000,-0.078,0.000,-0.007,3.141,0.000,0.089,0.000,0.280,-0.25,0.00,-0.19
0.594,takeoff,1,326,284,41,44,0.51,0.00,0.00,-0.80,0.00,0.66,-0.00,-0.62,0.000,-0.078,0.000,-0.009,3.141,0.000,0.087,0.000,0.280,-0.26,0.00,-0.20
0.594,takeoff,1,326,284,41,44,0.51,0.00,0.00,-0.80,0.00,0.66,-0.00,-0.62,0.000,-0.078,0.000,-0.009,3.141,0.000,0.087,0.000,0.280,-0.26,0.00,-0.20
0.594,takeoff,1,326,284,41,44,0.51,0.00,0.00,-0.80,0.00,0.66,-0.00,-0.62,0.000,-0.078,0.000,-0.009,3.141,0.000,0.087,0.000,0.280,-0.26,0.00,-0.20
0.594,takeoff,1,326,284,41,44,0.51,0.00,0.00,-0.80,0.00,0.66,-0.00,-0.62,0.000,-0.078,0.000,-0.009,3.141,0.000,0.087,0.000,0.280,-0.26,0.00,-0.20
0.610,takeoff,1,326,284,41,44,0.51,0.00,0.00,-0.80,0.00,0.66,-0.00,-0.62,0.000,-0.078,0.000,-0.012,3.141,0.000,0.082,0.000,0.280,-0.26,0.00,-0.20
0.610,takeoff,1,326,284,41,44,0.51,0.00,0.00,-0.80,0.00,0.66,-0.00,-0.62,0.000,-0.078,0.000,-0.012,3.141,0.000,0.082,0.000,0.280,-0.26,0.00,-0.20
0.610,takeoff,1,326,284,41,44,0.51,0.00,0.00,-0.80,0.00,0.66,-0.00,-0.62,0.000,-0.078,0.000,-0.012,3.141,0.000,0.082,0.000,0.280,-0.26,0.00,-0.20
0.610,takeoff,1,326,284,41,44,0.51,0.00,0.00,-0.80,0.00,0.66,-0.00,-0.62,0.000,-0.078,0.000,-0.012,3.141,0.000,0.082,0.000,0.280,-0.26,0.00,-0.20
0.610,takeoff,1,326,286,41,45,0.50,0.00,0.00,-0.80,0.00,0.66,-0.00,-0.62,0.000,-0.078,0.000,-0.012,3.141,0.000,0.082,0.000,0.280,-0.26,0.00,-0.20
0.625,takeoff,1,326,286,41,45,0.50,0.00,0.00,-0.80,0.00,0.66,-0.00,-0.63,0.000,-0.078,0.000,-0.012,3.141,0.000,0.082,0.000,0.280,-0.27,0.00,-0.20
0.625,takeoff,1,326,286,41,45,0.50,0.00,0.00,-0.80,0.00,0.66,-0.00,-0.63,0.000,-0.078,0.000,-0.012,3.141,0.000,0.082,0.000,0.280,-0.27,0.00,-0.20
0.625,takeoff,1,326,286,41,45,0.50,0.00,0.00,-0.80,0.00,0.66,-0.00,-0.63,0.000,-0.078,0.000,-0.016,3.141,0.000,0.077,0.000,0.280,-0.27,0.00,-0.20
0.625,takeoff,1,326,286,41,45,0.50,0.00,0.00,-0.80,0.00,0.66,-0.00,-0.63,0.000,-0.078,0.000,-0.016,3.141,0.000,0.077,0.000,0.280,-0.27,0.00,-0.20
0.625,takeoff,1,326,286,41,45,0.50,0.00,0.00,-0.80,0.00,0.66,-0.00,-0.63,0.000,-0.078,0.000,-0.016,3.141,0.000,0.077,0.000,0.280,-0.27,0.00,-0.20
0.625,takeoff,1,326,286,41,45,0.50,0.00,0.00,-0.80,0.00,0.66,-0.00,-0.64,0.000,-0.078,0.000,-0.016,3.141,0.000,0.077,0.000,0.280,-0.28,0.00,-0.21
0.625,takeoff,1,326,286,41,45,0.50,0.00,0.00,-0.80,0.00,0.66,-0.00,-0.64,0.000,-0.078,0.000,-0.018,3.141,0.000,0.075,0.000,0.280,-0.28,0.00,-0.21
0.625,takeoff,1,326,286,41,45,0.50,0.00,0.00,-0.80,0.00,0.66,-0.00,-0.64,0.000,-0.078,0.000,-0.018,3.141,0.000,0.075,0.000,0.280,-0.28,0.00,-0.21
0.641,takeoff,1,326,286,41,45,0.50,0.00,0.00,-0.80,0.00,0.66,-0.00,-0.64,0.000,-0.078,0.000,-0.018,3.141,0.000,0.075,0.000,0.280,-0.28,0.00,-0.21
0.641,takeoff,1,326,286,41,45,0.50,0.00,0.00,-0.80,0.00,0.66,-0.00,-0.64,0.000,-0.078,0.000,-0.018,3.141,0.000,0.075,0.000,0.280,-0.28,0.00,-0.21
0.641,takeoff,1,326,286,41,45,0.50,0.00,0.00,-0.80,0.00,0.66,-0.00,-0.64,0.000,-0.077,0.000,-0.018,3.141,0.000,0.075,0.000,0.280,-0.28,0.00,-0.22
0.641,takeoff,1,326,286,41,45,0.50,0.00,0.00,-0.80,0.00,0.66,-0.00,-0.64,0.000,-0.077,0.000,-0.019,3.141,0.000,0.073,0.000,0.280,-0.28,0.00,-0.22
0.641,takeoff,1,326,286,41,45,0.50,0.00,0.00,-0.80,0.00,0.66,-0.00,-0.64,0.000,-0.077,0.000,-0.019,3.141,0.000,0.073,0.000,0.280,-0.28,0.00,-0.22
0.641,takeoff,1,326,290,41,47,0.49,0.00,0.00,-0.80,0.00,0.66,-0.00,-0.64,0.000,-0.077,0.000,-0.019,3.141,0.000,0.073,0.000,0.280,-0.28,0.00,-0.22
0.641,takeoff,1,326,290,41,47,0.49,0.00,0.00,-0.80,0.00,0.66,-0.00,-0.65,0.000,-0.077,0.000,-0.022,3.141,0.000,0.069,0.000,0.280,-0.29,0.00,-0.23
0.657,takeoff,1,326,290,41,47,0.49,0.00,0.00,-0.80,0.00,0.66,-0.00,-0.65,0.000,-0.077,0.000,-0.022,3.141,0.000,0.069,0.000,0.280,-0.29,0.00,-0.23
0.657,takeoff,1,326,290,41,47,0.49,0.00,0.00,-0.80,0.00,0.66,-0.00,-0.65,0.000,-0.077,0.000,-0.022,3.141,0.000,0.069,0.000,0.280,-0.29,0.00,-0.23
0.657,takeoff,1,326,290,41,47,0.49,0.00,0.00,-0.80,0.00,0.66,-0.00,-0.65,0.000,-0.077,0.000,-0.024,3.141,0.000,0.067,0.000,0.280,-0.29,0.00,-0.23
0.657,takeoff,1,326,290,41,47,0.49,0.00,0.00,-0.80,0.00,0.66,-0.00,-0.65,0.000,-0.077,0.000,-0.024,3.141,0.000,0.067,0.000,0.280,-0.30,0.00,-0.23
0.657,takeoff,1,326,290,41,47,0.49,0.00,0.00,-0.80,0.00,0.65,-0.00,-0.65,0.000,-0.077,0.000,-0.024,3.141,0.000,0.067,0.000,0.280,-0.30,0.00,-0.23
0.657,takeoff,1,326,290,41,47,0.49,0.00,0.00,-0.80,0.00,0.65,-0.00,-0.65,0.000,-0.077,0.000,-0.024,3.141,0.000,0.067,0.000,0.280,-0.30,0.00,-0.23
0.672,takeoff,1,326,290,41,47,0.49,0.00,0.00,-0.80,0.00,0.65,-0.00,-0.65,0.000,-0.077,0.000,-0.025,3.141,0.000,0.065,0.000,0.280,-0.30,0.00,-0.23
0.672,takeoff,1,326,290,41,47,0.49,0.00,0.00,-0.80,0.00,0.65,-0.00,-0.65,0.000,-0.077,0.000,-0.025,3.141,0.000,0.065,0.000,0.280,-0.30,0.00,-0.23
0.672,takeoff,1,326,290,41,47,0.49,0.00,0.00,-0.80,0.00,0.65,-0.00,-0.66,0.000,-0.076,0.000,-0.025,3.141,0.000,0.064,0.000,0.280,-0.31,0.00,-0.24
0.672,takeoff,1,326,293,41,44,0.51,0.00,0.00,-0.80,0.00,0.65,-0.00,-0.66,0.000,-0.076,0.000,-0.025,3.141,0.000,0.064,0.000,0.280,-0.31,0.00,-0.24
0.672,takeoff,1,326,293,41,44,0.51,0.00,0.00,-0.80,0.00,0.65,-0.00,-0.66,0.000,-0.076,0.000,-0.027,3.141,0.000,0.061,0.000,0.280,-0.31,0.00,-0.24
0.672,takeoff,1,326,293,41,44,0.51,0.00,0.00,-0.80,0.00,0.65,-0.00,-0.66,0.000,-0.076,0.000,-0.027,3.141,0.000,0.061,0.000,0.280,-0.31,0.00,-0.24
0.672,takeoff,1,326,293,41,44,0.51,0.00,0.00,-0.80,0.00,0.65,-0.00,-0.66,0.000,-0.076,0.000,-0.027,3.141,0.000,0.061,0.000,0.280,-0.31,0.00,-0.24
0.688,takeoff,1,326,293,41,44,0.51,0.00,0.00,-0.80,0.00,0.65,-0.00,-0.67,0.000,-0.076,0.000,-0.027,3.141,0.000,0.061,0.000,0.280,-0.31,0.00,-0.25
0.688,takeoff,1,326,293,41,44,0.51,0.00,0.00,-0.80,0.00,0.65,-0.00,-0.67,0.000,-0.076,0.000,-0.029,3.141,0.000,0.059,0.000,0.280,-0.31,0.00,-0.25
0.688,takeoff,1,326,293,41,44,0.51,0.00,0.00,-0.80,0.00,0.65,-0.00,-0.67,0.000,-0.076,0.000,-0.029,3.141,0.000,0.059,0.000,0.280,-0.31,0.00,-0.25
0.688,takeoff,1,326,293,41,44,0.51,0.00,0.00,-0.80,0.00,0.65,-0.00,-0.67,0.000,-0.076,0.000,-0.030,3.141,0.000,0.057,0.000,0.280,-0.32,0.00,-0.26
0.688,takeoff,1,326,293,41,44,0.51,0.00,0.00,-0.80,0.00,0.65,-0.00,-0.67,0.000,-0.076,0.000,-0.030,3.141,0.000,0.057,0.000,0.280,-0.32,0.00,-0.26
0.704,takeoff,1,326,293,41,44,0.51,0.00,0.00,-0.80,0.00,0.65,-0.00,-0.67,0.000,-0.076,0.000,-0.030,3.141,0.000,0.057,0.000,0.280,-0.32,0.00,-0.26
0.704,takeoff,1,326,293,41,44,0.51,0.00,0.00,-0.80,0.00,0.65,-0.00,-0.68,0.000,-0.075,0.000,-0.031,3.141,0.000,0.055,0.000,0.280,-0.32,0.00,-0.26
0.704,takeoff,1,326,293,41,44,0.51,0.00,0.00,-0.80,0.00,0.65,-0.00,-0.68,0.000,-0.075,0.000,-0.031,3.141,0.000,0.055,0.000,0.280,-0.32,0.00,-0.26
0.704,takeoff,1,326,293,41,44,0.51,0.00,0.00,-0.80,0.00,0.65,-0.00,-0.68,0.000,-0.075,0.000,-0.031,3.141,0.000,0.055,0.000,0.280,-0.32,0.00,-0.26
0.704,takeoff,1,326,296,42,48,0.48,0.00,0.00,-0.80,0.00,0.65,-0.00,-0.68,0.000,-0.075,0.000,-0.033,3.141,0.000,0.053,0.000,0.280,-0.32,0.00,-0.26
0.719,takeoff,1,326,296,42,48,0.48,0.00,0.00,-0.80,0.00,0.65,-0.00,-0.69,0.000,-0.075,0.000,-0.033,3.141,0.000,0.052,0.000,0.280,-0.33,0.00,-0.27
0.719,takeoff,1,326,296,42,48,0.48,0.00,0.00,-0.80,0.00,0.65,-0.00,-0.69,0.000,-0.075,0.000,-0.033,3.141,0.000,0.052,0.000,0.280,-0.33,0.00,-0.27
0.719,takeoff,1,326,296,42,48,0.48,0.00,0.00,-0.80,0.00,0.65,-0.00,-0.69,0.000,-0.075,0.000,-0.033,3.141,0.000,0.052,0.000,0.280,-0.33,0.00,-0.27
0.719,takeoff,1,326,296,42,48,0.48,0.00,0.00,-0.80,0.00,0.64,-0.00,-0.69,0.000,-0.075,0.000,-0.034,3.141,0.000,0.050,0.000,0.280,-0.33,0.00,-0.27
0.719,takeoff,1,326,296,42,48,0.48,0.00,0.00,-0.80,0.00,0.64,-0.00,-0.69,0.000,-0.075,0.000,-0.034,3.141,0.000,0.050,0.000,0.280,-0.33,0.00,-0.27
0.719,takeoff,1,326,296,42,48,0.48,0.00,0.00,-0.80,0.00,0.64,-0.00,-0.69,0.000,-0.074,0.000,-0.034,3.141,0.000,0.050,0.000,0.280,-0.34,0.00,-0.27
0.719,takeoff,1,326,296,42,48,0.48,0.00,0.00,-0.80,0.00,0.64,-0.00,-0.69,0.000,-0.074,0.000,-0.034,3.141,0.000,0.050,0.000,0.280,-0.34,0.00,-0.27
0.719,takeoff,1,326,296,42,48,0.48,0.00,0.00,-0.80,0.00,0.64,-0.00,-0.69,0.000,-0.074,0.000,-0.035,3.141,0.000,0.049,0.000,0.280,-0.34,0.00,-0.27
0.735,takeoff,1,326,296,42,48,0.48,0.00,0.00,-0.80,0.00,0.64,-0.00,-0.69,0.000,-0.074,0.000,-0.035,3.141,0.000,0.049,0.000,0.280,-0.34,0.00,-0.27
0.735,takeoff,1,326,296,42,48,0.48,0.00,0.00,-0.80,0.00,0.64,-0.00,-0.70,0.000,-0.074,0.000,-0.035,3.141,0.000,0.048,0.000,0.280,-0.34,0.00,-0.28
0.735,takeoff,1,326,296,42,48,0.48,0.00,0.00,-0.80,0.00,0.64,-0.00,-0.70,0.000,-0.074,0.000,-0.035,3.141,0.000,0.048,0.000,0.280,-0.34,0.00,-0.28
0.735,takeoff,1,326,296,42,48,0.48,0.00,0.00,-0.80,0.00,0.64,-0.00,-0.70,0.000,-0.074,0.000,-0.036,3.141,0.000,0.047,0.000,0.280,-0.34,0.00,-0.28
0.735,takeoff,1,326,296,42,48,0.48,0.00,0.00,-0.80,0.00,0.64,-0.00,-0.70,0.000,-0.074,0.000,-0.036,3.141,0.000,0.047,0.000,0.280,-0.34,0.00,-0.28
0.735,takeoff,1,326,296,42,48,0.48,0.00,0.00,-0.80,0.00,0.64,-0.00,-0.70,0.000,-0.074,0.000,-0.036,3.141,0.000,0.047,0.000,0.280,-0.34,0.00,-0.28
0.735,takeoff,1,326,296,42,48,0.48,0.00,0.00,-0.80,0.00,0.64,-0.00,-0.71,0.000,-0.073,0.000,-0.036,3.141,0.000,0.046,0.000,0.280,-0.35,0.00,-0.29
0.750,takeoff,1,326,298,42,46,0.51,0.00,0.00,-0.80,0.00,0.64,-0.00,-0.71,0.000,-0.073,0.000,-0.038,3.141,0.000,0.044,0.000,0.280,-0.35,0.00,-0.29
0.750,takeoff,1,326,298,42,46,0.51,0.00,0.00,-0.80,0.00,0.64,-0.00,-0.71,0.000,-0.073,0.000,-0.038,3.141,0.000,0.044,0.000,0.280,-0.35,0.00,-0.29
0.750,takeoff,1,326,298,42,46,0.51,0.00,0.00,-0.80,0.00,0.64,-0.00,-0.71,0.000,-0.073,0.000,-0.038,3.141,0.000,0.044,0.000,0.280,-0.35,0.00,-0.29
0.750,takeoff,1,326,298,42,46,0.51,0.00,0.00,-0.80,0.00,0.64,-0.00,-0.71,0.000,-0.073,0.000,-0.038,3.141,0.000,0.044,0.000,0.280,-0.35,0.00,-0.29
0.750,takeoff,1,326,298,42,46,0.51,0.00,0.00,-0.80,0.00,0.64,-0.00,-0.72,0.000,-0.073,0.000,-0.039,3.141,0.000,0.042,0.000,0.280,-0.36,0.00,-0.30
0.750,takeoff,1,326,298,42,46,0.51,0.00,0.00,-0.80,0.00,0.64,-0.00,-0.72,0.000,-0.073,0.000,-0.039,3.141,0.000,0.042,0.000,0.280,-0.36,0.00,-0.30
0.750,takeoff,1,326,298,42,46,0.51,0.00,0.00,-0.80,0.00,0.63,-0.00,-0.72,0.000,-0.073,0.000,-0.039,3.141,0.000,0.042,0.000,0.280,-0.36,0.00,-0.30
0.766,takeoff,1,326,298,42,46,0.51,0.00,0.00,-0.80,0.00,0.63,-0.00,-0.72,0.000,-0.073,0.000,-0.039,3.141,0.000,0.042,0.000,0.280,-0.36,0.00,-0.30
0.766,takeoff,1,326,298,42,46,0.51,0.00,0.00,-0.80,0.00,0.63,-0.00,-0.72,0.000,-0.073,0.000,-0.039,3.141,0.000,0.042,0.000,0.280,-0.36,0.00,-0.30
0.766,takeoff,1,326,298,42,46,0.51,0.00,0.00,-0.80,0.00,0.63,-0.00,-0.72,0.000,-0.072,0.000,-0.040,3.141,0.000,0.040,0.000,0.280,-0.36,0.00,-0.30
0.766,takeoff,1,326,298,42,46,0.51,0.00,0.00,-0.80,0.00,0.63,-0.00,-0.72,0.000,-0.072,0.000,-0.040,3.141,0.000,0.040,0.000,0.280,-0.36,0.00,-0.30
0.766,takeoff,1,326,298,42,46,0.51,0.00,0.00,-0.80,0.00,0.63,-0.00,-0.72,0.000,-0.072,0.000,-0.040,3.141,0.000,0.040,0.000,0.280,-0.36,0.00,-0.30
0.766,takeoff,1,326,298,42,46,0.51,0.00,0.00,-0.80,0.00,0.63,-0.00,-0.72,0.000,-0.072,0.000,-0.040,3.141,0.000,0.040,0.000,0.280,-0.36,0.00,-0.30
0.766,takeoff,1,326,298,42,46,0.51,0.00,0.00,-0.80,0.00,0.63,-0.00,-0.72,0.000,-0.072,0.000,-0.041,3.141,0.000,0.039,0.000,0.280,-0.36,0.00,-0.30
0.782,takeoff,1,326,298,42,46,0.51,0.00,0.00,-0.80,0.00,0.63,-0.00,-0.72,0.000,-0.072,0.000,-0.041,3.141,0.000,0.039,0.000,0.280,-0.37,0.00,-0.31
0.782,takeoff,1,326,298,42,46,0.51,0.00,0.00,-0.80,0.00,0.63,-0.00,-0.72,0.000,-0.072,0.000,-0.041,3.141,0.000,0.039,0.000,0.280,-0.37,0.00,-0.31
0.782,takeoff,1,326,298,42,46,0.51,0.00,0.00,-0.80,0.00,0.63,-0.00,-0.72,0.000,-0.072,0.000,-0.041,3.141,0.000,0.039,0.000,0.280,-0.37,0.00,-0.31
0.782,takeoff,1,326,300,43,47,0.50,0.00,0.00,-0.80,0.00,0.63,-0.00,-0.72,0.000,-0.072,0.000,-0.042,3.141,0.000,0.038,0.000,0.280,-0.37,0.00,-0.31
0.782,takeoff,1,326,300,43,47,0.50,0.00,0.00,-0.80,0.00,0.62,-0.00,-0.74,0.000,-0.071,0.000,-0.042,3.141,0.000,0.037,0.000,0.280,-0.38,0.00,-0.32
0.782,takeoff,1,326,300,43,47,0.50,0.00,0.00,-0.80,0.00,0.62,-0.00,-0.74,0.000,-0.071,0.000,-0.042,3.141,0.000,0.037,0.000,0.280,-0.38,0.00,-0.32
0.782,takeoff,1,326,300,43,47,0.50,0.00,0.00,-0.80,0.00,0.62,-0.00,-0.74,0.000,-0.071,0.000,-0.042,3.141,0.000,0.037,0.000,0.280,-0.38,0.00,-0.32
0.797,takeoff,1,326,300,43,47,0.50,0.00,0.00,-0.80,0.00,0.62,-0.00,-0.74,0.000,-0.071,0.000,-0.044,3.141,0.000,0.034,0.000,0.280,-0.38,0.00,-0.32
0.797,takeoff,1,326,300,43,47,0.50,0.00,0.00,-0.80,0.00,0.62,-0.00,-0.74,0.000,-0.071,0.000,-0.044,3.141,0.000,0.034,0.000,0.280,-0.38,0.00,-0.32
0.797,takeoff,1,326,300,43,47,0.50,0.00,0.00,-0.80,0.00,0.62,-0.00,-0.74,0.000,-0.071,0.000,-0.044,3.141,0.000,0.034,0.000,0.280,-0.38,0.00,-0.33
0.797,takeoff,1,326,300,43,47,0.50,0.00,0.00,-0.80,0.00,0.62,-0.00,-0.74,0.000,-0.071,0.000,-0.044,3.141,0.000,0.034,0.000,0.280,-0.38,0.00,-0.33
0.797,takeoff,1,326,300,43,47,0.50,0.00,0.00,-0.80,0.00,0.62,-0.00,-0.74,0.000,-0.071,0.000,-0.044,3.141,0.000,0.033,0.000,0.280,-0.38,0.00,-0.33
0.797,takeoff,1,326,300,43,47,0.50,0.00,0.00,-0.80,0.00,0.62,-0.00,-0.74,0.000,-0.071,0.000,-0.044,3.141,0.000,0.033,0.000,0.280,-0.38,0.00,-0.33
0.797,takeoff,1,326,300,43,47,0.50,0.00,0.00,-0.80,0.00,0.62,-0.00,-0.74,0.000,-0.071,0.000,-0.044,3.141,0.000,0.033,0.000,0.280,-0.38,0.00,-0.33
0.797,takeoff,1,326,300,43,47,0.50,0.00,0.00,-0.80,0.00,0.62,-0.00,-0.75,0.000,-0.070,0.000,-0.044,3.141,0.000,0.032,0.000,0.280,-0.39,0.00,-0.34
0.813,takeoff,1,326,300,43,47,0.50,0.00,0.00,-0.80,0.00,0.62,-0.00,-0.75,0.000,-0.070,0.000,-0.045,3.141,0.000,0.031,0.000,0.280,-0.39,0.00,-0.34
0.813,takeoff,1,325,302,44,49,0.49,0.00,0.00,-0.80,0.00,0.62,-0.00,-0.75,0.000,-0.070,0.000,-0.045,3.141,0.000,0.031,0.000,0.280,-0.39,0.00,-0.34
0.813,takeoff,1,325,302,44,49,0.49,0.00,0.00,-0.80,0.00,0.61,-0.00,-0.75,0.000,-0.070,0.000,-0.045,3.141,0.000,0.031,0.000,0.280,-0.39,0.00,-0.34
0.813,takeoff,1,325,302,44,49,0.49,0.00,0.00,-0.80,0.00,0.61,-0.00,-0.75,0.000,-0.070,0.000,-0.045,3.141,0.000,0.031,0.000,0.280,-0.39,0.00,-0.34
0.813,takeoff,1,325,302,44,49,0.49,0.00,0.00,-0.80,0.00,0.61,-0.00,-0.75,0.000,-0.070,0.000,-0.045,3.141,0.000,0.031,0.000,0.280,-0.39,0.00,-0.34
0.813,takeoff,1,325,302,44,49,0.49,0.00,0.00,-0.80,0.00,0.61,-0.00,-0.75,0.000,-0.070,0.000,-0.046,3.141,0.000,0.029,0.000,0.280,-0.39,0.00,-0.34
0.813,takeoff,1,325,302,44,49,0.49,0.00,0.00,-0.80,0.00,0.61,-0.00,-0.75,0.000,-0.070,0.000,-0.046,3.141,0.000,0.029,0.000,0.280,-0.39,0.00,-0.34
0.829,takeoff,1,325,302,44,49,0.49,0.00,0.00,-0.80,0.00,0.61,-0.00,-0.75,0.000,-0.070,0.000,-0.046,3.141,0.000,0.029,0.000,0.280,-0.39,0.00,-0.34
0.829,takeoff,1,325,302,44,49,0.49,0.00,0.00,-0.80,0.00,0.61,-0.00,-0.75,0.000,-0.070,0.000,-0.046,3.141,0.000,0.029,0.000,0.280,-0.39,0.00,-0.34
0.829,takeoff,1,325,302,44,49,0.49,0.00,0.00,-0.80,0.00,0.61,-0.00,-0.76,0.000,-0.069,0.000,-0.047,3.141,0.000,0.027,0.000,0.280,-0.40,0.00,-0.35
0.829,takeoff,1,325,302,44,49,0.49,0.00,0.00,-0.80,0.00,0.61,-0.00,-0.76,0.000,-0.069,0.000,-0.047,3.141,0.000,0.027,0.000,0.280,-0.40,0.00,-0.35
0.829,takeoff,1,325,302,44,49,0.49,0.00,0.00,-0.80,0.00,0.61,-0.00,-0.76,0.000,-0.069,0.000,-0.047,3.141,0.000,0.027,0.000,0.280,-0.40,0.00,-0.35
0.829,takeoff,1,325,302,44,49,0.49,0.00,0.00,-0.80,0.00,0.61,-0.00,-0.76,0.000,-0.069,0.000,-0.048,3.141,0.000,0.026,0.000,0.280,-0.40,0.00,-0.35
0.829,takeoff,1,325,302,44,49,0.49,0.00,0.00,-0.80,0.00,0.61,-0.00,-0.77,0.000,-0.068,0.000,-0.048,3.141,0.000,0.026,0.000,0.280,-0.40,0.00,-0.36
0.844,takeoff,1,325,302,44,49,0.49,0.00,0.00,-0.80,0.00,0.60,-0.00,-0.77,0.000,-0.068,0.000,-0.048,3.141,0.000,0.026,0.000,0.280,-0.40,0.00,-0.36
0.844,takeoff,1,325,302,44,49,0.49,0.00,0.00,-0.80,0.00,0.60,-0.00,-0.77,0.000,-0.068,0.000,-0.048,3.141,0.000,0.026,0.000,0.280,-0.40,0.00,-0.36
0.844,takeoff,1,325,302,44,49,0.49,0.00,0.00,-0.80,0.00,0.60,-0.00,-0.77,0.000,-0.068,0.000,-0.048,3.141,0.000,0.025,0.000,0.280,-0.40,0.00,-0.36
0.844,takeoff,1,325,302,44,49,0.49,0.00,0.00,-0.80,0.00,0.60,-0.00,-0.77,0.000,-0.068,0.000,-0.048,3.141,0.000,0.025,0.000,0.280,-0.40,0.00,-0.36
0.844,takeoff,1,326,303,45,48,0.50,0.00,0.00,-0.80,0.00,0.60,-0.00,-0.77,0.000,-0.068,0.000,-0.048,3.141,0.000,0.025,0.000,0.280,-0.40,0.00,-0.36
0.844,takeoff,1,326,303,45,48,0.50,0.00,0.00,-0.80,0.00,0.60,-0.00,-0.78,0.000,-0.067,0.000,-0.048,3.141,0.000,0.024,0.000,0.280,-0.41,0.00,-0.37
0.844,takeoff,1,326,303,45,48,0.50,0.00,0.00,-0.80,0.00,0.60,-0.00,-0.78,0.000,-0.067,0.000,-0.048,3.141,0.000,0.024,0.000,0.280,-0.41,0.00,-0.37
0.844,takeoff,1,326,303,45,48,0.50,0.00,0.00,-0.80,0.00,0.60,-0.00,-0.78,0.000,-0.067,0.000,-0.049,3.141,0.000,0.023,0.000,0.280,-0.41,0.00,-0.37
0.860,takeoff,1,326,303,45,48,0.50,0.00,0.00,-0.80,0.00,0.60,-0.00,-0.78,0.000,-0.067,0.000,-0.049,3.141,0.000,0.023,0.000,0.280,-0.41,0.00,-0.37
0.860,takeoff,1,326,303,45,48,0.50,0.00,0.00,-0.80,0.00,0.60,-0.00,-0.78,0.000,-0.067,0.000,-0.049,3.141,0.000,0.023,0.000,0.280,-0.41,0.00,-0.37
0.860,takeoff,1,326,303,45,48,0.50,0.00,0.00,-0.80,0.00,0.60,-0.00,-0.78,0.000,-0.067,0.000,-0.049,3.141,0.000,0.023,0.000,0.280,-0.42,0.00,-0.37
0.860,takeoff,1,326,303,45,48,0.50,0.00,0.00,-0.80,0.00,0.60,-0.00,-0.78,0.000,-0.067,0.000,-0.049,3.141,0.000,0.023,0.000,0.280,-0.42,0.00,-0.37
0.860,takeoff,1,326,303,45,48,0.50,0.00,0.00,-0.80,0.00,0.60,-0.00,-0.78,0.000,-0.067,0.000,-0.050,3.141,0.000,0.021,0.000,0.280,-0.42,0.00,-0.37
0.860,takeoff,1,326,303,45,48,0.50,0.00,0.00,-0.80,0.00,0.59,-0.00,-0.78,0.000,-0.067,0.000,-0.050,3.141,0.000,0.021,0.000,0.280,-0.42,0.00,-0.37
0.860,takeoff,1,326,303,45,48,0.50,0.00,0.00,-0.80,0.00,0.59,-0.00,-0.78,0.000,-0.067,0.000,-0.050,3.141,0.000,0.021,0.000,0.280,-0.42,0.00,-0.37
0.860,takeoff,1,326,303,45,48,0.50,0.00,0.00,-0.80,0.00,0.59,-0.00,-0.79,0.000,-0.066,0.000,-0.050,3.141,0.000,0.020,0.000,0.280,-0.42,0.00,-0.38
0.875,takeoff,1,326,303,45,48,0.50,0.00,0.00,-0.80,0.00,0.59,-0.00,-0.79,0.000,-0.066,0.000,-0.050,3.141,0.000,0.020,0.000,0.280,-0.42,0.00,-0.38
0.875,takeoff,1,326,303,45,48,0.50,0.00,0.00,-0.80,0.00,0.59,-0.00,-0.79,0.000,-0.066,0.000,-0.050,3.141,0.000,0.020,0.000,0.280,-0.42,0.00,-0.38
0.875,takeoff,1,326,303,45,48,0.50,0.00,0.00,-0.80,0.00,0.59,-0.00,-0.79,0.000,-0.066,0.000,-0.050,3.141,0.000,0.020,0.000,0.280,-0.42,0.00,-0.38
0.875,takeoff,1,326,303,45,48,0.50,0.00,0.00,-0.80,0.00,0.59,-0.00,-0.79,0.000,-0.066,0.000,-0.050,3.141,0.000,0.020,0.000,0.280,-0.42,0.00,-0.38
0.875,takeoff,1,326,304,44,48,0.49,0.00,0.00,-0.80,0.00,0.59,-0.00,-0.79,0.000,-0.066,0.000,-0.051,3.141,0.000,0.019,0.000,0.280,-0.43,0.00,-0.39
0.875,takeoff,1,326,304,44,48,0.49,0.00,0.00,-0.80,0.00,0.59,-0.00,-0.79,0.000,-0.066,0.000,-0.051,3.141,0.000,0.019,0.000,0.280,-0.43,0.00,-0.39
0.875,takeoff,1,326,304,44,48,0.49,0.00,0.00,-0.80,0.00,0.59,-0.00,-0.79,0.000,-0.066,0.000,-0.051,3.141,0.000,0.019,0.000,0.280,-0.43,0.00,-0.39
0.875,takeoff,1,326,304,44,48,0.49,0.00,0.00,-0.80,0.00,0.59,-0.00,-0.79,0.000,-0.066,0.000,-0.051,3.141,0.000,0.019,0.000,0.280,-0.43,0.00,-0.39
0.891,takeoff,1,326,304,44,48,0.49,0.00,0.00,-0.80,0.00,0.59,-0.00,-0.79,0.000,-0.066,0.000,-0.051,3.141,0.000,0.019,0.000,0.280,-0.43,0.00,-0.39
0.891,takeoff,1,326,304,44,48,0.49,0.00,0.00,-0.80,0.00,0.59,-0.00,-0.80,0.000,-0.065,0.000,-0.052,3.141,0.000,0.016,0.000,0.280,-0.43,0.00,-0.40
0.891,takeoff,1,326,304,44,48,0.49,0.00,0.00,-0.80,0.00,0.59,-0.00,-0.80,0.000,-0.065,0.000,-0.052,3.141,0.000,0.016,0.000,0.280,-0.43,0.00,-0.40
0.891,takeoff,1,326,304,44,48,0.49,0.00,0.00,-0.80,0.00,0.58,-0.00,-0.80,0.000,-0.065,0.000,-0.052,3.141,0.000,0.016,0.000,0.280,-0.43,0.00,-0.40
0.891,takeoff,1,326,304,44,48,0.49,0.00,0.00,-0.80,0.00,0.58,-0.00,-0.80,0.000,-0.065,0.000,-0.052,3.141,0.000,0.016,0.000,0.280,-0.43,0.00,-0.40
0.891,takeoff,1,326,304,44,48,0.49,0.00,0.00,-0.80,0.00,0.58,-0.00,-0.80,0.000,-0.065,0.000,-0.052,3.141,0.000,0.016,0.000,0.280,-0.43,0.00,-0.40
0.891,takeoff,1,326,304,44,48,0.49,0.00,0.00,-0.80,0.00,0.58,-0.00,-0.80,0.000,-0.065,0.000,-0.052,3.141,0.000,0.016,0.000,0.280,-0.43,0.00,-0.40
0.891,takeoff,1,326,304,44,48,0.49,0.00,0.00,-0.80,0.00,0.58,-0.00,-0.81,0.000,-0.064,0.000,-0.052,3.141,0.000,0.015,0.000,0.280,-0.44,0.00,-0.41
0.907,takeoff,1,326,304,44,48,0.49,0.00,0.00,-0.80,0.00,0.58,-0.00,-0.81,0.000,-0.064,0.000,-0.052,3.141,0.000,0.015,0.000,0.280,-0.44,0.00,-0.41
0.907,takeoff,1,326,304,44,48,0.49,0.00,0.00,-0.80,0.00,0.58,-0.00,-0.81,0.000,-0.064,0.000,-0.052,3.141,0.000,0.015,0.000,0.280,-0.44,0.00,-0.41
0.907,takeoff,1,326,304,44,48,0.49,0.00,0.00,-0.80,0.00,0.57,-0.00,-0.81,0.000,-0.064,0.000,-0.052,3.141,0.000,0.015,0.000,0.280,-0.44,0.00,-0.41
0.907,takeoff,1,326,304,44,48,0.49,0.00,0.00,-0.80,0.00,0.57,-0.00,-0.81,0.000,-0.064,0.000,-0.052,3.141,0.000,0.015,0.000,0.280,-0.44,0.00,-0.41
0.907,takeoff,1,326,304,44,48,0.49,0.00,0.00,-0.80,0.00,0.57,-0.00,-0.82,0.000,-0.063,0.000,-0.052,3.141,0.000,0.014,0.000,0.280,-0.45,0.00,-0.42
0.907,takeoff,1,326,304,44,48,0.49,0.00,0.00,-0.80,0.00,0.57,-0.00,-0.82,0.000,-0.063,0.000,-0.053,3.141,0.000,0.013,0.000,0.280,-0.45,0.00,-0.42
0.922,takeoff,1,326,304,45,49,0.49,0.00,0.00,-0.80,0.00,0.57,-0.00,-0.82,0.000,-0.063,0.000,-0.053,3.141,0.000,0.013,0.000,0.280,-0.45,0.00,-0.42
0.922,takeoff,1,326,304,45,49,0.49,0.00,0.00,-0.80,0.00,0.57,-0.00,-0.82,0.000,-0.063,0.000,-0.053,3.141,0.000,0.013,0.000,0.280,-0.45,0.00,-0.42
0.922,takeoff,1,326,304,45,49,0.49,0.00,0.00,-0.80,0.00,0.57,-0.00,-0.82,0.000,-0.063,0.000,-0.053,3.141,0.000,0.013,0.000,0.280,-0.45,0.00,-0.42
0.922,takeoff,1,326,304,45,49,0.49,0.00,0.00,-0.80,0.00,0.57,-0.00,-0.82,0.000,-0.063,0.000,-0.053,3.141,0.000,0.012,0.000,0.280,-0.45,0.00,-0.42
0.922,takeoff,1,326,304,45,49,0.49,0.00,0.00,-0.80,0.00,0.57,-0.00,-0.82,0.000,-0.063,0.000,-0.053,3.141,0.000,0.012,0.000,0.280,-0.45,0.00,-0.42
0.922,takeoff,1,326,304,45,49,0.49,0.00,0.00,-0.80,0.00,0.57,-0.00,-0.82,0.000,-0.063,0.000,-0.053,3.141,0.000,0.012,0.000,0.280,-0.45,0.00,-0.42
0.922,takeoff,1,326,304,45,49,0.49,0.00,0.00,-0.80,0.00,0.57,-0.00,-0.83,0.000,-0.062,0.000,-0.054,3.141,0.000,0.010,0.000,0.280,-0.46,0.00,-0.44
0.938,takeoff,1,326,304,45,49,0.49,0.00,0.00,-0.80,0.00,0.56,-0.00,-0.83,0.000,-0.062,0.000,-0.054,3.141,0.000,0.010,0.000,0.280,-0.46,0.00,-0.44
0.938,takeoff,1,326,304,45,49,0.49,0.00,0.00,-0.80,0.00,0.56,-0.00,-0.83,0.000,-0.062,0.000,-0.054,3.141,0.000,0.010,0.000,0.280,-0.46,0.00,-0.44
0.938,takeoff,1,326,304,45,49,0.49,0.00,0.00,-0.80,0.00,0.56,-0.00,-0.83,0.000,-0.062,0.000,-0.054,3.141,0.000,0.010,0.000,0.280,-0.46,0.00,-0.44
0.938,takeoff,1,326,304,45,49,0.49,0.00,0.00,-0.80,0.00,0.56,-0.00,-0.83,0.000,-0.062,0.000,-0.054,3.141,0.000,0.010,0.000,0.280,-0.46,0.00,-0.44
0.938,takeoff,1,326,304,45,49,0.49,0.00,0.00,-0.80,0.00,0.56,-0.00,-0.83,0.000,-0.061,0.000,-0.054,3.141,0.000,0.009,0.000,0.280,-0.46,0.00,-0.44
0.938,takeoff,1,326,304,45,49,0.49,0.00,0.00,-0.80,0.00,0.56,-0.00,-0.83,0.000,-0.061,0.000,-0.054,3.141,0.000,0.009,0.000,0.280,-0.46,0.00,-0.44
0.938,takeoff,1,326,304,45,49,0.49,0.00,0.00,-0.80,0.00,0.55,-0.00,-0.83,0.000,-0.061,0.000,-0.054,3.141,0.000,0.009,0.000,0.280,-0.46,0.00,-0.44
0.954,takeoff,1,326,304,45,49,0.49,0.00,0.00,-0.80,0.00,0.55,-0.00,-0.83,0.000,-0.061,0.000,-0.054,3.141,0.000,0.009,0.000,0.280,-0.46,0.00,-0.44
0.954,takeoff,1,326,306,45,48,0.49,0.00,0.00,-0.80,0.00,0.55,-0.00,-0.83,0.000,-0.061,0.000,-0.054,3.141,0.000,0.009,0.000,0.280,-0.46,0.00,-0.44
0.954,takeoff,1,326,306,45,48,0.49,0.00,0.00,-0.80,0.00,0.55,-0.00,-0.84,0.000,-0.060,0.000,-0.054,3.141,0.000,0.008,0.000,0.280,-0.47,0.00,-0.45
0.954,takeoff,1,326,306,45,48,0.49,0.00,0.00,-0.80,0.00,0.55,-0.00,-0.84,0.000,-0.060,0.000,-0.054,3.141,0.000,0.008,0.000,0.280,-0.47,0.00,-0.45
0.954,takeoff,1,326,306,45,48,0.49,0.00,0.00,-0.80,0.00,0.55,-0.00,-0.84,0.000,-0.060,0.000,-0.054,3.141,0.000,0.008,0.000,0.280,-0.47,0.00,-0.45
0.954,takeoff,1,326,306,45,48,0.49,0.00,0.00,-0.80,0.00,0.55,-0.00,-0.84,0.000,-0.060,0.000,-0.055,3.141,0.000,0.007,0.000,0.280,-0.47,0.00,-0.45
0.954,takeoff,1,326,306,45,48,0.49,0.00,0.00,-0.80,0.00,0.55,-0.00,-0.84,0.000,-0.060,0.000,-0.055,3.141,0.000,0.007,0.000,0.280,-0.47,0.00,-0.45
0.954,takeoff,1,326,306,45,48,0.49,0.00,0.00,-0.80,0.00,0.55,-0.00,-0.85,0.000,-0.060,0.000,-0.055,3.141,0.000,0.006,0.000,0.280,-0.47,0.00,-0.46
