t,phase,found,cx,cy,conf,cmd_vx,cmd_vy,cmd_vz,cmd_yawrate,vbx,vby,vd,roll_des,pitch_des,roll,pitch,yaw,roll_q,pitch_q,yaw_q,thrust,x,y,z
0.000,takeoff,1,325,177,0.51,0.00,0.00,-0.80,0.00,0.00,0.00,-0.00,0.000,0.000,-0.000,0.311,3.141,-0.000,0.388,0.000,0.314,-0.00,-0.00,0.02
0.015,takeoff,1,325,177,0.51,0.00,0.00,-0.80,0.00,0.00,0.00,-0.00,0.000,0.000,-0.000,0.311,3.141,-0.000,0.388,0.000,0.315,-0.00,-0.00,0.02
0.015,takeoff,1,325,177,0.51,0.00,0.00,-0.80,0.00,0.00,0.00,-0.00,0.000,0.000,-0.000,0.311,3.141,-0.000,0.388,0.000,0.315,-0.00,-0.00,0.02
0.015,takeoff,1,325,177,0.51,0.00,0.00,-0.80,0.00,0.00,0.00,-0.00,0.000,0.000,-0.000,0.311,3.141,-0.000,0.388,0.000,0.315,-0.00,-0.00,0.02
0.015,takeoff,1,325,177,0.51,0.00,0.00,-0.80,0.00,0.00,0.00,-0.00,0.000,0.000,-0.000,0.311,3.141,-0.000,0.388,0.000,0.315,-0.00,-0.00,0.02
0.015,takeoff,1,325,177,0.51,0.00,0.00,-0.80,0.00,0.00,0.00,-0.00,0.000,0.000,-0.000,0.311,3.141,-0.000,0.388,0.000,0.315,-0.00,-0.00,0.02
0.015,takeoff,1,325,177,0.51,0.00,0.00,-0.80,0.00,0.00,0.00,-0.00,0.000,0.000,-0.000,0.311,3.141,-0.000,0.388,0.000,0.315,-0.00,-0.00,0.02
0.031,takeoff,1,325,177,0.51,0.00,0.00,-0.80,0.00,0.00,0.00,-0.00,0.000,0.000,-0.000,0.311,3.141,-0.000,0.388,0.000,0.315,-0.00,-0.00,0.02
0.031,takeoff,1,325,177,0.51,0.00,0.00,-0.80,0.00,0.00,0.00,-0.00,0.000,0.000,-0.000,0.311,3.141,-0.000,0.388,0.000,0.315,-0.00,-0.00,0.02
0.031,takeoff,1,325,177,0.51,0.00,0.00,-0.80,0.00,0.00,0.00,-0.00,0.000,0.000,-0.000,0.311,3.141,-0.000,0.388,0.000,0.315,-0.00,-0.00,0.02
0.031,takeoff,1,325,177,0.51,0.00,0.00,-0.80,0.00,0.00,0.00,-0.00,0.000,0.000,-0.000,0.311,3.141,-0.000,0.388,0.000,0.315,-0.00,-0.00,0.02
0.031,takeoff,1,325,177,0.51,0.00,0.00,-0.80,0.00,-0.00,-0.00,0.00,0.000,0.000,-0.000,0.311,3.141,-0.000,0.388,0.000,0.315,-0.00,-0.00,0.02
0.031,takeoff,1,325,178,0.49,0.00,0.00,-0.80,0.00,-0.00,-0.00,0.00,0.000,0.000,-0.000,0.311,3.141,-0.000,0.388,0.000,0.315,-0.00,-0.00,0.02
0.046,takeoff,1,325,178,0.49,0.00,0.00,-0.80,0.00,-0.00,-0.00,0.00,0.000,0.000,-0.000,0.311,3.141,-0.000,0.388,0.000,0.316,-0.00,-0.00,0.02
0.046,takeoff,1,325,178,0.49,0.00,0.00,-0.80,0.00,-0.00,-0.00,0.00,0.000,0.000,-0.000,0.311,3.141,-0.000,0.388,0.000,0.316,-0.00,-0.00,0.02
0.046,takeoff,1,325,178,0.49,0.00,0.00,-0.80,0.00,-0.00,-0.00,0.00,0.000,-0.000,-0.000,0.311,3.141,-0.000,0.388,0.000,0.316,-0.00,-0.00,0.02
0.046,takeoff,1,325,178,0.49,0.00,0.00,-0.80,0.00,0.01,-0.00,0.00,0.000,-0.000,-0.000,0.311,3.141,-0.000,0.388,0.000,0.316,-0.00,-0.00,0.02
0.046,takeoff,1,325,178,0.49,0.00,0.00,-0.80,0.00,0.01,-0.00,0.00,0.000,-0.000,-0.000,0.311,3.141,-0.000,0.388,0.000,0.316,-0.00,-0.00,0.02
0.046,takeoff,1,325,178,0.49,0.00,0.00,-0.80,0.00,0.01,-0.00,0.00,0.000,-0.000,-0.000,0.311,3.141,-0.000,0.388,0.000,0.316,-0.00,-0.00,0.02
0.046,takeoff,1,325,178,0.49,0.00,0.00,-0.80,0.00,0.01,-0.00,0.00,0.000,-0.000,-0.000,0.308,3.141,-0.000,0.386,0.000,0.316,-0.00,-0.00,0.02
0.062,takeoff,1,325,178,0.49,0.00,0.00,-0.80,0.00,0.01,-0.00,-0.02,0.000,-0.002,-0.000,0.308,3.141,-0.000,0.388,0.000,0.315,-0.00,-0.00,0.02
0.062,takeoff,1,325,178,0.49,0.00,0.00,-0.80,0.00,0.01,-0.00,-0.02,0.000,-0.002,-0.000,0.308,3.141,-0.000,0.388,0.000,0.315,-0.00,-0.00,0.02
0.062,takeoff,1,325,178,0.49,0.00,0.00,-0.80,0.00,0.01,-0.00,-0.02,0.000,-0.002,-0.000,0.308,3.141,-0.000,0.388,0.000,0.315,-0.00,-0.00,0.02
0.062,takeoff,1,325,178,0.49,0.00,0.00,-0.80,0.00,0.01,-0.00,-0.02,0.000,-0.002,-0.000,0.305,3.141,-0.000,0.384,0.000,0.315,-0.00,-0.00,0.02
0.062,takeoff,1,325,178,0.49,0.00,0.00,-0.80,0.00,0.01,-0.00,-0.04,0.000,-0.003,-0.000,0.305,3.141,-0.000,0.385,0.000,0.314,-0.00,-0.00,0.02
0.062,takeoff,1,325,178,0.49,0.00,0.00,-0.80,0.00,0.01,-0.00,-0.04,0.000,-0.003,-0.000,0.305,3.141,-0.000,0.385,0.000,0.314,-0.00,-0.00,0.02
0.078,takeoff,1,325,178,0.49,0.00,0.00,-0.80,0.00,0.01,-0.00,-0.04,0.000,-0.003,-0.000,0.305,3.141,-0.000,0.385,0.000,0.314,-0.00,-0.00,0.02
0.078,takeoff,1,325,181,0.48,0.00,0.00,-0.80,0.00,0.01,-0.00,-0.04,0.000,-0.003,-0.000,0.300,3.141,-0.000,0.379,0.000,0.314,-0.00,-0.00,0.02
0.078,takeoff,1,325,181,0.48,0.00,0.00,-0.80,0.00,0.03,-0.00,-0.04,0.000,-0.003,-0.000,0.300,3.141,-0.000,0.379,0.000,0.314,-0.00,-0.00,0.02
0.078,takeoff,1,325,181,0.48,0.00,0.00,-0.80,0.00,0.03,-0.00,-0.07,0.000,-0.007,-0.000,0.300,3.141,-0.000,0.383,0.000,0.311,-0.00,-0.00,0.02
0.078,takeoff,1,325,181,0.48,0.00,0.00,-0.80,0.00,0.03,-0.00,-0.07,0.000,-0.007,-0.000,0.286,3.141,-0.000,0.365,0.000,0.311,-0.00,-0.00,0.02
0.078,takeoff,1,325,181,0.48,0.00,0.00,-0.80,0.00,0.03,-0.00,-0.07,0.000,-0.007,-0.000,0.286,3.141,-0.000,0.365,0.000,0.311,-0.00,-0.00,0.02
0.078,takeoff,1,325,181,0.48,0.00,0.00,-0.80,0.00,0.03,-0.00,-0.07,0.000,-0.007,-0.000,0.286,3.141,-0.000,0.365,0.000,0.311,-0.00,-0.00,0.02
0.093,takeoff,1,325,181,0.48,0.00,0.00,-0.80,0.00,0.03,-0.00,-0.10,0.000,-0.011,-0.000,0.286,3.141,-0.000,0.371,0.000,0.310,-0.00,-0.00,0.02
0.093,takeoff,1,325,181,0.48,0.00,0.00,-0.80,0.00,0.06,-0.00,-0.10,0.000,-0.011,-0.000,0.277,3.141,-0.000,0.359,0.000,0.310,-0.00,-0.00,0.02
0.093,takeoff,1,325,181,0.48,0.00,0.00,-0.80,0.00,0.06,-0.00,-0.10,0.000,-0.011,-0.000,0.277,3.141,-0.000,0.359,0.000,0.310,-0.00,-0.00,0.02
0.093,takeoff,1,325,181,0.48,0.00,0.00,-0.80,0.00,0.06,-0.00,-0.10,0.000,-0.011,-0.000,0.277,3.141,-0.000,0.359,0.000,0.310,-0.00,-0.00,0.02
0.093,takeoff,1,325,181,0.48,0.00,0.00,-0.80,0.00,0.06,-0.00,-0.10,0.000,-0.013,-0.000,0.267,3.141,-0.000,0.350,0.000,0.309,-0.00,-0.00,0.02
0.109,takeoff,1,325,181,0.48,0.00,0.00,-0.80,0.00,0.10,-0.00,-0.10,0.000,-0.013,-0.000,0.267,3.141,-0.000,0.350,0.000,0.310,-0.00,-0.00,0.02
0.109,takeoff,1,325,195,0.49,0.00,0.00,-0.80,0.00,0.10,-0.00,-0.10,0.000,-0.013,-0.000,0.267,3.141,-0.000,0.350,0.000,0.310,-0.00,-0.00,0.02
0.109,takeoff,1,325,195,0.49,0.00,0.00,-0.80,0.00,0.10,-0.00,-0.12,0.000,-0.018,-0.000,0.257,3.141,-0.000,0.344,0.000,0.309,-0.01,-0.00,0.02
0.109,takeoff,1,325,195,0.49,0.00,0.00,-0.80,0.00,0.10,-0.00,-0.12,0.000,-0.018,-0.000,0.257,3.141,-0.000,0.344,0.000,0.309,-0.01,-0.00,0.02
0.109,takeoff,1,325,195,0.49,0.00,0.00,-0.80,0.00,0.10,-0.00,-0.12,0.000,-0.018,-0.000,0.257,3.141,-0.000,0.344,0.000,0.309,-0.01,-0.00,0.02
0.109,takeoff,1,325,195,0.49,0.00,0.00,-0.80,0.00,0.13,-0.00,-0.12,0.000,-0.018,-0.000,0.240,3.141,-0.000,0.322,0.000,0.309,-0.01,-0.00,0.02
0.125,takeoff,1,325,195,0.49,0.00,0.00,-0.80,0.00,0.13,-0.00,-0.13,0.000,-0.020,-0.000,0.240,3.141,-0.000,0.325,0.000,0.309,-0.01,-0.00,0.01
0.125,takeoff,1,325,195,0.49,0.00,0.00,-0.80,0.00,0.13,-0.00,-0.13,0.000,-0.020,-0.000,0.240,3.141,-0.000,0.325,0.000,0.309,-0.01,-0.00,0.01
0.125,takeoff,1,325,195,0.49,0.00,0.00,-0.80,0.00,0.13,-0.00,-0.13,0.000,-0.020,-0.000,0.240,3.141,-0.000,0.325,0.000,0.309,-0.01,-0.00,0.01
0.125,takeoff,1,325,195,0.49,0.00,0.00,-0.80,0.00,0.13,-0.00,-0.13,0.000,-0.020,-0.000,0.233,3.141,-0.000,0.316,0.000,0.309,-0.01,-0.00,0.01
0.125,takeoff,1,325,195,0.49,0.00,0.00,-0.80,0.00,0.13,-0.00,-0.13,0.000,-0.020,-0.000,0.233,3.141,-0.000,0.316,0.000,0.309,-0.01,-0.00,0.01
0.125,takeoff,1,325,195,0.49,0.00,0.00,-0.80,0.00,0.17,-0.00,-0.15,0.000,-0.025,-0.000,0.233,3.141,-0.000,0.322,0.000,0.307,-0.01,0.00,0.01
0.125,takeoff,1,325,195,0.49,0.00,0.00,-0.80,0.00,0.17,-0.00,-0.15,0.000,-0.025,-0.000,0.233,3.141,-0.000,0.322,0.000,0.307,-0.01,0.00,0.01
0.140,takeoff,1,325,195,0.49,0.00,0.00,-0.80,0.00,0.17,-0.00,-0.15,0.000,-0.025,-0.000,0.226,3.141,-0.000,0.314,0.000,0.308,-0.01,0.00,0.01
0.140,takeoff,1,325,195,0.49,0.00,0.00,-0.80,0.00,0.17,-0.00,-0.15,0.000,-0.025,-0.000,0.226,3.141,-0.000,0.314,0.000,0.308,-0.01,0.00,0.01
0.140,takeoff,1,325,195,0.49,0.00,0.00,-0.80,0.00,0.17,-0.00,-0.15,0.000,-0.025,-0.000,0.226,3.141,-0.000,0.314,0.000,0.308,-0.01,0.00,0.01
0.140,takeoff,1,324,207,0.48,0.00,0.00,-0.80,0.00,0.17,-0.00,-0.16,0.000,-0.027,-0.000,0.220,3.141,-0.000,0.309,0.000,0.307,-0.01,0.00,0.01
0.140,takeoff,1,324,207,0.48,0.00,0.00,-0.80,0.00,0.20,-0.00,-0.16,0.000,-0.027,-0.000,0.220,3.141,-0.000,0.309,0.000,0.307,-0.01,0.00,0.01
0.140,takeoff,1,324,207,0.48,0.00,0.00,-0.80,0.00,0.20,-0.00,-0.16,0.000,-0.027,-0.000,0.220,3.141,-0.000,0.309,0.000,0.307,-0.01,0.00,0.01
0.156,takeoff,1,324,207,0.48,0.00,0.00,-0.80,0.00,0.20,-0.00,-0.16,0.000,-0.027,-0.000,0.220,3.141,-0.000,0.309,0.000,0.307,-0.01,0.00,0.01
0.156,takeoff,1,324,207,0.48,0.00,0.00,-0.80,0.00,0.20,-0.00,-0.18,0.000,-0.031,-0.000,0.210,3.141,-0.000,0.301,0.000,0.305,-0.01,0.00,0.01
0.156,takeoff,1,324,207,0.48,0.00,0.00,-0.80,0.00,0.20,-0.00,-0.18,0.000,-0.031,-0.000,0.210,3.141,-0.000,0.301,0.000,0.305,-0.01,0.00,0.01
0.156,takeoff,1,324,207,0.48,0.00,0.00,-0.80,0.00,0.20,-0.00,-0.18,0.000,-0.031,-0.000,0.210,3.141,-0.000,0.301,0.000,0.305,-0.01,0.00,0.01
0.156,takeoff,1,324,207,0.48,0.00,0.00,-0.80,0.00,0.23,-0.00,-0.18,0.000,-0.031,-0.000,0.210,3.141,-0.000,0.301,0.000,0.305,-0.01,0.00,0.01
0.156,takeoff,1,324,207,0.48,0.00,0.00,-0.80,0.00,0.23,-0.00,-0.18,0.000,-0.031,-0.000,0.205,3.141,-0.000,0.295,0.000,0.305,-0.01,0.00,0.01
0.156,takeoff,1,324,207,0.48,0.00,0.00,-0.80,0.00,0.23,-0.00,-0.20,0.000,-0.033,-0.000,0.205,3.141,-0.000,0.297,0.000,0.304,-0.02,0.00,0.01
0.171,takeoff,1,324,207,0.48,0.00,0.00,-0.80,0.00,0.23,-0.00,-0.20,0.000,-0.033,-0.000,0.205,3.141,-0.000,0.297,0.000,0.305,-0.02,0.00,0.01
0.171,takeoff,1,324,207,0.48,0.00,0.00,-0.80,0.00,0.23,-0.00,-0.20,0.000,-0.033,-0.000,0.199,3.141,-0.000,0.291,0.000,0.305,-0.02,0.00,0.01
0.171,takeoff,1,324,207,0.48,0.00,0.00,-0.80,0.00,0.26,-0.00,-0.20,0.000,-0.033,-0.000,0.199,3.141,-0.000,0.291,0.000,0.305,-0.02,0.00,0.01
0.171,takeoff,1,324,207,0.48,0.00,0.00,-0.80,0.00,0.26,-0.00,-0.22,0.000,-0.037,-0.000,0.199,3.141,-0.000,0.295,0.000,0.303,-0.02,0.00,0.01
0.171,takeoff,1,324,213,0.49,0.00,0.00,-0.80,0.00,0.26,-0.00,-0.22,0.000,-0.037,-0.000,0.199,3.141,-0.000,0.295,0.000,0.303,-0.02,0.00,0.01
0.171,takeoff,1,324,213,0.49,0.00,0.00,-0.80,0.00,0.26,-0.00,-0.22,0.000,-0.037,-0.000,0.192,3.141,-0.000,0.286,0.000,0.303,-0.02,0.00,0.01
0.171,takeoff,1,324,213,0.49,0.00,0.00,-0.80,0.00,0.26,-0.00,-0.22,0.000,-0.037,-0.000,0.192,3.141,-0.000,0.286,0.000,0.303,-0.02,0.00,0.01
0.187,takeoff,1,324,213,0.49,0.00,0.00,-0.80,0.00,0.26,-0.00,-0.24,0.000,-0.040,-0.000,0.192,3.141,-0.000,0.290,0.000,0.301,-0.02,0.00,0.00
0.187,takeoff,1,324,213,0.49,0.00,0.00,-0.80,0.00,0.28,-0.00,-0.24,0.000,-0.040,-0.000,0.192,3.141,-0.000,0.290,0.000,0.301,-0.02,0.00,0.00
0.187,takeoff,1,324,213,0.49,0.00,0.00,-0.80,0.00,0.28,-0.00,-0.24,0.000,-0.040,-0.000,0.187,3.141,-0.000,0.283,0.000,0.301,-0.02,0.00,0.00
0.187,takeoff,1,324,213,0.49,0.00,0.00,-0.80,0.00,0.28,-0.00,-0.24,0.000,-0.040,-0.000,0.187,3.141,-0.000,0.283,0.000,0.301,-0.02,0.00,0.00
0.187,takeoff,1,324,213,0.49,0.00,0.00,-0.80,0.00,0.28,-0.00,-0.24,0.000,-0.040,-0.000,0.187,3.141,-0.000,0.283,0.000,0.301,-0.02,0.00,0.00
0.187,takeoff,1,324,213,0.49,0.00,0.00,-0.80,0.00,0.28,-0.00,-0.27,0.000,-0.043,-0.000,0.176,3.141,-0.000,0.274,0.000,0.299,-0.03,0.00,-0.00
0.203,takeoff,1,324,213,0.49,0.00,0.00,-0.80,0.00,0.31,-0.00,-0.27,0.000,-0.043,-0.000,0.176,3.141,-0.000,0.274,0.000,0.300,-0.03,0.00,-0.00
0.203,takeoff,1,324,213,0.49,0.00,0.00,-0.80,0.00,0.31,-0.00,-0.27,0.000,-0.043,-0.000,0.176,3.141,-0.000,0.274,0.000,0.300,-0.03,0.00,-0.00
0.203,takeoff,1,324,213,0.49,0.00,0.00,-0.80,0.00,0.31,-0.00,-0.28,0.000,-0.045,-0.000,0.171,3.141,-0.000,0.270,0.000,0.299,-0.03,0.00,-0.00
0.203,takeoff,1,324,222,0.49,0.00,0.00,-0.80,0.00,0.31,-0.00,-0.28,0.000,-0.045,-0.000,0.171,3.141,-0.000,0.270,0.000,0.299,-0.03,0.00,-0.00
0.203,takeoff,1,324,222,0.49,0.00,0.00,-0.80,0.00,0.31,-0.00,-0.28,0.000,-0.045,-0.000,0.171,3.141,-0.000,0.270,0.000,0.299,-0.03,0.00,-0.00
0.218,takeoff,1,324,222,0.49,0.00,0.00,-0.80,0.00,0.34,-0.00,-0.28,0.000,-0.045,-0.000,0.166,3.141,-0.000,0.263,0.000,0.299,-0.03,0.00,-0.00
0.218,takeoff,1,324,222,0.49,0.00,0.00,-0.80,0.00,0.34,-0.00,-0.31,0.000,-0.048,-0.000,0.166,3.141,-0.000,0.268,0.000,0.297,-0.04,0.00,-0.01
0.218,takeoff,1,324,222,0.49,0.00,0.00,-0.80,0.00,0.34,-0.00,-0.31,0.000,-0.048,-0.000,0.166,3.141,-0.000,0.268,0.000,0.297,-0.04,0.00,-0.01
0.218,takeoff,1,324,222,0.49,0.00,0.00,-0.80,0.00,0.34,-0.00,-0.31,0.000,-0.048,0.000,0.161,3.141,-0.000,0.261,0.000,0.297,-0.04,0.00,-0.01
0.218,takeoff,1,324,222,0.49,0.00,0.00,-0.80,0.00,0.34,-0.00,-0.31,0.000,-0.048,0.000,0.161,3.141,-0.000,0.261,0.000,0.297,-0.04,0.00,-0.01
0.218,takeoff,1,324,222,0.49,0.00,0.00,-0.80,0.00,0.36,-0.00,-0.32,0.000,-0.050,0.000,0.161,3.141,-0.000,0.263,0.000,0.296,-0.04,0.00,-0.01
0.234,takeoff,1,324,222,0.49,0.00,0.00,-0.80,0.00,0.36,-0.00,-0.32,0.000,-0.050,0.000,0.161,3.141,-0.000,0.263,0.000,0.296,-0.04,0.00,-0.01
0.234,takeoff,1,324,222,0.49,0.00,0.00,-0.80,0.00,0.36,-0.00,-0.32,0.000,-0.050,0.000,0.151,3.141,-0.000,0.251,0.000,0.296,-0.04,0.00,-0.01
0.234,takeoff,1,324,222,0.49,0.00,0.00,-0.80,0.00,0.36,-0.00,-0.32,0.000,-0.050,0.000,0.151,3.141,-0.000,0.251,0.000,0.296,-0.04,0.00,-0.01
0.234,takeoff,1,324,222,0.49,0.00,0.00,-0.80,0.00,0.36,-0.00,-0.35,0.000,-0.053,0.000,0.151,3.141,-0.000,0.255,0.000,0.294,-0.05,0.00,-0.01
0.234,takeoff,1,324,222,0.49,0.00,0.00,-0.80,0.00,0.39,-0.00,-0.35,0.000,-0.053,0.000,0.146,3.141,-0.000,0.248,0.000,0.294,-0.05,0.00,-0.01
0.234,takeoff,1,325,232,0.50,0.00,0.00,-0.80,0.00,0.39,-0.00,-0.35,0.000,-0.053,0.000,0.146,3.141,-0.000,0.248,0.000,0.294,-0.05,0.00,-0.01
0.250,takeoff,1,325,232,0.50,0.00,0.00,-0.80,0.00,0.39,-0.00,-0.35,0.000,-0.053,0.000,0.146,3.141,-0.000,0.248,0.000,0.295,-0.05,0.00,-0.01
0.250,takeoff,1,325,232,0.50,0.00,0.00,-0.80,0.00,0.39,-0.00,-0.35,0.000,-0.053,0.000,0.146,3.141,-0.000,0.248,0.000,0.295,-0.05,0.00,-0.01
0.250,takeoff,1,325,232,0.50,0.00,0.00,-0.80,0.00,0.39,-0.00,-0.36,0.000,-0.054,0.000,0.141,3.141,-0.000,0.244,0.000,0.294,-0.05,0.00,-0.02
0.250,takeoff,1,325,232,0.50,0.00,0.00,-0.80,0.00,0.39,-0.00,-0.36,0.000,-0.054,0.000,0.141,3.141,-0.000,0.244,0.000,0.294,-0.05,0.00,-0.02
0.250,takeoff,1,325,232,0.50,0.00,0.00,-0.80,0.00,0.41,-0.00,-0.36,0.000,-0.054,0.000,0.141,3.141,-0.000,0.244,0.000,0.294,-0.05,0.00,-0.02
0.250,takeoff,1,325,232,0.50,0.00,0.00,-0.80,0.00,0.41,-0.00,-0.38,0.000,-0.057,0.000,0.132,3.141,-0.000,0.236,0.000,0.292,-0.05,0.00,-0.02
0.265,takeoff,1,325,232,0.50,0.00,0.00,-0.80,0.00,0.41,-0.00,-0.38,0.000,-0.057,0.000,0.132,3.141,-0.000,0.236,0.000,0.292,-0.05,0.00,-0.02
0.265,takeoff,1,325,232,0.50,0.00,0.00,-0.80,0.00,0.41,-0.00,-0.38,0.000,-0.057,0.000,0.132,3.141,-0.000,0.236,0.000,0.292,-0.05,0.00,-0.02
0.265,takeoff,1,325,232,0.50,0.00,0.00,-0.80,0.00,0.43,-0.00,-0.39,0.000,-0.058,0.000,0.127,3.141,-0.000,0.232,0.000,0.291,-0.06,0.00,-0.02
0.265,takeoff,1,325,232,0.50,0.00,0.00,-0.80,0.00,0.43,-0.00,-0.39,0.000,-0.058,0.000,0.127,3.141,-0.000,0.232,0.000,0.291,-0.06,0.00,-0.02
0.281,takeoff,1,325,232,0.50,0.00,0.00,-0.80,0.00,0.43,-0.00,-0.39,0.000,-0.058,0.000,0.123,3.141,-0.000,0.227,0.000,0.292,-0.06,0.00,-0.02
0.281,takeoff,1,326,239,0.50,0.00,0.00,-0.80,0.00,0.43,-0.00,-0.39,0.000,-0.058,0.000,0.123,3.141,-0.000,0.227,0.000,0.292,-0.06,0.00,-0.02
0.281,takeoff,1,326,239,0.50,0.00,0.00,-0.80,0.00,0.43,-0.00,-0.40,0.000,-0.061,0.000,0.123,3.141,-0.000,0.229,0.000,0.290,-0.07,0.00,-0.03
0.281,takeoff,1,326,239,0.50,0.00,0.00,-0.80,0.00,0.45,-0.00,-0.40,0.000,-0.061,0.000,0.123,3.141,-0.000,0.229,0.000,0.290,-0.07,0.00,-0.03
0.281,takeoff,1,326,239,0.50,0.00,0.00,-0.80,0.00,0.45,-0.00,-0.40,0.000,-0.061,0.000,0.119,3.141,-0.000,0.224,0.000,0.290,-0.07,0.00,-0.03
0.281,takeoff,1,326,239,0.50,0.00,0.00,-0.80,0.00,0.45,-0.00,-0.40,0.000,-0.061,0.000,0.119,3.141,-0.000,0.224,0.000,0.290,-0.07,0.00,-0.03
0.281,takeoff,1,326,239,0.50,0.00,0.00,-0.80,0.00,0.45,-0.00,-0.40,0.000,-0.061,0.000,0.119,3.141,-0.000,0.224,0.000,0.290,-0.07,0.00,-0.03
0.281,takeoff,1,326,239,0.50,0.00,0.00,-0.80,0.00,0.45,-0.00,-0.41,0.000,-0.062,0.000,0.119,3.141,-0.000,0.225,0.000,0.290,-0.07,0.00,-0.03
0.296,takeoff,1,326,239,0.50,0.00,0.00,-0.80,0.00,0.45,-0.00,-0.41,0.000,-0.062,0.000,0.110,3.141,-0.000,0.215,0.000,0.290,-0.07,0.00,-0.03
0.296,takeoff,1,326,239,0.50,0.00,0.00,-0.80,0.00,0.47,-0.00,-0.41,0.000,-0.062,0.000,0.110,3.141,-0.000,0.215,0.000,0.290,-0.07,0.00,-0.03
0.296,takeoff,1,326,239,0.50,0.00,0.00,-0.80,0.00,0.47,-0.00,-0.41,0.000,-0.062,0.000,0.110,3.141,-0.000,0.215,0.000,0.290,-0.07,0.00,-0.03
0.296,takeoff,1,326,239,0.50,0.00,0.00,-0.80,0.00,0.47,-0.00,-0.43,0.000,-0.064,0.000,0.110,3.141,-0.000,0.217,0.000,0.289,-0.08,0.00,-0.04
0.296,takeoff,1,326,239,0.50,0.00,0.00,-0.80,0.00,0.47,-0.00,-0.43,0.000,-0.064,0.000,0.106,3.141,-0.000,0.212,0.000,0.289,-0.08,0.00,-0.04
0.296,takeoff,1,326,245,0.49,0.00,0.00,-0.80,0.00,0.47,-0.00,-0.43,0.000,-0.064,0.000,0.106,3.141,-0.000,0.212,0.000,0.289,-0.08,0.00,-0.04
0.312,takeoff,1,326,245,0.49,0.00,0.00,-0.80,0.00,0.47,-0.00,-0.43,0.000,-0.064,0.000,0.106,3.141,-0.000,0.212,0.000,0.289,-0.08,0.00,-0.04
0.312,takeoff,1,326,245,0.49,0.00,0.00,-0.80,0.00,0.49,-0.00,-0.43,0.000,-0.064,0.000,0.106,3.141,-0.000,0.212,0.000,0.289,-0.08,0.00,-0.04
0.312,takeoff,1,326,245,0.49,0.00,0.00,-0.80,0.00,0.49,-0.00,-0.43,0.000,-0.065,0.000,0.102,3.141,-0.000,0.208,0.000,0.289,-0.08,0.00,-0.04
0.312,takeoff,1,326,245,0.49,0.00,0.00,-0.80,0.00,0.49,-0.00,-0.43,0.000,-0.065,0.000,0.102,3.141,-0.000,0.208,0.000,0.289,-0.08,0.00,-0.04
0.312,takeoff,1,326,245,0.49,0.00,0.00,-0.80,0.00,0.49,-0.00,-0.43,0.000,-0.065,0.000,0.102,3.141,-0.000,0.208,0.000,0.289,-0.08,0.00,-0.04
0.312,takeoff,1,326,245,0.49,0.00,0.00,-0.80,0.00,0.49,-0.00,-0.43,0.000,-0.065,0.000,0.102,3.141,-0.000,0.208,0.000,0.289,-0.08,0.00,-0.04
0.312,takeoff,1,326,245,0.49,0.00,0.00,-0.80,0.00,0.49,-0.00,-0.43,0.000,-0.065,0.000,0.098,3.141,-0.000,0.204,0.000,0.289,-0.08,0.00,-0.04
0.328,takeoff,1,326,245,0.49,0.00,0.00,-0.80,0.00,0.51,-0.00,-0.44,0.000,-0.066,0.000,0.098,3.141,-0.000,0.206,0.000,0.288,-0.09,0.00,-0.05
0.328,takeoff,1,326,245,0.49,0.00,0.00,-0.80,0.00,0.51,-0.00,-0.44,0.000,-0.066,0.000,0.098,3.141,-0.000,0.206,0.000,0.288,-0.09,0.00,-0.05
0.328,takeoff,1,326,245,0.49,0.00,0.00,-0.80,0.00,0.51,-0.00,-0.44,0.000,-0.066,0.000,0.098,3.141,-0.000,0.206,0.000,0.288,-0.09,0.00,-0.05
0.328,takeoff,1,326,245,0.49,0.00,0.00,-0.80,0.00,0.51,-0.00,-0.44,0.000,-0.066,0.000,0.091,3.141,-0.000,0.196,0.000,0.288,-0.09,0.00,-0.05
0.328,takeoff,1,326,245,0.49,0.00,0.00,-0.80,0.00,0.51,-0.00,-0.44,0.000,-0.066,0.000,0.091,3.141,-0.000,0.196,0.000,0.288,-0.09,0.00,-0.05
0.328,takeoff,1,326,245,0.49,0.00,0.00,-0.80,0.00,0.51,-0.00,-0.45,0.000,-0.067,0.000,0.091,3.141,-0.000,0.197,0.000,0.288,-0.09,0.00,-0.05
0.328,takeoff,1,326,245,0.49,0.00,0.00,-0.80,0.00,0.52,-0.00,-0.45,0.000,-0.067,0.000,0.091,3.141,-0.000,0.197,0.000,0.288,-0.09,0.00,-0.05
0.343,takeoff,1,326,251,0.50,0.00,0.00,-0.80,0.00,0.52,-0.00,-0.45,0.000,-0.067,0.000,0.087,3.141,-0.000,0.192,0.000,0.288,-0.09,0.00,-0.05
0.343,takeoff,1,326,251,0.50,0.00,0.00,-0.80,0.00,0.52,-0.00,-0.45,0.000,-0.067,0.000,0.087,3.141,-0.000,0.192,0.000,0.288,-0.09,0.00,-0.05
0.343,takeoff,1,326,251,0.50,0.00,0.00,-0.80,0.00,0.52,-0.00,-0.45,0.000,-0.067,0.000,0.087,3.141,-0.000,0.192,0.000,0.288,-0.09,0.00,-0.05
0.343,takeoff,1,326,251,0.50,0.00,0.00,-0.80,0.00,0.52,-0.00,-0.46,0.000,-0.069,0.000,0.087,3.141,-0.000,0.194,0.000,0.287,-0.10,0.00,-0.06
0.343,takeoff,1,326,251,0.50,0.00,0.00,-0.80,0.00,0.52,-0.00,-0.46,0.000,-0.069,0.000,0.083,3.141,-0.000,0.190,0.000,0.287,-0.10,0.00,-0.06
0.343,takeoff,1,326,251,0.50,0.00,0.00,-0.80,0.00,0.54,-0.00,-0.46,0.000,-0.069,0.000,0.083,3.141,-0.000,0.190,0.000,0.287,-0.10,0.00,-0.06
0.359,takeoff,1,326,251,0.50,0.00,0.00,-0.80,0.00,0.54,-0.00,-0.46,0.000,-0.069,0.000,0.083,3.141,-0.000,0.190,0.000,0.287,-0.10,0.00,-0.06
0.359,takeoff,1,326,251,0.50,0.00,0.00,-0.80,0.00,0.54,-0.00,-0.47,0.000,-0.070,0.000,0.076,3.141,-0.000,0.183,0.000,0.287,-0.11,0.00,-0.06
0.359,takeoff,1,326,251,0.50,0.00,0.00,-0.80,0.00,0.54,-0.00,-0.47,0.000,-0.070,0.000,0.076,3.141,-0.000,0.183,0.000,0.287,-0.11,0.00,-0.06
0.359,takeoff,1,326,251,0.50,0.00,0.00,-0.80,0.00,0.54,-0.00,-0.47,0.000,-0.070,0.000,0.076,3.141,-0.000,0.183,0.000,0.287,-0.11,0.00,-0.06
0.359,takeoff,1,326,251,0.50,0.00,0.00,-0.80,0.00,0.55,-0.00,-0.47,0.000,-0.071,0.000,0.072,3.141,-0.000,0.179,0.000,0.286,-0.11,0.00,-0.07
0.375,takeoff,1,326,251,0.50,0.00,0.00,-0.80,0.00,0.55,-0.00,-0.47,0.000,-0.071,0.000,0.072,3.141,-0.000,0.179,0.000,0.287,-0.11,0.00,-0.07
0.375,takeoff,1,326,251,0.50,0.00,0.00,-0.80,0.00,0.55,-0.00,-0.47,0.000,-0.071,0.000,0.072,3.141,-0.000,0.179,0.000,0.287,-0.11,0.00,-0.07
0.375,takeoff,1,326,258,0.50,0.00,0.00,-0.80,0.00,0.55,-0.00,-0.47,0.000,-0.071,0.000,0.069,3.141,-0.000,0.175,0.000,0.287,-0.11,0.00,-0.07
0.375,takeoff,1,326,258,0.50,0.00,0.00,-0.80,0.00,0.55,-0.00,-0.48,0.000,-0.072,0.000,0.069,3.141,-0.000,0.176,0.000,0.286,-0.12,0.00,-0.07
0.375,takeoff,1,326,258,0.50,0.00,0.00,-0.80,0.00,0.57,-0.00,-0.48,0.000,-0.072,0.000,0.069,3.141,-0.000,0.176,0.000,0.286,-0.12,0.00,-0.07
0.375,takeoff,1,326,258,0.50,0.00,0.00,-0.80,0.00,0.57,-0.00,-0.48,0.000,-0.072,0.000,0.069,3.141,-0.000,0.176,0.000,0.286,-0.12,0.00,-0.07
0.375,takeoff,1,326,258,0.50,0.00,0.00,-0.80,0.00,0.57,-0.00,-0.48,0.000,-0.072,0.000,0.062,3.141,-0.000,0.168,0.000,0.286,-0.12,0.00,-0.07
0.390,takeoff,1,326,258,0.50,0.00,0.00,-0.80,0.00,0.57,-0.00,-0.49,0.000,-0.073,0.000,0.062,3.141,-0.000,0.169,0.000,0.286,-0.12,0.00,-0.08
0.390,takeoff,1,326,258,0.50,0.00,0.00,-0.80,0.00,0.57,-0.00,-0.49,0.000,-0.073,0.000,0.062,3.141,-0.000,0.169,0.000,0.286,-0.12,0.00,-0.08
0.390,takeoff,1,326,258,0.50,0.00,0.00,-0.80,0.00,0.58,-0.00,-0.49,0.000,-0.073,0.000,0.062,3.141,-0.000,0.169,0.000,0.286,-0.12,0.00,-0.08
0.390,takeoff,1,326,258,0.50,0.00,0.00,-0.80,0.00,0.58,-0.00,-0.49,0.000,-0.073,0.000,0.059,3.141,-0.000,0.165,0.000,0.286,-0.12,0.00,-0.08
0.390,takeoff,1,326,258,0.50,0.00,0.00,-0.80,0.00,0.58,-0.00,-0.49,0.000,-0.073,0.000,0.059,3.141,-0.000,0.165,0.000,0.286,-0.12,0.00,-0.08
0.390,takeoff,1,326,258,0.50,0.00,0.00,-0.80,0.00,0.58,-0.00,-0.50,0.000,-0.074,0.000,0.059,3.141,-0.000,0.166,0.000,0.285,-0.13,0.00,-0.08
0.406,takeoff,1,326,258,0.50,0.00,0.00,-0.80,0.00,0.58,-0.00,-0.50,0.000,-0.074,0.000,0.056,3.141,-0.000,0.162,0.000,0.285,-0.13,0.00,-0.08
0.406,takeoff,1,326,258,0.50,0.00,0.00,-0.80,0.00,0.58,-0.00,-0.50,0.000,-0.074,0.000,0.056,3.141,-0.000,0.162,0.000,0.285,-0.13,0.00,-0.08
0.406,takeoff,1,326,258,0.50,0.00,0.00,-0.80,0.00,0.59,-0.00,-0.50,0.000,-0.074,0.000,0.056,3.141,-0.000,0.162,0.000,0.285,-0.13,0.00,-0.08
0.406,takeoff,1,326,258,0.50,0.00,0.00,-0.80,0.00,0.59,-0.00,-0.50,0.000,-0.074,0.000,0.056,3.141,-0.000,0.162,0.000,0.285,-0.14,0.00,-0.09
0.406,takeoff,1,326,263,0.47,0.00,0.00,-0.80,0.00,0.59,-0.00,-0.50,0.000,-0.074,0.000,0.053,3.141,-0.000,0.159,0.000,0.285,-0.14,0.00,-0.09
0.406,takeoff,1,326,263,0.47,0.00,0.00,-0.80,0.00,0.59,-0.00,-0.50,0.000,-0.074,0.000,0.053,3.141,-0.000,0.159,0.000,0.285,-0.14,0.00,-0.09
0.406,takeoff,1,326,263,0.47,0.00,0.00,-0.80,0.00,0.59,-0.00,-0.50,0.000,-0.074,0.000,0.053,3.141,-0.000,0.159,0.000,0.285,-0.14,0.00,-0.09
0.421,takeoff,1,326,263,0.47,0.00,0.00,-0.80,0.00,0.59,-0.00,-0.50,0.000,-0.074,0.000,0.053,3.141,-0.000,0.159,0.000,0.285,-0.14,0.00,-0.09
0.421,takeoff,1,326,263,0.47,0.00,0.00,-0.80,0.00,0.60,-0.00,-0.51,0.000,-0.075,0.000,0.047,3.141,0.000,0.152,0.000,0.284,-0.15,0.00,-0.09
0.421,takeoff,1,326,263,0.47,0.00,0.00,-0.80,0.00,0.60,-0.00,-0.51,0.000,-0.075,0.000,0.047,3.141,0.000,0.152,0.000,0.284,-0.15,0.00,-0.09
0.421,takeoff,1,326,263,0.47,0.00,0.00,-0.80,0.00,0.60,-0.00,-0.51,0.000,-0.075,0.000,0.047,3.141,0.000,0.152,0.000,0.284,-0.15,0.00,-0.09
0.421,takeoff,1,326,263,0.47,0.00,0.00,-0.80,0.00,0.60,-0.00,-0.51,0.000,-0.075,0.000,0.047,3.141,0.000,0.152,0.000,0.284,-0.15,0.00,-0.09
0.421,takeoff,1,326,263,0.47,0.00,0.00,-0.80,0.00,0.60,-0.00,-0.52,0.000,-0.075,0.000,0.044,3.141,0.000,0.149,0.000,0.284,-0.15,0.00,-0.10
0.421,takeoff,1,326,263,0.47,0.00,0.00,-0.80,0.00,0.60,-0.00,-0.52,0.000,-0.075,0.000,0.044,3.141,0.000,0.149,0.000,0.284,-0.15,0.00,-0.10
0.437,takeoff,1,326,263,0.47,0.00,0.00,-0.80,0.00,0.61,-0.00,-0.52,0.000,-0.075,0.000,0.041,3.141,0.000,0.146,0.000,0.284,-0.15,0.00,-0.10
0.437,takeoff,1,326,263,0.47,0.00,0.00,-0.80,0.00,0.61,-0.00,-0.53,0.000,-0.076,0.000,0.041,3.141,0.000,0.146,0.000,0.283,-0.16,0.00,-0.11
0.437,takeoff,1,326,263,0.47,0.00,0.00,-0.80,0.00,0.61,-0.00,-0.53,0.000,-0.076,0.000,0.041,3.141,0.000,0.146,0.000,0.283,-0.16,0.00,-0.11
0.437,takeoff,1,326,268,0.50,0.00,0.00,-0.80,0.00,0.61,-0.00,-0.53,0.000,-0.076,0.000,0.041,3.141,0.000,0.146,0.000,0.283,-0.16,0.00,-0.11
0.437,takeoff,1,326,268,0.50,0.00,0.00,-0.80,0.00,0.62,-0.00,-0.53,0.000,-0.076,0.000,0.038,3.141,0.000,0.143,0.000,0.283,-0.16,0.00,-0.11
0.453,takeoff,1,326,268,0.50,0.00,0.00,-0.80,0.00,0.62,-0.00,-0.53,0.000,-0.076,0.000,0.038,3.141,0.000,0.143,0.000,0.283,-0.16,0.00,-0.11
0.453,takeoff,1,326,268,0.50,0.00,0.00,-0.80,0.00,0.62,-0.00,-0.53,0.000,-0.076,0.000,0.038,3.141,0.000,0.143,0.000,0.283,-0.16,0.00,-0.11
0.453,takeoff,1,326,268,0.50,0.00,0.00,-0.80,0.00,0.62,-0.00,-0.53,0.000,-0.076,0.000,0.038,3.141,0.000,0.143,0.000,0.283,-0.16,0.00,-0.11
0.453,takeoff,1,326,268,0.50,0.00,0.00,-0.80,0.00,0.62,-0.00,-0.53,0.000,-0.076,0.000,0.033,3.141,0.000,0.137,0.000,0.283,-0.16,0.00,-0.11
0.453,takeoff,1,326,268,0.50,0.00,0.00,-0.80,0.00,0.62,-0.00,-0.53,0.000,-0.076,0.000,0.033,3.141,0.000,0.137,0.000,0.283,-0.16,0.00,-0.11
0.453,takeoff,1,326,268,0.50,0.00,0.00,-0.80,0.00,0.62,-0.00,-0.53,0.000,-0.076,0.000,0.033,3.141,0.000,0.137,0.000,0.283,-0.16,0.00,-0.11
0.453,takeoff,1,326,268,0.50,0.00,0.00,-0.80,0.00,0.62,-0.00,-0.54,0.000,-0.077,0.000,0.033,3.141,0.000,0.137,0.000,0.282,-0.17,0.00,-0.12
0.468,takeoff,1,326,268,0.50,0.00,0.00,-0.80,0.00,0.62,-0.00,-0.54,0.000,-0.077,0.000,0.030,3.141,0.000,0.134,0.000,0.282,-0.17,0.00,-0.12
0.468,takeoff,1,326,268,0.50,0.00,0.00,-0.80,0.00,0.62,-0.00,-0.54,0.000,-0.077,0.000,0.030,3.141,0.000,0.134,0.000,0.282,-0.17,0.00,-0.12
0.468,takeoff,1,326,268,0.50,0.00,0.00,-0.80,0.00,0.62,-0.00,-0.54,0.000,-0.077,0.000,0.030,3.141,0.000,0.134,0.000,0.282,-0.17,0.00,-0.12
0.468,takeoff,1,326,272,0.50,0.00,0.00,-0.80,0.00,0.62,-0.00,-0.55,0.000,-0.077,0.000,0.028,3.141,0.000,0.131,0.000,0.282,-0.18,0.00,-0.12
0.468,takeoff,1,326,272,0.50,0.00,0.00,-0.80,0.00,0.62,-0.00,-0.55,0.000,-0.077,0.000,0.028,3.141,0.000,0.131,0.000,0.282,-0.18,0.00,-0.12
0.468,takeoff,1,326,272,0.50,0.00,0.00,-0.80,0.00,0.63,-0.00,-0.55,0.000,-0.077,0.000,0.028,3.141,0.000,0.131,0.000,0.282,-0.18,0.00,-0.12
0.468,takeoff,1,326,272,0.50,0.00,0.00,-0.80,0.00,0.63,-0.00,-0.55,0.000,-0.077,0.000,0.028,3.141,0.000,0.131,0.000,0.282,-0.18,0.00,-0.12
0.484,takeoff,1,326,272,0.50,0.00,0.00,-0.80,0.00,0.63,-0.00,-0.55,0.000,-0.077,0.000,0.025,3.141,0.000,0.128,0.000,0.282,-0.18,0.00,-0.12
0.484,takeoff,1,326,272,0.50,0.00,0.00,-0.80,0.00,0.63,-0.00,-0.55,0.000,-0.078,0.000,0.025,3.141,0.000,0.128,0.000,0.282,-0.19,0.00,-0.13
0.484,takeoff,1,326,272,0.50,0.00,0.00,-0.80,0.00,0.63,-0.00,-0.55,0.000,-0.078,0.000,0.025,3.141,0.000,0.128,0.000,0.282,-0.19,0.00,-0.13
0.484,takeoff,1,326,272,0.50,0.00,0.00,-0.80,0.00,0.63,-0.00,-0.55,0.000,-0.078,0.000,0.025,3.141,0.000,0.128,0.000,0.282,-0.19,0.00,-0.13
0.484,takeoff,1,326,272,0.50,0.00,0.00,-0.80,0.00,0.64,-0.00,-0.56,0.000,-0.078,0.000,0.020,3.141,0.000,0.122,0.000,0.281,-0.19,0.00,-0.13
0.484,takeoff,1,326,272,0.50,0.00,0.00,-0.80,0.00,0.64,-0.00,-0.56,0.000,-0.078,0.000,0.020,3.141,0.000,0.122,0.000,0.281,-0.19,0.00,-0.13
0.500,takeoff,1,326,272,0.50,0.00,0.00,-0.80,0.00,0.64,-0.00,-0.56,0.000,-0.078,0.000,0.020,3.141,0.000,0.122,0.000,0.281,-0.19,0.00,-0.13
0.500,takeoff,1,326,272,0.50,0.00,0.00,-0.80,0.00,0.64,-0.00,-0.56,0.000,-0.078,0.000,0.018,3.141,0.000,0.119,0.000,0.281,-0.19,0.00,-0.13
0.500,takeoff,1,326,272,0.50,0.00,0.00,-0.80,0.00,0.64,-0.00,-0.56,0.000,-0.078,0.000,0.018,3.141,0.000,0.119,0.000,0.281,-0.19,0.00,-0.13
0.500,takeoff,1,326,272,0.50,0.00,0.00,-0.80,0.00,0.64,-0.00,-0.57,0.000,-0.078,0.000,0.018,3.141,0.000,0.120,0.000,0.281,-0.20,0.00,-0.14
0.500,takeoff,1,326,272,0.50,0.00,0.00,-0.80,0.00,0.64,-0.00,-0.57,0.000,-0.078,0.000,0.018,3.141,0.000,0.120,0.000,0.281,-0.20,0.00,-0.14
0.500,takeoff,1,326,272,0.50,0.00,0.00,-0.80,0.00,0.64,-0.00,-0.57,0.000,-0.078,0.000,0.015,3.141,0.000,0.117,0.000,0.281,-0.20,0.00,-0.14
0.500,takeoff,1,326,276,0.50,0.00,0.00,-0.80,0.00,0.64,-0.00,-0.57,0.000,-0.078,0.000,0.015,3.141,0.000,0.117,0.000,0.281,-0.20,0.00,-0.14
0.515,takeoff,1,326,276,0.50,0.00,0.00,-0.80,0.00,0.64,-0.00,-0.57,0.000,-0.078,0.000,0.015,3.141,0.000,0.117,0.000,0.281,-0.20,0.00,-0.14
0.515,takeoff,1,326,276,0.50,0.00,0.00,-0.80,0.00,0.64,-0.00,-0.57,0.000,-0.078,0.000,0.013,3.141,0.000,0.114,0.000,0.281,-0.20,0.00,-0.14
0.515,takeoff,1,326,276,0.50,0.00,0.00,-0.80,0.00,0.65,-0.00,-0.57,0.000,-0.078,0.000,0.013,3.141,0.000,0.114,0.000,0.281,-0.20,0.00,-0.14
0.515,takeoff,1,326,276,0.50,0.00,0.00,-0.80,0.00,0.65,-0.00,-0.57,0.000,-0.078,0.000,0.013,3.141,0.000,0.114,0.000,0.281,-0.20,0.00,-0.14
0.515,takeoff,1,326,276,0.50,0.00,0.00,-0.80,0.00,0.65,-0.00,-0.57,0.000,-0.078,0.000,0.013,3.141,0.000,0.114,0.000,0.281,-0.20,0.00,-0.14
0.515,takeoff,1,326,276,0.50,0.00,0.00,-0.80,0.00,0.65,-0.00,-0.58,0.000,-0.078,0.000,0.009,3.141,0.000,0.109,0.000,0.280,-0.21,0.00,-0.15
0.531,takeoff,1,326,276,0.50,0.00,0.00,-0.80,0.00,0.65,-0.00,-0.58,0.000,-0.078,0.000,0.009,3.141,0.000,0.109,0.000,0.280,-0.21,0.00,-0.15
0.531,takeoff,1,326,276,0.50,0.00,0.00,-0.80,0.00,0.65,-0.00,-0.58,0.000,-0.078,0.000,0.009,3.141,0.000,0.109,0.000,0.280,-0.21,0.00,-0.15
0.531,takeoff,1,326,276,0.50,0.00,0.00,-0.80,0.00,0.65,-0.00,-0.58,0.000,-0.078,0.000,0.009,3.141,0.000,0.109,0.000,0.280,-0.21,0.00,-0.15
0.531,takeoff,1,326,276,0.50,0.00,0.00,-0.80,0.00,0.65,-0.00,-0.58,0.000,-0.078,0.000,0.007,3.141,0.000,0.106,0.000,0.280,-0.21,0.00,-0.15
0.531,takeoff,1,326,276,0.50,0.00,0.00,-0.80,0.00,0.65,-0.00,-0.58,0.000,-0.078,0.000,0.007,3.141,0.000,0.106,0.000,0.280,-0.22,0.00,-0.16
0.531,takeoff,1,326,276,0.50,0.00,0.00,-0.80,0.00,0.65,-0.00,-0.58,0.000,-0.078,0.000,0.007,3.141,0.000,0.106,0.000,0.280,-0.22,0.00,-0.16
0.531,takeoff,1,326,276,0.50,0.00,0.00,-0.80,0.00,0.65,-0.00,-0.58,0.000,-0.078,0.000,0.007,3.141,0.000,0.106,0.000,0.280,-0.22,0.00,-0.16
0.546,takeoff,1,326,280,0.49,0.00,0.00,-0.80,0.00,0.65,-0.00,-0.58,0.000,-0.078,0.000,0.005,3.141,0.000,0.104,0.000,0.280,-0.22,0.00,-0.16
0.546,takeoff,1,326,280,0.49,0.00,0.00,-0.80,0.00,0.65,-0.00,-0.59,0.000,-0.078,0.000,0.005,3.141,0.000,0.104,0.000,0.280,-0.23,0.00,-0.16
0.546,takeoff,1,326,280,0.49,0.00,0.00,-0.80,0.00,0.65,-0.00,-0.59,0.000,-0.078,0.000,0.005,3.141,0.000,0.104,0.000,0.280,-0.23,0.00,-0.16
0.546,takeoff,1,326,280,0.49,0.00,0.00,-0.80,0.00,0.65,-0.00,-0.59,0.000,-0.078,0.000,0.005,3.141,0.000,0.104,0.000,0.280,-0.23,0.00,-0.16
0.546,takeoff,1,326,280,0.49,0.00,0.00,-0.80,0.00,0.65,-0.00,-0.59,0.000,-0.078,0.000,0.003,3.141,0.000,0.101,0.000,0.280,-0.23,0.00,-0.16
0.546,takeoff,1,326,280,0.49,0.00,0.00,-0.80,0.00,0.65,-0.00,-0.59,0.000,-0.078,0.000,0.003,3.141,0.000,0.101,0.000,0.280,-0.23,0.00,-0.16
0.546,takeoff,1,326,280,0.49,0.00,0.00,-0.80,0.00,0.65,-0.00,-0.59,0.000,-0.078,0.000,0.003,3.141,0.000,0.101,0.000,0.280,-0.23,0.00,-0.17
0.546,takeoff,1,326,280,0.49,0.00,0.00,-0.80,0.00,0.65,-0.00,-0.59,0.000,-0.078,0.000,0.003,3.141,0.000,0.101,0.000,0.280,-0.23,0.00,-0.17
0.562,takeoff,1,326,280,0.49,0.00,0.00,-0.80,0.00,0.65,-0.00,-0.59,0.000,-0.078,0.000,-0.001,3.141,0.000,0.096,0.000,0.280,-0.23,0.00,-0.17
0.562,takeoff,1,326,280,0.49,0.00,0.00,-0.80,0.00,0.65,-0.00,-0.59,0.000,-0.078,0.000,-0.001,3.141,0.000,0.096,0.000,0.280,-0.23,0.00,-0.17
0.562,takeoff,1,326,280,0.49,0.00,0.00,-0.80,0.00,0.65,-0.00,-0.60,0.000,-0.078,0.000,-0.001,3.141,0.000,0.096,0.000,0.280,-0.24,0.00,-0.18
0.562,takeoff,1,326,280,0.49,0.00,0.00,-0.80,0.00,0.65,-0.00,-0.60,0.000,-0.078,0.000,-0.001,3.141,0.000,0.096,0.000,0.280,-0.24,0.00,-0.18
0.562,takeoff,1,326,280,0.49,0.00,0.00,-0.80,0.00,0.65,-0.00,-0.60,0.000,-0.078,0.000,-0.003,3.141,0.000,0.094,0.000,0.280,-0.24,0.00,-0.18
0.562,takeoff,1,326,280,0.49,0.00,0.00,-0.80,0.00,0.66,-0.00,-0.60,0.000,-0.078,0.000,-0.003,3.141,0.000,0.094,0.000,0.280,-0.24,0.00,-0.18
0.578,takeoff,1,326,280,0.49,0.00,0.00,-0.80,0.00,0.66,-0.00,-0.60,0.000,-0.078,0.000,-0.003,3.141,0.000,0.094,0.000,0.280,-0.24,0.00,-0.18
0.578,takeoff,1,326,280,0.49,0.00,0.00,-0.80,0.00,0.66,-0.00,-0.60,0.000,-0.078,0.000,-0.005,3.141,0.000,0.092,0.000,0.280,-0.24,0.00,-0.18
0.578,takeoff,1,326,284,0.49,0.00,0.00,-0.80,0.00,0.66,-0.00,-0.60,0.000,-0.078,0.000,-0.005,3.141,0.000,0.092,0.000,0.280,-0.24,0.00,-0.18
0.578,takeoff,1,326,284,0.49,0.00,0.00,-0.80,0.00,0.66,-0.00,-0.60,0.000,-0.078,0.000,-0.005,3.141,0.000,0.092,0.000,0.280,-0.24,0.00,-0.18
0.578,takeoff,1,326,284,0.49,0.00,0.00,-0.80,0.00,0.66,-0.00,-0.61,0.000,-0.078,0.000,-0.009,3.141,0.000,0.087,0.000,0.280,-0.25,0.00,-0.19
0.578,takeoff,1,326,284,0.49,0.00,0.00,-0.80,0.00,0.66,-0.00,-0.61,0.000,-0.078,0.000,-0.009,3.141,0.000,0.087,0.000,0.280,-0.25,0.00,-0.19
0.593,takeoff,1,326,284,0.49,0.00,0.00,-0.80,0.00,0.66,-0.00,-0.61,0.000,-0.078,0.000,-0.009,3.141,0.000,0.087,0.000,0.280,-0.25,0.00,-0.19
0.593,takeoff,1,326,284,0.49,0.00,0.00,-0.80,0.00,0.66,-0.00,-0.61,0.000,-0.078,0.000,-0.009,3.141,0.000,0.087,0.000,0.280,-0.25,0.00,-0.19
0.593,takeoff,1,326,284,0.49,0.00,0.00,-0.80,0.00,0.66,-0.00,-0.61,0.000,-0.078,0.000,-0.009,3.141,0.000,0.087,0.000,0.280,-0.25,0.00,-0.19
0.593,takeoff,1,326,284,0.49,0.00,0.00,-0.80,0.00,0.66,-0.00,-0.61,0.000,-0.078,0.000,-0.010,3.141,0.000,0.085,0.000,0.280,-0.26,0.00,-0.19
0.593,takeoff,1,326,284,0.49,0.00,0.00,-0.80,0.00,0.66,-0.00,-0.61,0.000,-0.078,0.000,-0.010,3.141,0.000,0.085,0.000,0.280,-0.26,0.00,-0.19
0.593,takeoff,1,326,284,0.49,0.00,0.00,-0.80,0.00,0.66,-0.00,-0.61,0.000,-0.078,0.000,-0.010,3.141,0.000,0.085,0.000,0.280,-0.26,0.00,-0.19
0.593,takeoff,1,326,284,0.49,0.00,0.00,-0.80,0.00,0.66,-0.00,-0.61,0.000,-0.078,0.000,-0.010,3.141,0.000,0.085,0.000,0.280,-0.26,0.00,-0.19
0.609,takeoff,1,326,284,0.49,0.00,0.00,-0.80,0.00,0.66,-0.00,-0.61,0.000,-0.078,0.000,-0.012,3.141,0.000,0.083,0.000,0.280,-0.26,0.00,-0.19
0.609,takeoff,1,326,284,0.49,0.00,0.00,-0.80,0.00,0.66,-0.00,-0.62,0.000,-0.078,0.000,-0.012,3.141,0.000,0.082,0.000,0.280,-0.27,0.00,-0.20
0.609,takeoff,1,326,284,0.49,0.00,0.00,-0.80,0.00,0.66,-0.00,-0.62,0.000,-0.078,0.000,-0.012,3.141,0.000,0.082,0.000,0.280,-0.27,0.00,-0.20
0.609,takeoff,1,326,288,0.50,0.00,0.00,-0.80,0.00,0.66,-0.00,-0.62,0.000,-0.078,0.000,-0.015,3.141,0.000,0.078,0.000,0.280,-0.27,0.00,-0.20
0.609,takeoff,1,326,288,0.50,0.00,0.00,-0.80,0.00,0.66,-0.00,-0.63,0.000,-0.078,0.000,-0.015,3.141,0.000,0.078,0.000,0.280,-0.27,0.00,-0.21
0.625,takeoff,1,326,288,0.50,0.00,0.00,-0.80,0.00,0.66,-0.00,-0.63,0.000,-0.078,0.000,-0.017,3.141,0.000,0.076,0.000,0.280,-0.27,0.00,-0.21
0.625,takeoff,1,326,288,0.50,0.00,0.00,-0.80,0.00,0.66,-0.00,-0.63,0.000,-0.078,0.000,-0.017,3.141,0.000,0.076,0.000,0.280,-0.27,0.00,-0.21
0.625,takeoff,1,326,288,0.50,0.00,0.00,-0.80,0.00,0.66,-0.00,-0.63,0.000,-0.078,0.000,-0.017,3.141,0.000,0.076,0.000,0.280,-0.27,0.00,-0.21
0.625,takeoff,1,326,288,0.50,0.00,0.00,-0.80,0.00,0.66,-0.00,-0.63,0.000,-0.077,0.000,-0.018,3.141,0.000,0.074,0.000,0.280,-0.28,0.00,-0.22
0.625,takeoff,1,326,288,0.50,0.00,0.00,-0.80,0.00,0.66,-0.00,-0.63,0.000,-0.077,0.000,-0.018,3.141,0.000,0.074,0.000,0.280,-0.28,0.00,-0.22
0.625,takeoff,1,326,288,0.50,0.00,0.00,-0.80,0.00,0.66,-0.00,-0.63,0.000,-0.077,0.000,-0.018,3.141,0.000,0.074,0.000,0.280,-0.28,0.00,-0.22
0.640,takeoff,1,326,288,0.50,0.00,0.00,-0.80,0.00,0.66,-0.00,-0.63,0.000,-0.077,0.000,-0.018,3.141,0.000,0.074,0.000,0.280,-0.28,0.00,-0.22
0.640,takeoff,1,326,288,0.50,0.00,0.00,-0.80,0.00,0.66,-0.00,-0.64,0.000,-0.077,0.000,-0.020,3.141,0.000,0.072,0.000,0.280,-0.28,0.00,-0.22
0.640,takeoff,1,326,290,0.50,0.00,0.00,-0.80,0.00,0.66,-0.00,-0.64,0.000,-0.077,0.000,-0.020,3.141,0.000,0.072,0.000,0.280,-0.28,0.00,-0.22
0.640,takeoff,1,326,290,0.50,0.00,0.00,-0.80,0.00,0.66,-0.00,-0.64,0.000,-0.077,0.000,-0.020,3.141,0.000,0.072,0.000,0.280,-0.28,0.00,-0.22
0.640,takeoff,1,326,290,0.50,0.00,0.00,-0.80,0.00,0.66,-0.00,-0.64,0.000,-0.077,0.000,-0.020,3.141,0.000,0.072,0.000,0.280,-0.28,0.00,-0.22
0.640,takeoff,1,326,290,0.50,0.00,0.00,-0.80,0.00,0.66,-0.00,-0.64,0.000,-0.077,0.000,-0.021,3.141,0.000,0.070,0.000,0.280,-0.28,0.00,-0.22
0.640,takeoff,1,326,290,0.50,0.00,0.00,-0.80,0.00,0.66,-0.00,-0.65,0.000,-0.077,0.000,-0.021,3.141,0.000,0.070,0.000,0.280,-0.29,0.00,-0.22
0.656,takeoff,1,326,290,0.50,0.00,0.00,-0.80,0.00,0.66,-0.00,-0.65,0.000,-0.077,0.000,-0.021,3.141,0.000,0.070,0.000,0.280,-0.29,0.00,-0.22
0.656,takeoff,1,326,290,0.50,0.00,0.00,-0.80,0.00,0.65,-0.00,-0.65,0.000,-0.077,0.000,-0.021,3.141,0.000,0.070,0.000,0.280,-0.29,0.00,-0.22
0.656,takeoff,1,326,290,0.50,0.00,0.00,-0.80,0.00,0.65,-0.00,-0.65,0.000,-0.077,0.000,-0.024,3.141,0.000,0.066,0.000,0.280,-0.29,0.00,-0.22
0.656,takeoff,1,326,290,0.50,0.00,0.00,-0.80,0.00,0.65,-0.00,-0.65,0.000,-0.077,0.000,-0.024,3.141,0.000,0.066,0.000,0.280,-0.29,0.00,-0.22
0.656,takeoff,1,326,290,0.50,0.00,0.00,-0.80,0.00,0.65,-0.00,-0.65,0.000,-0.077,0.000,-0.024,3.141,0.000,0.066,0.000,0.280,-0.30,0.00,-0.23
0.656,takeoff,1,326,290,0.50,0.00,0.00,-0.80,0.00,0.65,-0.00,-0.65,0.000,-0.077,0.000,-0.024,3.141,0.000,0.066,0.000,0.280,-0.30,0.00,-0.23
0.656,takeoff,1,326,290,0.50,0.00,0.00,-0.80,0.00,0.65,-0.00,-0.65,0.000,-0.077,0.000,-0.025,3.141,0.000,0.064,0.000,0.280,-0.30,0.00,-0.23
0.671,takeoff,1,326,290,0.50,0.00,0.00,-0.80,0.00,0.65,-0.00,-0.65,0.000,-0.077,0.000,-0.025,3.141,0.000,0.064,0.000,0.280,-0.30,0.00,-0.23
0.671,takeoff,1,326,290,0.50,0.00,0.00,-0.80,0.00,0.65,-0.00,-0.66,0.000,-0.076,0.000,-0.025,3.141,0.000,0.064,0.000,0.280,-0.31,0.00,-0.24
0.671,takeoff,1,326,290,0.50,0.00,0.00,-0.80,0.00,0.65,-0.00,-0.66,0.000,-0.076,0.000,-0.025,3.141,0.000,0.064,0.000,0.280,-0.31,0.00,-0.24
0.671,takeoff,1,326,293,0.49,0.00,0.00,-0.80,0.00,0.65,-0.00,-0.66,0.000,-0.076,0.000,-0.026,3.141,0.000,0.062,0.000,0.280,-0.31,0.00,-0.24
0.671,takeoff,1,326,293,0.49,0.00,0.00,-0.80,0.00,0.65,-0.00,-0.66,0.000,-0.076,0.000,-0.026,3.141,0.000,0.062,0.000,0.280,-0.31,0.00,-0.24
0.671,takeoff,1,326,293,0.49,0.00,0.00,-0.80,0.00,0.65,-0.00,-0.67,0.000,-0.076,0.000,-0.026,3.141,0.000,0.062,0.000,0.280,-0.31,0.00,-0.25
0.671,takeoff,1,326,293,0.49,0.00,0.00,-0.80,0.00,0.65,-0.00,-0.67,0.000,-0.076,0.000,-0.026,3.141,0.000,0.062,0.000,0.280,-0.31,0.00,-0.25
0.687,takeoff,1,326,293,0.49,0.00,0.00,-0.80,0.00,0.65,-0.00,-0.67,0.000,-0.076,0.000,-0.029,3.141,0.000,0.059,0.000,0.280,-0.31,0.00,-0.25
0.687,takeoff,1,326,293,0.49,0.00,0.00,-0.80,0.00,0.65,-0.00,-0.67,0.000,-0.076,0.000,-0.029,3.141,0.000,0.059,0.000,0.280,-0.31,0.00,-0.25
0.687,takeoff,1,326,293,0.49,0.00,0.00,-0.80,0.00,0.65,-0.00,-0.67,0.000,-0.076,0.000,-0.029,3.141,0.000,0.059,0.000,0.280,-0.31,0.00,-0.25
0.687,takeoff,1,326,293,0.49,0.00,0.00,-0.80,0.00,0.65,-0.00,-0.67,0.000,-0.075,0.000,-0.030,3.141,0.000,0.056,0.000,0.280,-0.32,0.00,-0.26
0.687,takeoff,1,326,293,0.49,0.00,0.00,-0.80,0.00,0.65,-0.00,-0.67,0.000,-0.075,0.000,-0.030,3.141,0.000,0.056,0.000,0.280,-0.32,0.00,-0.26
0.687,takeoff,1,326,293,0.49,0.00,0.00,-0.80,0.00,0.65,-0.00,-0.67,0.000,-0.075,0.000,-0.030,3.141,0.000,0.056,0.000,0.280,-0.32,0.00,-0.26
0.687,takeoff,1,326,293,0.49,0.00,0.00,-0.80,0.00,0.65,-0.00,-0.67,0.000,-0.075,0.000,-0.030,3.141,0.000,0.056,0.000,0.280,-0.32,0.00,-0.26
0.703,takeoff,1,326,293,0.49,0.00,0.00,-0.80,0.00,0.65,-0.00,-0.67,0.000,-0.075,0.000,-0.030,3.141,0.000,0.056,0.000,0.280,-0.32,0.00,-0.26
0.703,takeoff,1,326,293,0.49,0.00,0.00,-0.80,0.00,0.65,-0.00,-0.68,0.000,-0.075,0.000,-0.031,3.141,0.000,0.055,0.000,0.280,-0.32,0.00,-0.26
0.703,takeoff,1,326,293,0.49,0.00,0.00,-0.80,0.00,0.65,-0.00,-0.68,0.000,-0.075,0.000,-0.031,3.141,0.000,0.055,0.000,0.280,-0.32,0.00,-0.26
0.703,takeoff,1,326,293,0.49,0.00,0.00,-0.80,0.00,0.65,-0.00,-0.68,0.000,-0.075,0.000,-0.031,3.141,0.000,0.055,0.000,0.280,-0.32,0.00,-0.26
0.703,takeoff,1,326,296,0.49,0.00,0.00,-0.80,0.00,0.65,-0.00,-0.68,0.000,-0.075,0.000,-0.031,3.141,0.000,0.055,0.000,0.280,-0.32,0.00,-0.26
0.703,takeoff,1,326,296,0.49,0.00,0.00,-0.80,0.00,0.65,-0.00,-0.68,0.000,-0.075,0.000,-0.033,3.141,0.000,0.053,0.000,0.280,-0.32,0.00,-0.26
0.703,takeoff,1,326,296,0.49,0.00,0.00,-0.80,0.00,0.65,-0.00,-0.69,0.000,-0.075,0.000,-0.033,3.141,0.000,0.052,0.000,0.280,-0.33,0.00,-0.27
0.718,takeoff,1,326,296,0.49,0.00,0.00,-0.80,0.00,0.65,-0.00,-0.69,0.000,-0.075,0.000,-0.033,3.141,0.000,0.052,0.000,0.280,-0.33,0.00,-0.27
0.718,takeoff,1,326,296,0.49,0.00,0.00,-0.80,0.00,0.65,-0.00,-0.69,0.000,-0.075,0.000,-0.035,3.141,0.000,0.050,0.000,0.280,-0.33,0.00,-0.27
0.718,takeoff,1,326,296,0.49,0.00,0.00,-0.80,0.00,0.65,-0.00,-0.69,0.000,-0.075,0.000,-0.035,3.141,0.000,0.050,0.000,0.280,-0.33,0.00,-0.27
0.718,takeoff,1,326,296,0.49,0.00,0.00,-0.80,0.00,0.64,-0.00,-0.69,0.000,-0.074,0.000,-0.035,3.141,0.000,0.049,0.000,0.280,-0.34,0.00,-0.28
0.718,takeoff,1,326,296,0.49,0.00,0.00,-0.80,0.00,0.64,-0.00,-0.69,0.000,-0.074,0.000,-0.036,3.141,0.000,0.048,0.000,0.280,-0.34,0.00,-0.28
0.734,takeoff,1,326,296,0.49,0.00,0.00,-0.80,0.00,0.64,-0.00,-0.69,0.000,-0.074,0.000,-0.036,3.141,0.000,0.048,0.000,0.280,-0.34,0.00,-0.28
0.734,takeoff,1,326,296,0.49,0.00,0.00,-0.80,0.00,0.64,-0.00,-0.69,0.000,-0.074,0.000,-0.036,3.141,0.000,0.048,0.000,0.280,-0.34,0.00,-0.28
0.734,takeoff,1,326,296,0.49,0.00,0.00,-0.80,0.00,0.64,-0.00,-0.70,0.000,-0.074,0.000,-0.036,3.141,0.000,0.047,0.000,0.280,-0.35,0.00,-0.29
0.734,takeoff,1,326,296,0.49,0.00,0.00,-0.80,0.00,0.64,-0.00,-0.70,0.000,-0.074,0.000,-0.037,3.141,0.000,0.046,0.000,0.280,-0.35,0.00,-0.29
0.734,takeoff,1,326,296,0.49,0.00,0.00,-0.80,0.00,0.64,-0.00,-0.70,0.000,-0.074,0.000,-0.037,3.141,0.000,0.046,0.000,0.280,-0.35,0.00,-0.29
0.734,takeoff,1,326,296,0.49,0.00,0.00,-0.80,0.00,0.64,-0.00,-0.70,0.000,-0.074,0.000,-0.037,3.141,0.000,0.046,0.000,0.280,-0.35,0.00,-0.29
0.734,takeoff,1,326,297,0.49,0.00,0.00,-0.80,0.00,0.64,-0.00,-0.70,0.000,-0.074,0.000,-0.037,3.141,0.000,0.046,0.000,0.280,-0.35,0.00,-0.29
0.750,takeoff,1,326,297,0.49,0.00,0.00,-0.80,0.00,0.64,-0.00,-0.71,0.000,-0.073,0.000,-0.039,3.141,0.000,0.043,0.000,0.280,-0.35,0.00,-0.29
0.750,takeoff,1,326,297,0.49,0.00,0.00,-0.80,0.00,0.64,-0.00,-0.71,0.000,-0.073,0.000,-0.039,3.141,0.000,0.043,0.000,0.280,-0.35,0.00,-0.29
0.750,takeoff,1,326,297,0.49,0.00,0.00,-0.80,0.00,0.64,-0.00,-0.71,0.000,-0.073,0.000,-0.039,3.141,0.000,0.043,0.000,0.280,-0.35,0.00,-0.29
0.750,takeoff,1,326,297,0.49,0.00,0.00,-0.80,0.00,0.63,-0.00,-0.71,0.000,-0.073,0.000,-0.039,3.141,0.000,0.043,0.000,0.280,-0.35,0.00,-0.29
0.750,takeoff,1,326,297,0.49,0.00,0.00,-0.80,0.00,0.63,-0.00,-0.71,0.000,-0.073,0.000,-0.040,3.141,0.000,0.042,0.000,0.280,-0.35,0.00,-0.29
0.750,takeoff,1,326,297,0.49,0.00,0.00,-0.80,0.00,0.63,-0.00,-0.72,0.000,-0.073,0.000,-0.040,3.141,0.000,0.041,0.000,0.280,-0.36,0.00,-0.30
0.750,takeoff,1,326,297,0.49,0.00,0.00,-0.80,0.00,0.63,-0.00,-0.72,0.000,-0.073,0.000,-0.040,3.141,0.000,0.041,0.000,0.280,-0.36,0.00,-0.30
0.750,takeoff,1,326,297,0.49,0.00,0.00,-0.80,0.00,0.63,-0.00,-0.72,0.000,-0.073,0.000,-0.040,3.141,0.000,0.041,0.000,0.280,-0.36,0.00,-0.30
0.765,takeoff,1,326,297,0.49,0.00,0.00,-0.80,0.00,0.63,-0.00,-0.72,0.000,-0.073,0.000,-0.040,3.141,0.000,0.041,0.000,0.280,-0.36,0.00,-0.30
0.765,takeoff,1,326,297,0.49,0.00,0.00,-0.80,0.00,0.63,-0.00,-0.72,0.000,-0.073,0.000,-0.040,3.141,0.000,0.040,0.000,0.280,-0.36,0.00,-0.30
0.765,takeoff,1,326,297,0.49,0.00,0.00,-0.80,0.00,0.63,-0.00,-0.72,0.000,-0.072,0.000,-0.040,3.141,0.000,0.039,0.000,0.280,-0.37,0.00,-0.31
0.765,takeoff,1,326,297,0.49,0.00,0.00,-0.80,0.00,0.63,-0.00,-0.72,0.000,-0.072,0.000,-0.040,3.141,0.000,0.039,0.000,0.280,-0.37,0.00,-0.31
0.765,takeoff,1,326,297,0.49,0.00,0.00,-0.80,0.00,0.63,-0.00,-0.72,0.000,-0.072,0.000,-0.040,3.141,0.000,0.039,0.000,0.280,-0.37,0.00,-0.31
0.765,takeoff,1,326,297,0.49,0.00,0.00,-0.80,0.00,0.63,-0.00,-0.72,0.000,-0.072,0.000,-0.041,3.141,0.000,0.038,0.000,0.280,-0.37,0.00,-0.31
0.765,takeoff,1,326,297,0.49,0.00,0.00,-0.80,0.00,0.63,-0.00,-0.72,0.000,-0.072,0.000,-0.041,3.141,0.000,0.038,0.000,0.280,-0.37,0.00,-0.31
0.781,takeoff,1,326,297,0.49,0.00,0.00,-0.80,0.00,0.63,-0.00,-0.73,0.000,-0.071,0.000,-0.041,3.141,0.000,0.038,0.000,0.280,-0.37,0.00,-0.31
0.781,takeoff,1,326,299,0.49,0.00,0.00,-0.80,0.00,0.63,-0.00,-0.73,0.000,-0.071,0.000,-0.042,3.141,0.000,0.037,0.000,0.280,-0.37,0.00,-0.31
0.781,takeoff,1,326,299,0.49,0.00,0.00,-0.80,0.00,0.63,-0.00,-0.73,0.000,-0.071,0.000,-0.042,3.141,0.000,0.037,0.000,0.280,-0.37,0.00,-0.31
0.781,takeoff,1,326,299,0.49,0.00,0.00,-0.80,0.00,0.63,-0.00,-0.74,0.000,-0.071,0.000,-0.042,3.141,0.000,0.036,0.000,0.280,-0.38,0.00,-0.33
0.781,takeoff,1,326,299,0.49,0.00,0.00,-0.80,0.00,0.63,-0.00,-0.74,0.000,-0.071,0.000,-0.044,3.141,0.000,0.034,0.000,0.280,-0.38,0.00,-0.33
0.796,takeoff,1,326,299,0.49,0.00,0.00,-0.80,0.00,0.62,-0.00,-0.74,0.000,-0.071,0.000,-0.044,3.141,0.000,0.034,0.000,0.280,-0.38,0.00,-0.33
0.796,takeoff,1,326,299,0.49,0.00,0.00,-0.80,0.00,0.62,-0.00,-0.74,0.000,-0.071,0.000,-0.044,3.141,0.000,0.034,0.000,0.280,-0.38,0.00,-0.33
0.796,takeoff,1,326,299,0.49,0.00,0.00,-0.80,0.00,0.62,-0.00,-0.74,0.000,-0.070,0.000,-0.044,3.141,0.000,0.032,0.000,0.280,-0.38,0.00,-0.33
0.796,takeoff,1,326,299,0.49,0.00,0.00,-0.80,0.00,0.62,-0.00,-0.74,0.000,-0.070,0.000,-0.044,3.141,0.000,0.032,0.000,0.280,-0.38,0.00,-0.33
0.796,takeoff,1,326,299,0.49,0.00,0.00,-0.80,0.00,0.62,-0.00,-0.74,0.000,-0.070,0.000,-0.044,3.141,0.000,0.032,0.000,0.280,-0.38,0.00,-0.33
0.796,takeoff,1,326,299,0.49,0.00,0.00,-0.80,0.00,0.62,-0.00,-0.74,0.000,-0.070,0.000,-0.044,3.141,0.000,0.032,0.000,0.280,-0.38,0.00,-0.33
0.796,takeoff,1,326,300,0.49,0.00,0.00,-0.80,0.00,0.62,-0.00,-0.74,0.000,-0.070,0.000,-0.045,3.141,0.000,0.031,0.000,0.280,-0.38,0.00,-0.33
0.812,takeoff,1,326,300,0.49,0.00,0.00,-0.80,0.00,0.62,-0.00,-0.74,0.000,-0.070,0.000,-0.045,3.141,0.000,0.031,0.000,0.280,-0.38,0.00,-0.33
0.812,takeoff,1,326,300,0.49,0.00,0.00,-0.80,0.00,0.62,-0.00,-0.75,0.000,-0.069,0.000,-0.045,3.141,0.000,0.030,0.000,0.280,-0.39,0.00,-0.34
0.812,takeoff,1,326,300,0.49,0.00,0.00,-0.80,0.00,0.62,-0.00,-0.75,0.000,-0.069,0.000,-0.045,3.141,0.000,0.030,0.000,0.280,-0.39,0.00,-0.34
0.812,takeoff,1,326,300,0.49,0.00,0.00,-0.80,0.00,0.62,-0.00,-0.75,0.000,-0.069,0.000,-0.046,3.141,0.000,0.029,0.000,0.280,-0.39,0.00,-0.34
0.812,takeoff,1,326,300,0.49,0.00,0.00,-0.80,0.00,0.62,-0.00,-0.75,0.000,-0.069,0.000,-0.046,3.141,0.000,0.029,0.000,0.280,-0.39,0.00,-0.34
0.812,takeoff,1,326,300,0.49,0.00,0.00,-0.80,0.00,0.61,-0.00,-0.76,0.000,-0.069,0.000,-0.046,3.141,0.000,0.028,0.000,0.280,-0.40,0.00,-0.35
0.812,takeoff,1,326,300,0.49,0.00,0.00,-0.80,0.00,0.61,-0.00,-0.76,0.000,-0.069,0.000,-0.046,3.141,0.000,0.028,0.000,0.280,-0.40,0.00,-0.35
0.828,takeoff,1,326,300,0.49,0.00,0.00,-0.80,0.00,0.61,-0.00,-0.76,0.000,-0.069,0.000,-0.047,3.141,0.000,0.027,0.000,0.280,-0.40,0.00,-0.35
0.828,takeoff,1,326,300,0.49,0.00,0.00,-0.80,0.00,0.61,-0.00,-0.76,0.000,-0.069,0.000,-0.047,3.141,0.000,0.027,0.000,0.280,-0.40,0.00,-0.35
0.828,takeoff,1,326,300,0.49,0.00,0.00,-0.80,0.00,0.61,-0.00,-0.76,0.000,-0.069,0.000,-0.047,3.141,0.000,0.027,0.000,0.280,-0.40,0.00,-0.35
0.828,takeoff,1,326,300,0.49,0.00,0.00,-0.80,0.00,0.61,-0.00,-0.77,0.000,-0.068,0.000,-0.047,3.141,0.000,0.026,0.000,0.280,-0.40,0.00,-0.36
0.828,takeoff,1,326,300,0.49,0.00,0.00,-0.80,0.00,0.60,-0.00,-0.77,0.000,-0.068,0.000,-0.048,3.141,0.000,0.026,0.000,0.280,-0.40,0.00,-0.36
0.828,takeoff,1,326,300,0.49,0.00,0.00,-0.80,0.00,0.60,-0.00,-0.77,0.000,-0.068,0.000,-0.048,3.141,0.000,0.026,0.000,0.280,-0.40,0.00,-0.36
0.828,takeoff,1,326,300,0.49,0.00,0.00,-0.80,0.00,0.60,-0.00,-0.77,0.000,-0.068,0.000,-0.048,3.141,0.000,0.026,0.000,0.280,-0.40,0.00,-0.36
0.843,takeoff,1,326,300,0.49,0.00,0.00,-0.80,0.00,0.60,-0.00,-0.77,0.000,-0.068,0.000,-0.048,3.141,0.000,0.026,0.000,0.280,-0.40,0.00,-0.36
0.843,takeoff,1,326,300,0.49,0.00,0.00,-0.80,0.00,0.60,-0.00,-0.77,0.000,-0.068,0.000,-0.048,3.141,0.000,0.024,0.000,0.280,-0.41,0.00,-0.36
0.843,takeoff,1,325,302,0.48,0.00,0.00,-0.80,0.00,0.60,-0.00,-0.77,0.000,-0.068,0.000,-0.048,3.141,0.000,0.024,0.000,0.280,-0.41,0.00,-0.36
0.843,takeoff,1,325,302,0.48,0.00,0.00,-0.80,0.00,0.60,-0.00,-0.77,0.000,-0.068,0.000,-0.048,3.141,0.000,0.024,0.000,0.280,-0.41,0.00,-0.36
0.843,takeoff,1,325,302,0.48,0.00,0.00,-0.80,0.00,0.60,-0.00,-0.77,0.000,-0.068,0.000,-0.048,3.141,0.000,0.024,0.000,0.280,-0.41,0.00,-0.36
0.843,takeoff,1,325,302,0.48,0.00,0.00,-0.80,0.00,0.60,-0.00,-0.77,0.000,-0.068,0.000,-0.049,3.141,0.000,0.024,0.000,0.280,-0.41,0.00,-0.36
0.843,takeoff,1,325,302,0.48,0.00,0.00,-0.80,0.00,0.60,-0.00,-0.78,0.000,-0.067,0.000,-0.049,3.141,0.000,0.022,0.000,0.280,-0.42,0.00,-0.37
0.843,takeoff,1,325,302,0.48,0.00,0.00,-0.80,0.00,0.60,-0.00,-0.78,0.000,-0.067,0.000,-0.049,3.141,0.000,0.022,0.000,0.280,-0.42,0.00,-0.37
0.859,takeoff,1,325,302,0.48,0.00,0.00,-0.80,0.00,0.60,-0.00,-0.78,0.000,-0.067,0.000,-0.049,3.141,0.000,0.022,0.000,0.280,-0.42,0.00,-0.37
0.859,takeoff,1,325,302,0.48,0.00,0.00,-0.80,0.00,0.60,-0.00,-0.78,0.000,-0.067,0.000,-0.049,3.141,0.000,0.022,0.000,0.280,-0.42,0.00,-0.37
0.859,takeoff,1,325,302,0.48,0.00,0.00,-0.80,0.00,0.60,-0.00,-0.78,0.000,-0.067,0.000,-0.050,3.141,0.000,0.021,0.000,0.280,-0.42,0.00,-0.37
0.859,takeoff,1,325,302,0.48,0.00,0.00,-0.80,0.00,0.59,-0.00,-0.78,0.000,-0.066,0.000,-0.050,3.141,0.000,0.021,0.000,0.280,-0.42,0.00,-0.38
0.859,takeoff,1,325,302,0.48,0.00,0.00,-0.80,0.00,0.59,-0.00,-0.78,0.000,-0.066,0.000,-0.050,3.141,0.000,0.021,0.000,0.280,-0.42,0.00,-0.38
0.859,takeoff,1,325,302,0.48,0.00,0.00,-0.80,0.00,0.59,-0.00,-0.78,0.000,-0.066,0.000,-0.050,3.141,0.000,0.021,0.000,0.280,-0.42,0.00,-0.38
0.859,takeoff,1,325,302,0.48,0.00,0.00,-0.80,0.00,0.59,-0.00,-0.78,0.000,-0.066,0.000,-0.050,3.141,0.000,0.020,0.000,0.280,-0.42,0.00,-0.38
0.859,takeoff,1,325,302,0.48,0.00,0.00,-0.80,0.00,0.59,-0.00,-0.78,0.000,-0.066,0.000,-0.050,3.141,0.000,0.020,0.000,0.280,-0.42,0.00,-0.38
0.875,takeoff,1,325,302,0.48,0.00,0.00,-0.80,0.00,0.59,-0.00,-0.79,0.000,-0.065,0.000,-0.050,3.141,0.000,0.019,0.000,0.280,-0.43,0.00,-0.39
0.875,takeoff,1,325,302,0.48,0.00,0.00,-0.80,0.00,0.59,-0.00,-0.79,0.000,-0.065,0.000,-0.050,3.141,0.000,0.019,0.000,0.280,-0.43,0.00,-0.39
0.875,takeoff,1,325,299,0.42,0.00,0.00,-0.80,0.00,0.58,-0.00,-0.79,0.000,-0.065,0.000,-0.051,3.141,0.000,0.018,0.000,0.280,-0.43,0.00,-0.39
0.875,takeoff,1,325,299,0.42,0.00,0.00,-0.80,0.00,0.58,-0.00,-0.79,0.000,-0.065,0.000,-0.051,3.141,0.000,0.018,0.000,0.280,-0.43,0.00,-0.39
0.875,takeoff,1,325,299,0.42,0.00,0.00,-0.80,0.00,0.58,-0.00,-0.80,0.000,-0.065,0.000,-0.051,3.141,0.000,0.018,0.000,0.280,-0.43,0.00,-0.40
0.875,takeoff,1,325,299,0.42,0.00,0.00,-0.80,0.00,0.58,-0.00,-0.80,0.000,-0.065,0.000,-0.051,3.141,0.000,0.018,0.000,0.280,-0.43,0.00,-0.40
0.890,takeoff,1,325,299,0.42,0.00,0.00,-0.80,0.00,0.58,-0.00,-0.80,0.000,-0.065,0.000,-0.052,3.141,0.000,0.017,0.000,0.280,-0.43,0.00,-0.40
0.890,takeoff,1,325,299,0.42,0.00,0.00,-0.80,0.00,0.58,-0.00,-0.80,0.000,-0.065,0.000,-0.052,3.141,0.000,0.017,0.000,0.280,-0.43,0.00,-0.40
0.890,takeoff,1,325,299,0.42,0.00,0.00,-0.80,0.00,0.58,-0.00,-0.80,0.000,-0.065,0.000,-0.052,3.141,0.000,0.017,0.000,0.280,-0.43,0.00,-0.40
0.890,takeoff,1,325,299,0.42,0.00,0.00,-0.80,0.00,0.58,-0.00,-0.81,0.000,-0.064,0.000,-0.052,3.141,0.000,0.015,0.000,0.280,-0.44,0.00,-0.41
0.890,takeoff,1,325,299,0.42,0.00,0.00,-0.80,0.00,0.58,-0.00,-0.81,0.000,-0.064,0.000,-0.052,3.141,0.000,0.015,0.000,0.280,-0.44,0.00,-0.41
0.890,takeoff,1,325,299,0.42,0.00,0.00,-0.80,0.00,0.58,-0.00,-0.81,0.000,-0.064,0.000,-0.052,3.141,0.000,0.015,0.000,0.280,-0.44,0.00,-0.41
0.906,takeoff,1,325,299,0.42,0.00,0.00,-0.80,0.00,0.57,-0.00,-0.81,0.000,-0.064,0.000,-0.052,3.141,0.000,0.014,0.000,0.280,-0.44,0.00,-0.41
0.906,takeoff,1,325,299,0.42,0.00,0.00,-0.80,0.00,0.57,-0.00,-0.81,0.000,-0.064,0.000,-0.052,3.141,0.000,0.014,0.000,0.280,-0.44,0.00,-0.41
0.906,takeoff,1,325,299,0.42,0.00,0.00,-0.80,0.00,0.57,-0.00,-0.81,0.000,-0.064,0.000,-0.052,3.141,0.000,0.014,0.000,0.280,-0.44,0.00,-0.41
0.906,takeoff,1,325,299,0.42,0.00,0.00,-0.80,0.00,0.57,-0.00,-0.81,0.000,-0.064,0.000,-0.052,3.141,0.000,0.014,0.000,0.280,-0.44,0.00,-0.41
0.906,takeoff,1,325,292,0.26,0.00,0.00,-0.80,0.00,0.57,-0.00,-0.81,0.000,-0.064,0.000,-0.053,3.141,0.000,0.013,0.000,0.280,-0.44,0.00,-0.41
0.906,takeoff,1,325,292,0.26,0.00,0.00,-0.80,0.00,0.57,-0.00,-0.82,0.000,-0.063,0.000,-0.053,3.141,0.000,0.012,0.000,0.280,-0.45,0.00,-0.42
0.906,takeoff,1,325,292,0.26,0.00,0.00,-0.80,0.00,0.56,-0.00,-0.82,0.000,-0.063,0.000,-0.053,3.141,0.000,0.012,0.000,0.280,-0.45,0.00,-0.42
0.921,takeoff,1,325,292,0.26,0.00,0.00,-0.80,0.00,0.56,-0.00,-0.82,0.000,-0.063,0.000,-0.053,3.141,0.000,0.012,0.000,0.280,-0.45,0.00,-0.42
0.921,takeoff,1,325,292,0.26,0.00,0.00,-0.80,0.00,0.56,-0.00,-0.82,0.000,-0.063,0.000,-0.054,3.141,0.000,0.011,0.000,0.280,-0.45,0.00,-0.42
0.921,takeoff,1,325,292,0.26,0.00,0.00,-0.80,0.00,0.56,-0.00,-0.82,0.000,-0.063,0.000,-0.054,3.141,0.000,0.011,0.000,0.280,-0.45,0.00,-0.42
0.921,takeoff,1,325,292,0.26,0.00,0.00,-0.80,0.00,0.56,-0.00,-0.82,0.000,-0.062,0.000,-0.054,3.141,0.000,0.011,0.000,0.280,-0.45,0.00,-0.43
0.921,takeoff,1,325,292,0.26,0.00,0.00,-0.80,0.00,0.56,-0.00,-0.82,0.000,-0.062,0.000,-0.054,3.141,0.000,0.011,0.000,0.280,-0.45,0.00,-0.43
0.921,takeoff,1,325,292,0.26,0.00,0.00,-0.80,0.00,0.56,-0.00,-0.82,0.000,-0.062,0.000,-0.054,3.141,0.000,0.010,0.000,0.280,-0.45,0.00,-0.43
0.921,takeoff,1,325,292,0.26,0.00,0.00,-0.80,0.00,0.56,-0.00,-0.82,0.000,-0.062,0.000,-0.054,3.141,0.000,0.010,0.000,0.280,-0.45,0.00,-0.43
0.937,takeoff,1,325,292,0.26,0.00,0.00,-0.80,0.00,0.56,-0.00,-0.82,0.000,-0.062,0.000,-0.054,3.141,0.000,0.010,0.000,0.280,-0.45,0.00,-0.43
0.937,takeoff,1,325,292,0.26,0.00,0.00,-0.80,0.00,0.56,-0.00,-0.83,0.000,-0.061,0.000,-0.054,3.141,0.000,0.009,0.000,0.280,-0.46,0.00,-0.44
0.937,takeoff,0,0,0,0.00,0.00,0.00,-0.80,0.00,0.56,-0.00,-0.83,0.000,-0.061,0.000,-0.054,3.141,0.000,0.009,0.000,0.280,-0.46,0.00,-0.44
0.937,takeoff,0,0,0,0.00,0.00,0.00,-0.80,0.00,0.56,-0.00,-0.83,0.000,-0.061,0.000,-0.054,3.141,0.000,0.009,0.000,0.280,-0.46,0.00,-0.44
0.937,takeoff,0,0,0,0.00,0.00,0.00,-0.80,0.00,0.56,-0.00,-0.83,0.000,-0.061,0.000,-0.054,3.141,0.000,0.009,0.000,0.280,-0.46,0.00,-0.44
0.937,takeoff,0,0,0,0.00,0.00,0.00,-0.80,0.00,0.55,-0.00,-0.83,0.000,-0.061,0.000,-0.054,3.141,0.000,0.009,0.000,0.280,-0.46,0.00,-0.44
0.937,takeoff,0,0,0,0.00,0.00,0.00,-0.80,0.00,0.55,-0.00,-0.84,0.000,-0.061,0.000,-0.054,3.141,0.000,0.008,0.000,0.280,-0.46,0.00,-0.45
0.953,takeoff,0,0,0,0.00,0.00,0.00,-0.80,0.00,0.55,-0.00,-0.84,0.000,-0.061,0.000,-0.055,3.141,0.000,0.008,0.000,0.280,-0.46,0.00,-0.45
0.953,takeoff,0,0,0,0.00,0.00,0.00,-0.80,0.00,0.55,-0.00,-0.84,0.000,-0.061,0.000,-0.055,3.141,0.000,0.008,0.000,0.280,-0.46,0.00,-0.45
0.953,takeoff,0,0,0,0.00,0.00,0.00,-0.80,0.00,0.55,-0.00,-0.84,0.000,-0.061,0.000,-0.055,3.141,0.000,0.008,0.000,0.280,-0.46,0.00,-0.45
0.953,takeoff,0,0,0,0.00,0.00,0.00,-0.80,0.00,0.55,-0.00,-0.84,0.000,-0.061,0.000,-0.055,3.141,0.000,0.008,0.000,0.280,-0.46,0.00,-0.45
0.953,takeoff,0,0,0,0.00,0.00,0.00,-0.80,0.00,0.54,-0.00,-0.85,0.000,-0.060,0.000,-0.055,3.141,0.000,0.006,0.000,0.280,-0.47,0.00,-0.46
0.953,takeoff,0,0,0,0.00,0.00,0.00,-0.80,0.00,0.54,-0.00,-0.85,0.000,-0.060,0.000,-0.055,3.141,0.000,0.006,0.000,0.280,-0.47,0.00,-0.46
0.953,takeoff,0,0,0,0.00,0.00,0.00,-0.80,0.00,0.54,-0.00,-0.85,0.000,-0.060,0.000,-0.055,3.141,0.000,0.006,0.000,0.280,-0.47,0.00,-0.46
0.968,takeoff,0,0,0,0.00,0.00,0.00,-0.80,0.00,0.54,-0.00,-0.85,0.000,-0.060,0.000,-0.055,3.141,0.000,0.006,0.000,0.280,-0.47,0.00,-0.46
0.968,takeoff,0,0,0,0.00,0.00,0.00,-0.80,0.00,0.54,-0.00,-0.85,0.000,-0.059,0.000,-0.055,3.141,0.000,0.005,0.000,0.280,-0.47,0.00,-0.46
0.968,takeoff,0,0,0,0.00,0.00,0.00,-0.80,0.00,0.54,-0.00,-0.85,0.000,-0.059,0.000,-0.055,3.141,0.000,0.005,0.000,0.280,-0.47,0.00,-0.46
0.968,takeoff,0,0,0,0.00,0.00,0.00,-0.80,0.00,0.54,-0.00,-0.85,0.000,-0.059,0.000,-0.055,3.141,0.000,0.005,0.000,0.280,-0.47,0.00,-0.46
0.968,takeoff,1,325,292,0.22,0.00,0.00,-0.80,0.00,0.54,-0.00,-0.85,0.000,-0.059,0.000,-0.055,3.141,0.000,0.005,0.000,0.280,-0.47,0.00,-0.46
0.968,takeoff,1,325,292,0.22,0.00,0.00,-0.80,0.00,0.54,-0.00,-0.85,0.000,-0.059,0.000,-0.055,3.141,0.000,0.005,0.000,0.280,-0.47,0.00,-0.46
0.968,takeoff,1,325,292,0.22,0.00,0.00,-0.80,0.00,0.54,-0.00,-0.85,0.000,-0.059,0.000,-0.055,3.141,0.000,0.005,0.000,0.280,-0.47,0.00,-0.46
0.968,takeoff,1,325,292,0.22,0.00,0.00,-0.80,0.00,0.54,-0.00,-0.86,0.000,-0.058,0.000,-0.055,3.141,0.000,0.004,0.000,0.280,-0.48,0.00,-0.48
0.984,takeoff,1,325,292,0.22,0.00,0.00,-0.80,0.00,0.54,-0.00,-0.86,0.000,-0.058,0.000,-0.055,3.141,0.000,0.004,0.000,0.280,-0.48,0.00,-0.48
0.984,takeoff,1,325,292,0.22,0.00,0.00,-0.80,0.00,0.54,-0.00,-0.86,0.000,-0.058,0.000,-0.055,3.141,0.000,0.004,0.000,0.280,-0.48,0.00,-0.48
0.984,takeoff,1,325,292,0.22,0.00,0.00,-0.80,0.00,0.53,-0.00,-0.86,0.000,-0.058,0.000,-0.056,3.141,0.000,0.003,0.000,0.280,-0.48,0.00,-0.48
0.984,takeoff,1,325,292,0.22,0.00,0.00,-0.80,0.00,0.53,-0.00,-0.86,0.000,-0.058,0.000,-0.056,3.141,0.000,0.003,0.000,0.280,-0.48,0.00,-0.48
0.984,takeoff,1,325,292,0.22,0.00,0.00,-0.80,0.00,0.53,-0.00,-0.86,0.000,-0.058,0.000,-0.056,3.141,0.000,0.003,0.000,0.280,-0.48,0.00,-0.48
0.984,takeoff,1,325,292,0.22,0.00,0.00,-0.80,0.00,0.53,-0.00,-0.86,0.000,-0.058,0.000,-0.056,3.141,0.000,0.003,0.000,0.280,-0.48,0.00,-0.48
0.984,takeoff,1,325,292,0.22,0.00,0.00,-0.80,0.00,0.53,-0.00,-0.86,0.000,-0.058,0.000,-0.056,3.141,0.000,0.003,0.000,0.280,-0.48,0.00,-0.48
0.984,takeoff,1,325,292,0.22,0.00,0.00,-0.80,0.00,0.53,-0.00,-0.86,0.000,-0.058,0.000,-0.056,3.141,0.000,0.003,0.000,0.280,-0.48,0.00,-0.48
1.000,takeoff,1,325,292,0.22,0.00,0.00,-0.80,0.00,0.53,-0.00,-0.86,0.000,-0.058,0.000,-0.056,3.141,0.000,0.003,0.000,0.280,-0.48,0.00,-0.48
1.000,takeoff,1,325,292,0.22,0.00,0.00,-0.80,0.00,0.52,-0.00,-0.87,0.000,-0.057,0.000,-0.056,3.141,0.000,0.001,0.000,0.280,-0.49,0.00,-0.49
1.000,takeoff,1,325,292,0.22,0.00,0.00,-0.80,0.00,0.52,-0.00,-0.87,0.000,-0.057,0.000,-0.056,3.141,0.000,0.001,0.000,0.280,-0.49,0.00,-0.49
1.000,takeoff,1,325,292,0.22,0.00,0.00,-0.80,0.00,0.52,-0.00,-0.87,0.000,-0.057,0.000,-0.056,3.141,0.000,0.001,0.000,0.280,-0.49,0.00,-0.49
1.000,takeoff,1,325,292,0.22,0.00,0.00,-0.80,0.00,0.52,-0.00,-0.87,0.000,-0.057,0.000,-0.056,3.141,0.000,0.001,0.000,0.280,-0.49,0.00,-0.49
1.000,takeoff,0,0,0,0.00,0.00,0.00,-0.80,0.00,0.52,-0.00,-0.88,0.000,-0.056,0.000,-0.056,3.141,0.000,0.001,0.000,0.280,-0.49,0.00,-0.50
1.015,takeoff,0,0,0,0.00,0.00,0.00,-0.80,0.00,0.51,-0.00,-0.88,0.000,-0.056,0.000,-0.056,3.141,0.000,0.000,0.000,0.280,-0.49,0.00,-0.50
1.015,takeoff,0,0,0,0.00,0.00,0.00,-0.80,0.00,0.51,-0.00,-0.88,0.000,-0.056,0.000,-0.056,3.141,0.000,0.000,0.000,0.280,-0.49,0.00,-0.50
1.015,takeoff,0,0,0,0.00,0.00,0.00,-0.80,0.00,0.51,-0.00,-0.88,0.000,-0.056,0.000,-0.056,3.141,0.000,0.000,0.000,0.280,-0.49,0.00,-0.50
1.015,takeoff,0,0,0,0.00,0.00,0.00,-0.80,0.00,0.51,-0.00,-0.88,0.000,-0.055,0.000,-0.056,3.141,0.000,-0.001,0.000,0.280,-0.50,0.00,-0.51
1.015,takeoff,0,0,0,0.00,0.00,0.00,-0.80,0.00,0.51,-0.00,-0.88,0.000,-0.055,0.000,-0.056,3.141,0.000,-0.001,0.000,0.280,-0.50,0.00,-0.51
1.015,takeoff,0,0,0,0.00,0.00,0.00,-0.80,0.00,0.51,-0.00,-0.88,0.000,-0.055,0.000,-0.056,3.141,0.000,-0.001,0.000,0.280,-0.50,0.00,-0.51
1.031,takeoff,0,0,0,0.00,0.00,0.00,-0.80,0.00,0.51,-0.00,-0.88,0.000,-0.055,0.000,-0.056,3.141,0.000,-0.001,0.000,0.280,-0.50,0.00,-0.51
1.031,takeoff,0,0,0,0.00,0.00,0.00,-0.80,0.00,0.51,-0.00,-0.88,0.000,-0.055,0.000,-0.056,3.141,0.000,-0.001,0.000,0.280,-0.50,0.00,-0.51
1.031,takeoff,0,0,0,0.00,0.00,0.00,-0.80,0.00,0.51,-0.00,-0.89,0.000,-0.054,0.000,-0.056,3.141,0.000,-0.002,0.000,0.280,-0.51,0.00,-0.53
