t,phase,found,cx,cy,conf,cmd_vx,cmd_vy,cmd_vz,cmd_yawrate,vbx,vby,vd,roll_des,pitch_des,roll,pitch,yaw,roll_q,pitch_q,yaw_q,thrust,x,y,z
0.000,takeoff,1,326,176,0.51,0.00,0.00,-0.80,0.00,0.00,0.00,0.00,0.000,-0.000,0.000,0.000,0.000,-0.000,0.000,0.000,0.314,0.00,0.00,0.00
0.015,takeoff,1,326,176,0.51,0.00,0.00,-0.80,0.00,0.00,0.00,-0.00,0.000,-0.000,0.000,0.311,-3.141,0.000,0.388,0.000,0.315,-0.00,0.00,0.02
0.015,takeoff,1,326,176,0.51,0.00,0.00,-0.80,0.00,0.00,0.00,-0.00,0.000,-0.000,0.000,0.311,-3.141,0.000,0.388,0.000,0.315,-0.00,0.00,0.02
0.015,takeoff,1,326,176,0.51,0.00,0.00,-0.80,0.00,0.00,0.00,-0.00,0.000,-0.000,0.000,0.311,-3.141,0.000,0.388,0.000,0.315,-0.00,0.00,0.02
0.015,takeoff,1,326,176,0.51,0.00,0.00,-0.80,0.00,0.00,0.00,-0.00,0.000,-0.000,0.000,0.311,-3.141,0.000,0.388,0.000,0.315,-0.00,0.00,0.02
0.015,takeoff,1,326,176,0.51,0.00,0.00,-0.80,0.00,0.00,0.00,-0.00,0.000,-0.000,0.000,0.311,-3.141,0.000,0.388,0.000,0.315,-0.00,0.00,0.02
0.031,takeoff,1,326,176,0.51,0.00,0.00,-0.80,0.00,0.00,0.00,-0.00,0.000,-0.000,0.000,0.311,-3.141,0.000,0.388,0.000,0.315,-0.00,0.00,0.02
0.031,takeoff,1,326,176,0.51,0.00,0.00,-0.80,0.00,0.00,0.00,0.00,0.000,-0.000,0.000,0.311,-3.141,0.000,0.388,0.000,0.315,-0.00,0.00,0.02
0.031,takeoff,1,326,176,0.49,0.00,0.00,-0.80,0.00,-0.00,-0.00,0.00,0.000,-0.000,0.000,0.311,-3.141,0.000,0.388,0.000,0.315,-0.00,0.00,0.02
0.031,takeoff,1,326,176,0.49,0.00,0.00,-0.80,0.00,-0.00,-0.00,0.00,0.000,-0.000,0.000,0.311,-3.141,0.000,0.388,0.000,0.315,-0.00,0.00,0.02
0.031,takeoff,1,326,176,0.49,0.00,0.00,-0.80,0.00,-0.00,-0.00,0.00,0.000,-0.000,0.000,0.311,-3.141,0.000,0.388,0.000,0.315,-0.00,0.00,0.02
0.046,takeoff,1,326,176,0.49,0.00,0.00,-0.80,0.00,-0.00,-0.00,0.00,0.000,-0.000,0.000,0.311,-3.141,0.000,0.388,0.000,0.316,-0.00,0.00,0.02
0.046,takeoff,1,326,176,0.49,0.00,0.00,-0.80,0.00,0.00,0.00,0.00,-0.000,0.000,0.000,0.311,-3.141,0.000,0.388,0.000,0.316,-0.00,0.00,0.02
0.046,takeoff,1,326,176,0.49,0.00,0.00,-0.80,0.00,0.00,0.00,-0.01,-0.000,0.000,0.000,0.310,-3.141,0.000,0.387,0.000,0.315,-0.00,0.00,0.02
0.046,takeoff,1,326,176,0.49,0.00,0.00,-0.80,0.00,0.00,0.00,-0.01,-0.000,0.000,0.000,0.310,-3.141,0.000,0.387,0.000,0.315,-0.00,0.00,0.02
0.062,takeoff,1,326,176,0.49,0.00,0.00,-0.80,0.00,0.00,0.00,-0.01,-0.000,0.000,0.000,0.308,-3.141,0.000,0.385,0.000,0.316,-0.00,0.00,0.02
0.062,takeoff,1,326,177,0.50,0.00,0.00,-0.80,0.00,0.02,0.00,-0.04,-0.000,0.002,0.000,0.308,-3.141,0.000,0.383,0.000,0.314,-0.00,0.00,0.02
0.062,takeoff,1,326,177,0.50,0.00,0.00,-0.80,0.00,0.02,0.00,-0.04,-0.000,0.002,0.000,0.308,-3.141,0.000,0.383,0.000,0.314,-0.00,0.00,0.02
0.062,takeoff,1,326,177,0.50,0.00,0.00,-0.80,0.00,0.02,0.00,-0.04,-0.000,0.002,0.000,0.300,-3.141,0.000,0.373,0.000,0.314,-0.00,0.00,0.02
0.062,takeoff,1,326,177,0.50,0.00,0.00,-0.80,0.00,0.02,0.00,-0.04,-0.000,0.002,0.000,0.300,-3.141,0.000,0.373,0.000,0.314,-0.00,0.00,0.02
0.078,takeoff,1,326,177,0.50,0.00,0.00,-0.80,0.00,0.02,0.00,-0.05,-0.000,0.002,0.000,0.300,-3.141,0.000,0.373,0.000,0.313,-0.00,0.00,0.02
0.078,takeoff,1,326,177,0.50,0.00,0.00,-0.80,0.00,0.02,0.00,-0.05,-0.000,0.003,0.000,0.293,-3.141,0.000,0.363,0.000,0.313,-0.00,0.00,0.02
0.078,takeoff,1,326,177,0.50,0.00,0.00,-0.80,0.00,0.02,0.00,-0.05,-0.000,0.003,0.000,0.293,-3.141,0.000,0.363,0.000,0.313,-0.00,0.00,0.02
0.078,takeoff,1,326,177,0.50,0.00,0.00,-0.80,0.00,0.02,0.00,-0.09,-0.000,0.003,0.000,0.293,-3.141,0.000,0.363,0.000,0.310,-0.00,0.00,0.02
0.078,takeoff,1,326,177,0.50,0.00,0.00,-0.80,0.00,0.02,0.00,-0.09,-0.000,0.003,0.000,0.285,-3.141,0.000,0.353,0.000,0.310,-0.00,0.00,0.02
0.078,takeoff,1,326,177,0.50,0.00,0.00,-0.80,0.00,0.05,0.00,-0.09,-0.000,0.005,0.000,0.285,-3.141,0.000,0.350,0.000,0.310,-0.00,0.00,0.02
0.093,takeoff,1,326,177,0.50,0.00,0.00,-0.80,0.00,0.05,0.00,-0.09,-0.000,0.005,0.000,0.285,-3.141,0.000,0.350,0.000,0.311,-0.00,0.00,0.02
0.093,takeoff,1,326,177,0.50,0.00,0.00,-0.80,0.00,0.05,0.00,-0.10,-0.000,0.005,0.000,0.285,-3.141,0.000,0.350,0.000,0.310,-0.00,0.00,0.02
0.093,takeoff,1,326,188,0.50,0.00,0.00,-0.80,0.00,0.05,0.00,-0.10,-0.000,0.005,-0.000,0.276,-3.141,0.000,0.339,0.000,0.310,-0.00,0.00,0.02
0.093,takeoff,1,326,188,0.50,0.00,0.00,-0.80,0.00,0.05,0.00,-0.10,-0.000,0.005,-0.000,0.276,-3.141,0.000,0.339,0.000,0.310,-0.00,0.00,0.02
0.093,takeoff,1,326,188,0.50,0.00,0.00,-0.80,0.00,0.08,0.00,-0.10,-0.000,0.010,-0.000,0.276,-3.141,-0.000,0.334,0.000,0.310,-0.00,0.00,0.02
0.109,takeoff,1,326,188,0.50,0.00,0.00,-0.80,0.00,0.08,0.00,-0.10,-0.000,0.010,0.000,0.258,-3.141,0.000,0.310,0.000,0.311,-0.00,0.00,0.02
0.109,takeoff,1,326,188,0.50,0.00,0.00,-0.80,0.00,0.08,0.00,-0.11,-0.000,0.010,0.000,0.258,-3.141,0.000,0.310,0.000,0.310,-0.00,0.00,0.02
0.109,takeoff,1,326,188,0.50,0.00,0.00,-0.80,0.00,0.08,0.00,-0.11,-0.000,0.010,0.000,0.258,-3.141,0.000,0.310,0.000,0.310,-0.00,0.00,0.02
0.109,takeoff,1,326,188,0.50,0.00,0.00,-0.80,0.00,0.08,0.00,-0.11,-0.000,0.010,0.000,0.249,-3.141,0.000,0.299,0.000,0.310,-0.00,0.00,0.02
0.109,takeoff,1,326,188,0.50,0.00,0.00,-0.80,0.00,0.12,0.00,-0.11,-0.000,0.014,0.000,0.249,-3.141,0.000,0.293,0.000,0.309,-0.01,0.00,0.02
0.109,takeoff,1,326,188,0.50,0.00,0.00,-0.80,0.00,0.12,0.00,-0.11,-0.000,0.014,0.000,0.249,-3.141,0.000,0.293,0.000,0.309,-0.01,0.00,0.02
0.125,takeoff,1,326,188,0.50,0.00,0.00,-0.80,0.00,0.12,0.00,-0.11,-0.000,0.014,0.000,0.249,-3.141,0.000,0.293,0.000,0.310,-0.01,0.00,0.02
0.125,takeoff,1,326,199,0.51,0.00,0.00,-0.80,0.00,0.12,0.00,-0.11,-0.000,0.014,0.000,0.241,-3.141,0.000,0.284,0.000,0.310,-0.01,0.00,0.02
0.125,takeoff,1,326,199,0.51,0.00,0.00,-0.80,0.00,0.12,0.00,-0.11,-0.000,0.014,0.000,0.241,-3.141,0.000,0.284,0.000,0.310,-0.01,0.00,0.02
0.125,takeoff,1,326,199,0.51,0.00,0.00,-0.80,0.00,0.12,0.00,-0.13,-0.000,0.014,0.000,0.241,-3.141,0.000,0.284,0.000,0.308,-0.01,0.00,0.01
0.125,takeoff,1,326,199,0.51,0.00,0.00,-0.80,0.00,0.15,0.00,-0.13,-0.000,0.018,0.000,0.229,-3.141,0.000,0.263,0.000,0.308,-0.01,0.00,0.01
0.140,takeoff,1,326,199,0.51,0.00,0.00,-0.80,0.00,0.15,0.00,-0.13,-0.000,0.018,0.000,0.229,-3.141,0.000,0.263,0.000,0.309,-0.01,0.00,0.01
0.140,takeoff,1,326,199,0.51,0.00,0.00,-0.80,0.00,0.15,0.00,-0.14,-0.000,0.018,0.000,0.224,-3.141,0.000,0.257,0.000,0.308,-0.01,0.00,0.01
0.140,takeoff,1,326,199,0.51,0.00,0.00,-0.80,0.00,0.19,0.00,-0.14,-0.000,0.022,0.000,0.224,-3.141,0.000,0.252,0.000,0.308,-0.01,0.00,0.01
0.140,takeoff,1,326,199,0.51,0.00,0.00,-0.80,0.00,0.19,0.00,-0.14,-0.000,0.022,0.000,0.224,-3.141,0.000,0.252,0.000,0.308,-0.01,0.00,0.01
0.140,takeoff,1,326,199,0.51,0.00,0.00,-0.80,0.00,0.19,0.00,-0.17,-0.000,0.022,0.000,0.219,-3.141,0.000,0.246,0.000,0.306,-0.01,0.00,0.01
0.156,takeoff,1,326,199,0.51,0.00,0.00,-0.80,0.00,0.19,0.00,-0.17,-0.000,0.022,0.000,0.219,-3.141,0.000,0.246,0.000,0.306,-0.01,0.00,0.01
0.156,takeoff,1,326,199,0.51,0.00,0.00,-0.80,0.00,0.19,0.00,-0.17,-0.000,0.022,0.000,0.219,-3.141,0.000,0.246,0.000,0.306,-0.01,0.00,0.01
0.156,takeoff,1,326,208,0.51,0.00,0.00,-0.80,0.00,0.22,0.00,-0.17,-0.000,0.026,0.000,0.215,-3.141,0.000,0.236,0.000,0.306,-0.01,0.00,0.01
0.156,takeoff,1,326,208,0.51,0.00,0.00,-0.80,0.00,0.22,0.00,-0.19,-0.000,0.026,0.000,0.215,-3.141,0.000,0.236,0.000,0.304,-0.02,0.00,0.01
0.156,takeoff,1,326,208,0.51,0.00,0.00,-0.80,0.00,0.22,0.00,-0.19,-0.000,0.026,0.000,0.215,-3.141,0.000,0.236,0.000,0.304,-0.02,0.00,0.01
0.156,takeoff,1,326,208,0.51,0.00,0.00,-0.80,0.00,0.22,0.00,-0.19,-0.000,0.026,0.000,0.215,-3.141,0.000,0.236,0.000,0.304,-0.02,0.00,0.01
0.156,takeoff,1,326,208,0.51,0.00,0.00,-0.80,0.00,0.22,0.00,-0.19,-0.000,0.026,0.000,0.207,-3.141,0.000,0.225,0.000,0.304,-0.02,0.00,0.01
0.171,takeoff,1,326,208,0.51,0.00,0.00,-0.80,0.00,0.22,0.00,-0.21,-0.000,0.026,0.000,0.207,-3.141,0.000,0.225,0.000,0.304,-0.02,0.00,0.01
0.171,takeoff,1,326,208,0.51,0.00,0.00,-0.80,0.00,0.25,0.00,-0.21,-0.000,0.030,0.000,0.207,-3.141,0.000,0.221,0.000,0.304,-0.02,0.00,0.01
0.171,takeoff,1,326,208,0.51,0.00,0.00,-0.80,0.00,0.25,0.00,-0.21,-0.000,0.030,0.000,0.207,-3.141,0.000,0.221,0.000,0.304,-0.02,0.00,0.01
0.171,takeoff,1,326,208,0.51,0.00,0.00,-0.80,0.00,0.25,0.00,-0.21,-0.000,0.030,0.000,0.202,-3.141,0.000,0.215,0.000,0.304,-0.02,0.00,0.01
0.171,takeoff,1,326,208,0.51,0.00,0.00,-0.80,0.00,0.25,0.00,-0.21,-0.000,0.030,0.000,0.202,-3.141,0.000,0.215,0.000,0.304,-0.02,0.00,0.01
0.171,takeoff,1,326,208,0.51,0.00,0.00,-0.80,0.00,0.25,0.00,-0.23,-0.000,0.030,0.000,0.202,-3.141,0.000,0.215,0.000,0.301,-0.02,0.00,0.00
0.187,takeoff,1,326,208,0.51,0.00,0.00,-0.80,0.00,0.25,0.00,-0.23,-0.000,0.030,0.000,0.202,-3.141,0.000,0.215,0.000,0.302,-0.02,0.00,0.00
0.187,takeoff,1,326,208,0.51,0.00,0.00,-0.80,0.00,0.28,0.00,-0.23,-0.000,0.034,0.000,0.198,-3.141,0.000,0.206,0.000,0.302,-0.02,0.00,0.00
0.187,takeoff,1,326,208,0.51,0.00,0.00,-0.80,0.00,0.28,0.00,-0.23,-0.000,0.034,0.000,0.198,-3.141,0.000,0.206,0.000,0.302,-0.02,0.00,0.00
0.187,takeoff,1,326,208,0.51,0.00,0.00,-0.80,0.00,0.28,0.00,-0.25,-0.000,0.034,0.000,0.198,-3.141,0.000,0.206,0.000,0.301,-0.03,0.00,0.00
0.187,takeoff,1,326,214,0.51,0.00,0.00,-0.80,0.00,0.28,0.00,-0.25,-0.000,0.034,0.000,0.194,-3.141,0.000,0.200,0.000,0.301,-0.03,0.00,0.00
0.187,takeoff,1,326,214,0.51,0.00,0.00,-0.80,0.00,0.28,0.00,-0.25,-0.000,0.034,0.000,0.194,-3.141,0.000,0.200,0.000,0.301,-0.03,0.00,0.00
0.187,takeoff,1,326,214,0.51,0.00,0.00,-0.80,0.00,0.28,0.00,-0.25,-0.000,0.034,0.000,0.194,-3.141,0.000,0.200,0.000,0.301,-0.03,0.00,0.00
0.203,takeoff,1,326,214,0.51,0.00,0.00,-0.80,0.00,0.32,0.00,-0.27,-0.000,0.038,0.000,0.194,-3.141,0.000,0.195,0.000,0.299,-0.03,0.00,0.00
0.203,takeoff,1,326,214,0.51,0.00,0.00,-0.80,0.00,0.32,0.00,-0.27,-0.000,0.038,0.000,0.190,-3.141,0.000,0.189,0.000,0.299,-0.03,0.00,0.00
0.203,takeoff,1,326,214,0.51,0.00,0.00,-0.80,0.00,0.32,0.00,-0.27,-0.000,0.038,0.000,0.190,-3.141,0.000,0.189,0.000,0.299,-0.03,0.00,0.00
0.203,takeoff,1,326,214,0.51,0.00,0.00,-0.80,0.00,0.32,0.00,-0.27,-0.000,0.038,0.000,0.190,-3.141,0.000,0.189,0.000,0.299,-0.03,0.00,0.00
0.203,takeoff,1,326,214,0.51,0.00,0.00,-0.80,0.00,0.32,0.00,-0.29,-0.000,0.038,0.000,0.184,-3.141,0.000,0.182,0.000,0.298,-0.03,0.00,-0.00
0.203,takeoff,1,326,214,0.51,0.00,0.00,-0.80,0.00,0.32,0.00,-0.29,-0.000,0.038,0.000,0.184,-3.141,0.000,0.182,0.000,0.298,-0.03,0.00,-0.00
0.218,takeoff,1,326,214,0.51,0.00,0.00,-0.80,0.00,0.34,-0.00,-0.29,0.000,0.041,0.000,0.184,-3.141,0.000,0.179,0.000,0.298,-0.03,0.00,-0.00
0.218,takeoff,1,326,214,0.51,0.00,0.00,-0.80,0.00,0.34,-0.00,-0.29,0.000,0.041,0.000,0.184,-3.141,0.000,0.179,0.000,0.298,-0.03,0.00,-0.00
0.218,takeoff,1,326,214,0.51,0.00,0.00,-0.80,0.00,0.34,-0.00,-0.29,0.000,0.041,0.000,0.177,-3.141,0.000,0.169,0.000,0.298,-0.03,0.00,-0.00
0.218,takeoff,1,326,214,0.51,0.00,0.00,-0.80,0.00,0.34,-0.00,-0.31,0.000,0.041,0.000,0.177,-3.141,0.000,0.169,0.000,0.297,-0.04,0.00,-0.01
0.218,takeoff,1,326,220,0.51,0.00,0.00,-0.80,0.00,0.34,-0.00,-0.31,0.000,0.041,0.000,0.177,-3.141,0.000,0.169,0.000,0.297,-0.04,0.00,-0.01
0.218,takeoff,1,326,220,0.51,0.00,0.00,-0.80,0.00,0.37,-0.00,-0.31,0.000,0.044,0.000,0.173,-3.141,0.000,0.161,0.000,0.297,-0.04,0.00,-0.01
0.234,takeoff,1,326,220,0.51,0.00,0.00,-0.80,0.00,0.37,-0.00,-0.31,0.000,0.044,0.000,0.173,-3.141,0.000,0.161,0.000,0.297,-0.04,0.00,-0.01
0.234,takeoff,1,326,220,0.51,0.00,0.00,-0.80,0.00,0.37,-0.00,-0.33,0.000,0.044,0.000,0.173,-3.141,0.000,0.161,0.000,0.295,-0.04,0.00,-0.01
0.234,takeoff,1,326,220,0.51,0.00,0.00,-0.80,0.00,0.37,-0.00,-0.33,0.000,0.044,0.000,0.173,-3.141,0.000,0.161,0.000,0.295,-0.04,0.00,-0.01
0.234,takeoff,1,326,220,0.51,0.00,0.00,-0.80,0.00,0.37,-0.00,-0.33,0.000,0.044,0.000,0.170,-3.141,0.000,0.157,0.000,0.295,-0.04,0.00,-0.01
0.234,takeoff,1,326,220,0.51,0.00,0.00,-0.80,0.00,0.40,-0.00,-0.34,0.000,0.047,0.000,0.170,-3.141,0.000,0.153,0.000,0.294,-0.05,0.00,-0.01
0.250,takeoff,1,326,220,0.51,0.00,0.00,-0.80,0.00,0.40,-0.00,-0.34,0.000,0.047,0.000,0.164,-3.141,0.000,0.145,0.000,0.295,-0.05,0.00,-0.01
0.250,takeoff,1,326,220,0.51,0.00,0.00,-0.80,0.00,0.40,-0.00,-0.34,0.000,0.047,0.000,0.164,-3.141,0.000,0.145,0.000,0.295,-0.05,0.00,-0.01
0.250,takeoff,1,326,220,0.51,0.00,0.00,-0.80,0.00,0.40,-0.00,-0.37,0.000,0.047,0.000,0.161,-3.141,0.000,0.142,0.000,0.293,-0.05,0.00,-0.02
0.250,takeoff,1,326,220,0.51,0.00,0.00,-0.80,0.00,0.42,-0.00,-0.37,0.000,0.050,0.000,0.161,-3.141,0.000,0.138,0.000,0.293,-0.05,0.00,-0.02
0.250,takeoff,1,326,226,0.51,0.00,0.00,-0.80,0.00,0.42,-0.00,-0.37,0.000,0.050,0.000,0.161,-3.141,0.000,0.138,0.000,0.293,-0.05,0.00,-0.02
0.265,takeoff,1,326,226,0.51,0.00,0.00,-0.80,0.00,0.42,-0.00,-0.37,0.000,0.050,0.000,0.158,-3.141,0.000,0.134,0.000,0.293,-0.05,0.00,-0.02
0.265,takeoff,1,326,226,0.51,0.00,0.00,-0.80,0.00,0.42,-0.00,-0.38,0.000,0.050,0.000,0.158,-3.141,0.000,0.134,0.000,0.292,-0.06,0.00,-0.02
0.265,takeoff,1,326,226,0.51,0.00,0.00,-0.80,0.00,0.44,-0.00,-0.38,0.000,0.053,0.000,0.158,-3.141,0.000,0.131,0.000,0.292,-0.06,0.00,-0.02
0.265,takeoff,1,326,226,0.51,0.00,0.00,-0.80,0.00,0.44,-0.00,-0.38,0.000,0.053,0.000,0.155,-3.141,0.000,0.127,0.000,0.292,-0.06,0.00,-0.02
0.265,takeoff,1,326,226,0.51,0.00,0.00,-0.80,0.00,0.44,-0.00,-0.39,0.000,0.053,0.000,0.155,-3.141,0.000,0.127,0.000,0.291,-0.06,0.00,-0.03
0.281,takeoff,1,326,226,0.51,0.00,0.00,-0.80,0.00,0.44,-0.00,-0.39,0.000,0.053,0.000,0.150,-3.141,0.000,0.121,0.000,0.291,-0.06,0.00,-0.03
0.281,takeoff,1,326,226,0.51,0.00,0.00,-0.80,0.00,0.44,-0.00,-0.39,0.000,0.053,0.000,0.150,-3.141,0.000,0.121,0.000,0.291,-0.06,0.00,-0.03
0.281,takeoff,1,326,226,0.51,0.00,0.00,-0.80,0.00,0.47,-0.00,-0.39,0.000,0.056,0.000,0.150,-3.141,0.000,0.117,0.000,0.291,-0.06,0.00,-0.03
0.281,takeoff,1,326,226,0.51,0.00,0.00,-0.80,0.00,0.47,-0.00,-0.40,0.000,0.056,0.000,0.150,-3.141,0.000,0.117,0.000,0.291,-0.07,0.00,-0.03
0.281,takeoff,1,326,226,0.51,0.00,0.00,-0.80,0.00,0.47,-0.00,-0.40,0.000,0.056,0.000,0.147,-3.141,0.000,0.114,0.000,0.291,-0.07,0.00,-0.03
0.296,takeoff,1,326,230,0.51,0.00,0.00,-0.80,0.00,0.47,-0.00,-0.40,0.000,0.056,0.000,0.147,-3.141,0.000,0.114,0.000,0.291,-0.07,0.00,-0.03
0.296,takeoff,1,326,230,0.51,0.00,0.00,-0.80,0.00,0.47,-0.00,-0.40,0.000,0.056,0.000,0.147,-3.141,0.000,0.114,0.000,0.291,-0.07,0.00,-0.03
0.296,takeoff,1,326,230,0.51,0.00,0.00,-0.80,0.00,0.49,-0.00,-0.41,0.000,0.059,0.000,0.145,-3.141,0.000,0.108,0.000,0.290,-0.08,0.00,-0.04
0.296,takeoff,1,326,230,0.51,0.00,0.00,-0.80,0.00,0.49,-0.00,-0.41,0.000,0.059,0.000,0.145,-3.141,0.000,0.108,0.000,0.290,-0.08,0.00,-0.04
0.296,takeoff,1,326,230,0.51,0.00,0.00,-0.80,0.00,0.49,-0.00,-0.41,0.000,0.059,0.000,0.145,-3.141,0.000,0.108,0.000,0.290,-0.08,0.00,-0.04
0.296,takeoff,1,326,230,0.51,0.00,0.00,-0.80,0.00,0.49,-0.00,-0.41,0.000,0.059,0.000,0.145,-3.141,0.000,0.108,0.000,0.290,-0.08,0.00,-0.04
0.296,takeoff,1,326,230,0.51,0.00,0.00,-0.80,0.00,0.49,-0.00,-0.42,0.000,0.059,0.000,0.143,-3.141,0.000,0.105,0.000,0.290,-0.08,0.00,-0.04
0.312,takeoff,1,326,230,0.51,0.00,0.00,-0.80,0.00,0.49,-0.00,-0.42,0.000,0.059,0.000,0.143,-3.141,0.000,0.105,0.000,0.290,-0.08,0.00,-0.04
0.312,takeoff,1,326,230,0.51,0.00,0.00,-0.80,0.00,0.51,-0.00,-0.42,0.000,0.061,0.000,0.143,-3.141,0.000,0.101,0.000,0.290,-0.08,0.00,-0.04
0.312,takeoff,1,326,230,0.51,0.00,0.00,-0.80,0.00,0.51,-0.00,-0.42,0.000,0.061,0.000,0.143,-3.141,0.000,0.101,0.000,0.290,-0.08,0.00,-0.04
0.312,takeoff,1,326,230,0.51,0.00,0.00,-0.80,0.00,0.51,-0.00,-0.42,0.000,0.061,0.000,0.138,-3.141,0.000,0.096,0.000,0.290,-0.08,0.00,-0.04
0.312,takeoff,1,326,230,0.51,0.00,0.00,-0.80,0.00,0.51,-0.00,-0.43,0.000,0.061,0.000,0.138,-3.141,0.000,0.096,0.000,0.289,-0.09,0.00,-0.04
0.312,takeoff,1,326,230,0.51,0.00,0.00,-0.80,0.00,0.51,-0.00,-0.43,0.000,0.061,0.000,0.138,-3.141,0.000,0.096,0.000,0.289,-0.09,0.00,-0.04
0.312,takeoff,1,326,230,0.51,0.00,0.00,-0.80,0.00,0.51,-0.00,-0.43,0.000,0.061,0.000,0.138,-3.141,0.000,0.096,0.000,0.289,-0.09,0.00,-0.04
0.328,takeoff,1,326,230,0.51,0.00,0.00,-0.80,0.00,0.53,-0.00,-0.43,0.000,0.064,0.000,0.136,-3.141,0.000,0.090,0.000,0.289,-0.09,0.00,-0.04
0.328,takeoff,1,326,234,0.51,0.00,0.00,-0.80,0.00,0.53,-0.00,-0.44,0.000,0.064,0.000,0.136,-3.141,0.000,0.090,0.000,0.289,-0.09,0.00,-0.05
0.328,takeoff,1,326,234,0.51,0.00,0.00,-0.80,0.00,0.53,-0.00,-0.44,0.000,0.064,0.000,0.136,-3.141,0.000,0.090,0.000,0.289,-0.09,0.00,-0.05
0.328,takeoff,1,326,234,0.51,0.00,0.00,-0.80,0.00,0.53,-0.00,-0.44,0.000,0.064,0.000,0.136,-3.141,0.000,0.090,0.000,0.289,-0.09,0.00,-0.05
0.328,takeoff,1,326,234,0.51,0.00,0.00,-0.80,0.00,0.53,-0.00,-0.44,0.000,0.064,0.000,0.134,-3.141,0.000,0.088,0.000,0.289,-0.09,0.00,-0.05
0.328,takeoff,1,326,234,0.51,0.00,0.00,-0.80,0.00,0.53,-0.00,-0.44,0.000,0.064,0.000,0.134,-3.141,0.000,0.088,0.000,0.289,-0.09,0.00,-0.05
0.328,takeoff,1,326,234,0.51,0.00,0.00,-0.80,0.00,0.55,-0.00,-0.45,0.000,0.066,0.000,0.134,-3.141,0.000,0.085,0.000,0.288,-0.10,0.00,-0.05
0.343,takeoff,1,326,234,0.51,0.00,0.00,-0.80,0.00,0.55,-0.00,-0.45,0.000,0.066,0.000,0.134,-3.141,0.000,0.085,0.000,0.288,-0.10,0.00,-0.05
0.343,takeoff,1,326,234,0.51,0.00,0.00,-0.80,0.00,0.55,-0.00,-0.45,0.000,0.066,0.000,0.130,-3.141,0.000,0.080,0.000,0.288,-0.10,0.00,-0.05
0.343,takeoff,1,326,234,0.51,0.00,0.00,-0.80,0.00,0.55,-0.00,-0.45,0.000,0.066,0.000,0.130,-3.141,0.000,0.080,0.000,0.288,-0.10,0.00,-0.05
0.343,takeoff,1,326,234,0.51,0.00,0.00,-0.80,0.00,0.55,-0.00,-0.45,0.000,0.066,0.000,0.130,-3.141,0.000,0.080,0.000,0.288,-0.10,0.00,-0.06
0.343,takeoff,1,326,234,0.51,0.00,0.00,-0.80,0.00,0.55,-0.00,-0.45,0.000,0.066,0.000,0.130,-3.141,0.000,0.080,0.000,0.288,-0.10,0.00,-0.06
0.343,takeoff,1,326,234,0.51,0.00,0.00,-0.80,0.00,0.57,-0.00,-0.45,0.000,0.069,0.000,0.129,-3.141,0.000,0.075,0.000,0.288,-0.10,0.00,-0.06
0.359,takeoff,1,326,234,0.51,0.00,0.00,-0.80,0.00,0.57,-0.00,-0.45,0.000,0.069,0.000,0.129,-3.141,0.000,0.075,0.000,0.288,-0.10,0.00,-0.06
0.359,takeoff,1,326,234,0.51,0.00,0.00,-0.80,0.00,0.57,-0.00,-0.45,0.000,0.069,0.000,0.129,-3.141,0.000,0.075,0.000,0.288,-0.10,0.00,-0.06
0.359,takeoff,1,326,234,0.51,0.00,0.00,-0.80,0.00,0.57,-0.00,-0.46,0.000,0.069,0.000,0.127,-3.141,0.000,0.073,0.000,0.287,-0.11,0.00,-0.06
0.359,takeoff,1,326,234,0.51,0.00,0.00,-0.80,0.00,0.57,-0.00,-0.46,0.000,0.069,0.000,0.127,-3.141,0.000,0.073,0.000,0.287,-0.11,0.00,-0.06
0.359,takeoff,1,326,237,0.52,0.00,0.00,-0.80,0.00,0.57,-0.00,-0.46,0.000,0.069,0.000,0.127,-3.141,0.000,0.073,0.000,0.287,-0.11,0.00,-0.06
0.359,takeoff,1,326,237,0.52,0.00,0.00,-0.80,0.00,0.59,-0.00,-0.46,0.000,0.071,0.000,0.127,-3.141,0.000,0.070,0.000,0.287,-0.11,0.00,-0.06
0.375,takeoff,1,326,237,0.52,0.00,0.00,-0.80,0.00,0.59,-0.00,-0.47,0.000,0.071,0.000,0.125,-3.141,0.000,0.068,0.000,0.287,-0.12,0.00,-0.07
0.375,takeoff,1,326,237,0.52,0.00,0.00,-0.80,0.00,0.59,-0.00,-0.47,0.000,0.071,0.000,0.125,-3.141,0.000,0.068,0.000,0.287,-0.12,0.00,-0.07
0.375,takeoff,1,326,237,0.52,0.00,0.00,-0.80,0.00,0.59,-0.00,-0.47,0.000,0.071,0.000,0.125,-3.141,0.000,0.068,0.000,0.287,-0.12,0.00,-0.07
0.375,takeoff,1,326,237,0.52,0.00,0.00,-0.80,0.00,0.59,-0.00,-0.47,0.000,0.071,0.000,0.122,-3.141,0.000,0.064,0.000,0.287,-0.12,0.00,-0.07
0.375,takeoff,1,326,237,0.52,0.00,0.00,-0.80,0.00,0.61,-0.00,-0.48,0.000,0.073,0.000,0.122,-3.141,0.000,0.062,0.000,0.286,-0.13,0.00,-0.07
0.375,takeoff,1,326,237,0.52,0.00,0.00,-0.80,0.00,0.61,-0.00,-0.48,0.000,0.073,0.000,0.122,-3.141,0.000,0.062,0.000,0.286,-0.13,0.00,-0.07
0.375,takeoff,1,326,237,0.52,0.00,0.00,-0.80,0.00,0.61,-0.00,-0.48,0.000,0.073,0.000,0.122,-3.141,0.000,0.062,0.000,0.286,-0.13,0.00,-0.07
0.390,takeoff,1,326,237,0.52,0.00,0.00,-0.80,0.00,0.61,-0.00,-0.48,0.000,0.073,0.000,0.121,-3.141,0.000,0.060,0.000,0.287,-0.13,0.00,-0.07
0.390,takeoff,1,326,238,0.52,0.00,0.00,-0.80,0.00,0.61,-0.00,-0.48,0.000,0.073,0.000,0.121,-3.141,0.000,0.060,0.000,0.286,-0.13,0.00,-0.08
0.390,takeoff,1,326,238,0.52,0.00,0.00,-0.80,0.00,0.61,-0.00,-0.48,0.000,0.073,0.000,0.121,-3.141,0.000,0.060,0.000,0.286,-0.13,0.00,-0.08
0.390,takeoff,1,326,238,0.52,0.00,0.00,-0.80,0.00,0.63,-0.00,-0.48,0.000,0.075,0.000,0.121,-3.141,0.000,0.057,0.000,0.286,-0.13,0.00,-0.08
0.390,takeoff,1,326,238,0.52,0.00,0.00,-0.80,0.00,0.63,-0.00,-0.48,0.000,0.075,0.000,0.120,-3.141,0.000,0.056,0.000,0.286,-0.13,0.00,-0.08
0.390,takeoff,1,326,238,0.52,0.00,0.00,-0.80,0.00,0.63,-0.00,-0.48,0.000,0.075,0.000,0.120,-3.141,0.000,0.056,0.000,0.286,-0.13,0.00,-0.08
0.390,takeoff,1,326,238,0.52,0.00,0.00,-0.80,0.00,0.63,-0.00,-0.49,0.000,0.075,0.000,0.120,-3.141,0.000,0.056,0.000,0.285,-0.14,0.00,-0.08
0.406,takeoff,1,326,238,0.52,0.00,0.00,-0.80,0.00,0.63,-0.00,-0.49,0.000,0.075,0.000,0.118,-3.141,0.000,0.054,0.000,0.286,-0.14,0.00,-0.08
0.406,takeoff,1,326,238,0.52,0.00,0.00,-0.80,0.00,0.63,-0.00,-0.49,0.000,0.075,0.000,0.118,-3.141,0.000,0.054,0.000,0.286,-0.14,0.00,-0.08
0.406,takeoff,1,326,238,0.52,0.00,0.00,-0.80,0.00,0.64,-0.00,-0.49,0.000,0.077,0.000,0.118,-3.141,0.000,0.051,0.000,0.286,-0.14,0.00,-0.08
0.406,takeoff,1,326,238,0.52,0.00,0.00,-0.80,0.00,0.64,-0.00,-0.49,0.000,0.077,0.000,0.118,-3.141,0.000,0.051,0.000,0.286,-0.14,0.00,-0.08
0.406,takeoff,1,326,238,0.52,0.00,0.00,-0.80,0.00,0.64,-0.00,-0.50,0.000,0.077,0.000,0.116,-3.141,0.000,0.048,0.000,0.285,-0.15,0.00,-0.09
0.406,takeoff,1,326,238,0.52,0.00,0.00,-0.80,0.00,0.64,-0.00,-0.50,0.000,0.077,0.000,0.116,-3.141,0.000,0.048,0.000,0.285,-0.15,0.00,-0.09
0.421,takeoff,1,326,238,0.52,0.00,0.00,-0.80,0.00,0.64,-0.00,-0.50,0.000,0.077,0.000,0.116,-3.141,0.000,0.048,0.000,0.285,-0.15,0.00,-0.09
0.421,takeoff,1,326,238,0.52,0.00,0.00,-0.80,0.00,0.64,-0.00,-0.50,0.000,0.077,0.000,0.115,-3.141,0.000,0.047,0.000,0.285,-0.15,0.00,-0.09
0.421,takeoff,1,326,238,0.52,0.00,0.00,-0.80,0.00,0.66,-0.00,-0.51,0.000,0.079,0.000,0.115,-3.141,0.000,0.044,0.000,0.285,-0.16,0.00,-0.09
0.421,takeoff,1,326,241,0.51,0.00,0.00,-0.80,0.00,0.66,-0.00,-0.51,0.000,0.079,0.000,0.115,-3.141,0.000,0.044,0.000,0.285,-0.16,0.00,-0.09
0.421,takeoff,1,326,241,0.51,0.00,0.00,-0.80,0.00,0.66,-0.00,-0.51,0.000,0.079,0.000,0.115,-3.141,0.000,0.044,0.000,0.285,-0.16,0.00,-0.09
0.421,takeoff,1,326,241,0.51,0.00,0.00,-0.80,0.00,0.66,-0.00,-0.51,0.000,0.079,0.000,0.114,-3.141,0.000,0.043,0.000,0.285,-0.16,0.00,-0.09
0.421,takeoff,1,326,241,0.51,0.00,0.00,-0.80,0.00,0.66,-0.00,-0.51,0.000,0.079,0.000,0.114,-3.141,0.000,0.043,0.000,0.285,-0.16,0.00,-0.09
0.437,takeoff,1,326,241,0.51,0.00,0.00,-0.80,0.00,0.66,-0.00,-0.52,0.000,0.079,0.000,0.114,-3.141,0.000,0.043,0.000,0.284,-0.17,0.00,-0.10
0.437,takeoff,1,326,241,0.51,0.00,0.00,-0.80,0.00,0.68,-0.00,-0.52,0.000,0.081,0.000,0.114,-3.141,0.000,0.040,0.000,0.284,-0.17,0.00,-0.10
0.437,takeoff,1,326,241,0.51,0.00,0.00,-0.80,0.00,0.68,-0.00,-0.52,0.000,0.081,0.000,0.113,-3.141,0.000,0.039,0.000,0.284,-0.17,0.00,-0.10
0.437,takeoff,1,326,241,0.51,0.00,0.00,-0.80,0.00,0.68,-0.00,-0.52,0.000,0.081,0.000,0.113,-3.141,0.000,0.039,0.000,0.284,-0.17,0.00,-0.10
0.437,takeoff,1,326,241,0.51,0.00,0.00,-0.80,0.00,0.68,-0.00,-0.52,0.000,0.081,0.000,0.113,-3.141,0.000,0.039,0.000,0.284,-0.17,0.00,-0.10
0.437,takeoff,1,326,241,0.51,0.00,0.00,-0.80,0.00,0.68,-0.00,-0.52,0.000,0.081,0.000,0.113,-3.141,0.000,0.039,0.000,0.284,-0.17,0.00,-0.10
0.453,takeoff,1,326,241,0.51,0.00,0.00,-0.80,0.00,0.68,-0.00,-0.52,0.000,0.081,0.000,0.111,-3.141,0.000,0.037,0.000,0.284,-0.17,0.00,-0.10
0.453,takeoff,1,326,241,0.51,0.00,0.00,-0.80,0.00,0.69,-0.00,-0.52,0.000,0.083,0.000,0.111,-3.141,0.000,0.034,0.000,0.284,-0.17,0.00,-0.10
0.453,takeoff,1,326,241,0.51,0.00,0.00,-0.80,0.00,0.69,-0.00,-0.52,0.000,0.083,0.000,0.111,-3.141,0.000,0.034,0.000,0.284,-0.17,0.00,-0.10
0.453,takeoff,1,326,241,0.51,0.00,0.00,-0.80,0.00,0.69,-0.00,-0.53,0.000,0.083,0.000,0.111,-3.141,0.000,0.034,0.000,0.283,-0.18,0.00,-0.11
0.453,takeoff,1,326,241,0.51,0.00,0.00,-0.80,0.00,0.69,-0.00,-0.53,0.000,0.083,0.000,0.110,-3.141,0.000,0.033,0.000,0.283,-0.18,0.00,-0.11
0.453,takeoff,1,326,244,0.53,0.00,0.00,-0.80,0.00,0.69,-0.00,-0.53,0.000,0.083,0.000,0.110,-3.141,0.000,0.033,0.000,0.283,-0.18,0.00,-0.11
0.453,takeoff,1,326,244,0.53,0.00,0.00,-0.80,0.00,0.69,-0.00,-0.53,0.000,0.083,0.000,0.110,-3.141,0.000,0.033,0.000,0.283,-0.18,0.00,-0.11
0.468,takeoff,1,326,244,0.53,0.00,0.00,-0.80,0.00,0.71,-0.00,-0.53,0.000,0.085,0.000,0.109,-3.141,0.000,0.030,0.000,0.283,-0.19,0.00,-0.12
0.468,takeoff,1,326,244,0.53,0.00,0.00,-0.80,0.00,0.71,-0.00,-0.53,0.000,0.085,0.000,0.109,-3.141,0.000,0.030,0.000,0.283,-0.19,0.00,-0.12
0.468,takeoff,1,326,244,0.53,0.00,0.00,-0.80,0.00,0.71,-0.00,-0.53,0.000,0.085,0.000,0.109,-3.141,0.000,0.030,0.000,0.283,-0.19,0.00,-0.12
0.468,takeoff,1,326,244,0.53,0.00,0.00,-0.80,0.00,0.71,-0.00,-0.53,0.000,0.085,0.000,0.108,-3.141,0.000,0.029,0.000,0.283,-0.19,0.00,-0.12
0.468,takeoff,1,326,244,0.53,0.00,0.00,-0.80,0.00,0.73,-0.00,-0.54,0.000,0.087,0.000,0.108,-3.141,0.000,0.027,0.000,0.283,-0.20,0.00,-0.12
0.468,takeoff,1,326,244,0.53,0.00,0.00,-0.80,0.00,0.73,-0.00,-0.54,0.000,0.087,0.000,0.108,-3.141,0.000,0.027,0.000,0.283,-0.20,0.00,-0.12
0.484,takeoff,1,326,244,0.53,0.00,0.00,-0.80,0.00,0.73,-0.00,-0.54,0.000,0.087,0.000,0.108,-3.141,0.000,0.027,0.000,0.283,-0.20,0.00,-0.12
0.484,takeoff,1,326,244,0.53,0.00,0.00,-0.80,0.00,0.73,-0.00,-0.54,0.000,0.087,0.000,0.107,-3.141,0.000,0.025,0.000,0.283,-0.20,0.00,-0.12
0.484,takeoff,1,326,244,0.53,0.00,0.00,-0.80,0.00,0.73,-0.00,-0.55,0.000,0.087,0.000,0.107,-3.141,0.000,0.025,0.000,0.282,-0.20,0.00,-0.13
0.484,takeoff,1,326,244,0.53,0.00,0.00,-0.80,0.00,0.73,-0.00,-0.55,0.000,0.087,0.000,0.107,-3.141,0.000,0.025,0.000,0.282,-0.20,0.00,-0.13
0.484,takeoff,1,326,244,0.53,0.00,0.00,-0.80,0.00,0.74,-0.00,-0.55,0.000,0.089,0.000,0.106,-3.141,0.000,0.022,0.000,0.282,-0.20,0.00,-0.13
0.484,takeoff,1,326,245,0.52,0.00,0.00,-0.80,0.00,0.74,-0.00,-0.55,0.000,0.089,0.000,0.106,-3.141,0.000,0.022,0.000,0.282,-0.20,0.00,-0.13
0.500,takeoff,1,326,245,0.52,0.00,0.00,-0.80,0.00,0.74,-0.00,-0.55,0.000,0.089,0.000,0.106,-3.141,0.000,0.022,0.000,0.283,-0.20,0.00,-0.13
0.500,takeoff,1,326,245,0.52,0.00,0.00,-0.80,0.00,0.74,-0.00,-0.55,0.000,0.089,0.000,0.106,-3.141,0.000,0.022,0.000,0.282,-0.22,0.00,-0.13
0.500,takeoff,1,326,245,0.52,0.00,0.00,-0.80,0.00,0.74,-0.00,-0.55,0.000,0.089,0.000,0.105,-3.141,0.000,0.021,0.000,0.282,-0.22,0.00,-0.13
0.500,takeoff,1,326,245,0.52,0.00,0.00,-0.80,0.00,0.74,-0.00,-0.55,0.000,0.089,0.000,0.105,-3.141,0.000,0.021,0.000,0.282,-0.22,0.00,-0.13
0.500,takeoff,1,326,245,0.52,0.00,0.00,-0.80,0.00,0.76,-0.00,-0.55,0.000,0.091,0.000,0.105,-3.141,0.000,0.019,0.000,0.282,-0.22,0.00,-0.13
0.500,takeoff,1,326,245,0.52,0.00,0.00,-0.80,0.00,0.76,-0.00,-0.56,0.000,0.091,0.000,0.105,-3.141,0.000,0.019,0.000,0.282,-0.22,0.00,-0.14
0.500,takeoff,1,326,245,0.52,0.00,0.00,-0.80,0.00,0.76,-0.00,-0.56,0.000,0.091,0.000,0.105,-3.141,0.000,0.018,0.000,0.282,-0.22,0.00,-0.14
0.500,takeoff,1,326,245,0.52,0.00,0.00,-0.80,0.00,0.76,-0.00,-0.56,0.000,0.091,0.000,0.105,-3.141,0.000,0.018,0.000,0.282,-0.22,0.00,-0.14
0.515,takeoff,1,326,245,0.52,0.00,0.00,-0.80,0.00,0.76,-0.00,-0.56,0.000,0.091,0.000,0.105,-3.141,0.000,0.018,0.000,0.282,-0.22,0.00,-0.14
0.515,takeoff,1,326,245,0.52,0.00,0.00,-0.80,0.00,0.76,-0.00,-0.56,0.000,0.091,0.000,0.105,-3.141,0.000,0.018,0.000,0.282,-0.22,0.00,-0.14
0.515,takeoff,1,326,245,0.52,0.00,0.00,-0.80,0.00,0.76,-0.00,-0.56,0.000,0.091,0.000,0.105,-3.141,0.000,0.018,0.000,0.282,-0.22,0.00,-0.14
0.515,takeoff,1,326,245,0.52,0.00,0.00,-0.80,0.00,0.77,-0.00,-0.57,0.000,0.092,0.000,0.104,-3.141,0.000,0.014,0.000,0.281,-0.23,0.00,-0.15
0.515,takeoff,1,326,245,0.52,0.00,0.00,-0.80,0.00,0.77,-0.00,-0.57,0.000,0.092,0.000,0.104,-3.141,0.000,0.014,0.000,0.281,-0.23,0.00,-0.15
0.515,takeoff,1,326,245,0.52,0.00,0.00,-0.80,0.00,0.77,-0.00,-0.57,0.000,0.092,0.000,0.104,-3.141,0.000,0.014,0.000,0.281,-0.23,0.00,-0.15
0.515,takeoff,1,326,245,0.52,0.00,0.00,-0.80,0.00,0.77,-0.00,-0.57,0.000,0.092,0.000,0.104,-3.141,0.000,0.014,0.000,0.281,-0.23,0.00,-0.15
0.531,takeoff,1,326,245,0.52,0.00,0.00,-0.80,0.00,0.77,-0.00,-0.57,0.000,0.092,0.000,0.103,-3.141,0.000,0.014,0.000,0.281,-0.24,0.00,-0.15
0.531,takeoff,1,326,246,0.52,0.00,0.00,-0.80,0.00,0.78,-0.00,-0.57,0.000,0.094,0.000,0.103,-3.141,0.000,0.012,0.000,0.281,-0.24,0.00,-0.15
0.531,takeoff,1,326,246,0.52,0.00,0.00,-0.80,0.00,0.78,-0.00,-0.57,0.000,0.094,0.000,0.103,-3.141,0.000,0.012,0.000,0.281,-0.24,0.00,-0.15
0.531,takeoff,1,326,246,0.52,0.00,0.00,-0.80,0.00,0.78,-0.00,-0.57,0.000,0.094,0.000,0.102,-3.141,0.000,0.010,0.000,0.281,-0.24,0.00,-0.15
0.531,takeoff,1,326,246,0.52,0.00,0.00,-0.80,0.00,0.78,-0.00,-0.57,0.000,0.094,0.000,0.102,-3.141,0.000,0.010,0.000,0.281,-0.24,0.00,-0.15
0.531,takeoff,1,326,246,0.52,0.00,0.00,-0.80,0.00,0.78,-0.00,-0.58,0.000,0.094,0.000,0.102,-3.141,0.000,0.010,0.000,0.281,-0.25,0.00,-0.16
0.546,takeoff,1,326,246,0.52,0.00,0.00,-0.80,0.00,0.78,-0.00,-0.58,0.000,0.094,0.000,0.102,-3.141,0.000,0.010,0.000,0.281,-0.25,0.00,-0.16
0.546,takeoff,1,326,246,0.52,0.00,0.00,-0.80,0.00,0.80,-0.00,-0.58,0.000,0.096,0.000,0.102,-3.141,0.000,0.008,0.000,0.281,-0.25,0.00,-0.16
0.546,takeoff,1,326,246,0.52,0.00,0.00,-0.80,0.00,0.80,-0.00,-0.58,0.000,0.096,0.000,0.102,-3.141,0.000,0.008,0.000,0.281,-0.25,0.00,-0.16
0.546,takeoff,1,326,246,0.52,0.00,0.00,-0.80,0.00,0.80,-0.00,-0.58,0.000,0.096,0.000,0.102,-3.141,0.000,0.008,0.000,0.280,-0.26,0.00,-0.16
0.546,takeoff,1,326,246,0.52,0.00,0.00,-0.80,0.00,0.80,-0.00,-0.58,0.000,0.096,0.000,0.102,-3.141,0.000,0.007,0.000,0.280,-0.26,0.00,-0.16
0.546,takeoff,1,326,248,0.52,0.00,0.00,-0.80,0.00,0.80,-0.00,-0.58,0.000,0.096,0.000,0.102,-3.141,0.000,0.007,0.000,0.280,-0.26,0.00,-0.16
0.562,takeoff,1,326,248,0.52,0.00,0.00,-0.80,0.00,0.81,-0.00,-0.58,0.000,0.097,0.000,0.102,-3.141,0.000,0.005,0.000,0.281,-0.26,0.00,-0.16
0.562,takeoff,1,326,248,0.52,0.00,0.00,-0.80,0.00,0.81,-0.00,-0.59,0.000,0.097,0.000,0.101,-3.141,0.000,0.005,0.000,0.280,-0.27,0.00,-0.17
0.562,takeoff,1,326,248,0.52,0.00,0.00,-0.80,0.00,0.81,-0.00,-0.59,0.000,0.097,0.000,0.101,-3.141,0.000,0.005,0.000,0.280,-0.27,0.00,-0.17
0.562,takeoff,1,326,248,0.52,0.00,0.00,-0.80,0.00,0.81,-0.00,-0.59,0.000,0.097,0.000,0.101,-3.141,0.000,0.005,0.000,0.280,-0.27,0.00,-0.17
0.562,takeoff,1,326,248,0.52,0.00,0.00,-0.80,0.00,0.81,-0.00,-0.59,0.000,0.097,0.000,0.101,-3.141,0.000,0.004,0.000,0.280,-0.28,0.00,-0.18
0.562,takeoff,1,326,248,0.52,0.00,0.00,-0.80,0.00,0.83,-0.00,-0.59,0.000,0.099,0.000,0.101,-3.141,0.000,0.002,0.000,0.280,-0.28,0.00,-0.18
0.578,takeoff,1,326,248,0.52,0.00,0.00,-0.80,0.00,0.83,-0.00,-0.59,0.000,0.099,0.000,0.101,-3.141,0.000,0.002,0.000,0.280,-0.28,0.00,-0.18
0.578,takeoff,1,326,248,0.52,0.00,0.00,-0.80,0.00,0.83,-0.00,-0.59,0.000,0.099,0.000,0.101,-3.141,0.000,0.002,0.000,0.280,-0.28,0.00,-0.18
0.578,takeoff,1,326,248,0.52,0.00,0.00,-0.80,0.00,0.83,-0.00,-0.59,0.000,0.099,0.000,0.101,-3.141,0.000,0.002,0.000,0.280,-0.28,0.00,-0.18
0.578,takeoff,1,326,248,0.52,0.00,0.00,-0.80,0.00,0.83,-0.00,-0.60,0.000,0.099,0.000,0.101,-3.141,0.000,0.002,0.000,0.280,-0.29,0.00,-0.18
0.578,takeoff,1,326,248,0.52,0.00,0.00,-0.80,0.00,0.83,-0.00,-0.60,0.000,0.099,0.000,0.101,-3.141,0.000,0.002,0.000,0.280,-0.29,0.00,-0.18
0.578,takeoff,1,326,248,0.52,0.00,0.00,-0.80,0.00,0.84,-0.00,-0.60,0.000,0.101,0.000,0.100,-3.141,0.000,-0.000,0.000,0.280,-0.29,0.00,-0.18
0.593,takeoff,1,326,248,0.53,0.00,0.00,-0.80,0.00,0.84,-0.00,-0.60,0.000,0.101,0.000,0.100,-3.141,0.000,-0.000,0.000,0.280,-0.29,0.00,-0.18
0.593,takeoff,1,326,248,0.53,0.00,0.00,-0.80,0.00,0.84,-0.00,-0.60,0.000,0.101,0.000,0.100,-3.141,0.000,-0.000,0.000,0.280,-0.30,0.00,-0.19
0.593,takeoff,1,326,248,0.53,0.00,0.00,-0.80,0.00,0.84,-0.00,-0.60,0.000,0.101,0.000,0.100,-3.141,0.000,-0.000,0.000,0.280,-0.30,0.00,-0.19
0.593,takeoff,1,326,248,0.53,0.00,0.00,-0.80,0.00,0.84,-0.00,-0.60,0.000,0.101,0.000,0.100,-3.141,0.000,-0.001,0.000,0.280,-0.30,0.00,-0.19
0.593,takeoff,1,326,248,0.53,0.00,0.00,-0.80,0.00,0.85,-0.00,-0.60,0.000,0.102,0.000,0.100,-3.141,-0.000,-0.003,0.000,0.280,-0.30,0.00,-0.19
0.593,takeoff,1,326,248,0.53,0.00,0.00,-0.80,0.00,0.85,-0.00,-0.61,0.000,0.102,0.000,0.100,-3.141,-0.000,-0.003,0.000,0.280,-0.31,0.00,-0.19
0.609,takeoff,1,326,248,0.53,0.00,0.00,-0.80,0.00,0.85,-0.00,-0.61,0.000,0.102,0.000,0.100,-3.141,-0.000,-0.003,0.000,0.280,-0.31,0.00,-0.19
0.609,takeoff,1,326,248,0.53,0.00,0.00,-0.80,0.00,0.85,-0.00,-0.61,0.000,0.102,0.000,0.100,-3.141,-0.000,-0.003,0.000,0.280,-0.31,0.00,-0.19
0.609,takeoff,1,326,248,0.53,0.00,0.00,-0.80,0.00,0.87,-0.00,-0.61,0.000,0.104,0.000,0.100,-3.141,-0.000,-0.005,0.000,0.280,-0.32,0.00,-0.20
0.609,takeoff,1,326,248,0.53,0.00,0.00,-0.80,0.00,0.87,-0.00,-0.61,0.000,0.104,0.000,0.100,-3.141,-0.000,-0.005,0.000,0.280,-0.32,0.00,-0.20
0.625,takeoff,1,326,248,0.53,0.00,0.00,-0.80,0.00,0.87,-0.00,-0.61,0.000,0.104,0.000,0.100,-3.141,-0.000,-0.005,0.000,0.280,-0.32,0.00,-0.20
0.625,takeoff,1,326,248,0.53,0.00,0.00,-0.80,0.00,0.87,-0.00,-0.62,0.000,0.104,0.000,0.100,-3.141,-0.000,-0.005,0.000,0.280,-0.32,0.00,-0.21
0.625,takeoff,1,326,248,0.51,0.00,0.00,-0.80,0.00,0.88,-0.00,-0.62,0.000,0.105,0.000,0.100,-3.141,-0.000,-0.007,0.000,0.280,-0.32,0.00,-0.21
0.625,takeoff,1,326,248,0.51,0.00,0.00,-0.80,0.00,0.88,-0.00,-0.62,0.000,0.105,0.000,0.100,-3.141,-0.000,-0.007,0.000,0.280,-0.32,0.00,-0.21
0.640,takeoff,1,326,248,0.51,0.00,0.00,-0.80,0.00,0.88,-0.00,-0.62,0.000,0.105,0.000,0.100,-3.141,-0.000,-0.007,0.000,0.280,-0.34,0.00,-0.22
0.640,takeoff,1,326,248,0.51,0.00,0.00,-0.80,0.00,0.88,-0.00,-0.62,0.000,0.105,0.000,0.100,-3.141,-0.000,-0.007,0.000,0.280,-0.34,0.00,-0.22
0.640,takeoff,1,326,248,0.51,0.00,0.00,-0.80,0.00,0.89,-0.00,-0.62,0.000,0.107,0.000,0.100,-3.141,-0.000,-0.009,0.000,0.280,-0.34,0.00,-0.22
0.640,takeoff,1,326,248,0.51,0.00,0.00,-0.80,0.00,0.89,-0.00,-0.62,0.000,0.107,0.000,0.100,-3.141,-0.000,-0.009,0.000,0.280,-0.34,0.00,-0.22
0.640,takeoff,1,326,248,0.51,0.00,0.00,-0.80,0.00,0.89,-0.00,-0.63,0.000,0.107,0.000,0.100,-3.141,-0.000,-0.009,0.000,0.280,-0.34,0.00,-0.22
0.640,takeoff,1,326,248,0.51,0.00,0.00,-0.80,0.00,0.89,-0.00,-0.63,0.000,0.107,0.000,0.100,-3.141,-0.000,-0.009,0.000,0.280,-0.34,0.00,-0.22
0.656,takeoff,1,326,248,0.51,0.00,0.00,-0.80,0.00,0.89,-0.00,-0.63,0.000,0.107,0.000,0.100,-3.141,-0.000,-0.009,0.000,0.280,-0.34,0.00,-0.22
0.656,takeoff,1,326,248,0.51,0.00,0.00,-0.80,0.00,0.89,-0.00,-0.63,0.000,0.107,0.000,0.100,-3.141,-0.000,-0.009,0.000,0.280,-0.34,0.00,-0.22
0.656,takeoff,1,326,248,0.51,0.00,0.00,-0.80,0.00,0.90,-0.00,-0.63,0.000,0.109,0.000,0.100,-3.141,-0.000,-0.011,0.000,0.280,-0.36,0.00,-0.23
0.656,takeoff,1,325,249,0.51,0.00,0.00,-0.80,0.00,0.90,-0.00,-0.63,0.000,0.109,0.000,0.100,-3.141,-0.000,-0.011,0.000,0.280,-0.36,0.00,-0.23
0.656,takeoff,1,325,249,0.51,0.00,0.00,-0.80,0.00,0.90,-0.00,-0.63,0.000,0.109,0.000,0.100,-3.141,-0.000,-0.011,0.000,0.280,-0.36,0.00,-0.23
0.656,takeoff,1,325,249,0.51,0.00,0.00,-0.80,0.00,0.90,-0.00,-0.63,0.000,0.109,0.000,0.100,-3.141,-0.000,-0.011,0.000,0.280,-0.36,0.00,-0.23
0.671,takeoff,1,325,249,0.51,0.00,0.00,-0.80,0.00,0.90,-0.00,-0.63,0.000,0.109,0.000,0.100,-3.141,-0.000,-0.011,0.000,0.280,-0.36,0.00,-0.23
0.671,takeoff,1,325,249,0.51,0.00,0.00,-0.80,0.00,0.92,-0.00,-0.64,0.000,0.110,0.000,0.100,-3.141,-0.000,-0.013,0.000,0.280,-0.37,0.00,-0.24
0.671,takeoff,1,325,249,0.51,0.00,0.00,-0.80,0.00,0.92,-0.00,-0.64,0.000,0.110,0.000,0.100,-3.141,-0.000,-0.013,0.000,0.280,-0.37,0.00,-0.24
0.671,takeoff,1,325,249,0.51,0.00,0.00,-0.80,0.00,0.92,-0.00,-0.64,0.000,0.110,0.000,0.100,-3.141,-0.000,-0.013,0.000,0.280,-0.37,0.00,-0.24
0.671,takeoff,1,325,249,0.51,0.00,0.00,-0.80,0.00,0.92,-0.00,-0.64,0.000,0.110,0.000,0.100,-3.141,-0.000,-0.013,0.000,0.280,-0.37,0.00,-0.24
0.671,takeoff,1,325,249,0.51,0.00,0.00,-0.80,0.00,0.92,-0.00,-0.65,0.000,0.110,0.000,0.100,-3.141,-0.000,-0.013,0.000,0.280,-0.38,0.00,-0.24
0.687,takeoff,1,325,249,0.51,0.00,0.00,-0.80,0.00,0.93,-0.00,-0.65,0.000,0.112,0.000,0.100,-3.141,-0.000,-0.015,0.000,0.280,-0.38,0.00,-0.24
0.687,takeoff,1,325,249,0.51,0.00,0.00,-0.80,0.00,0.93,-0.00,-0.65,0.000,0.112,0.000,0.100,-3.141,-0.000,-0.015,0.000,0.280,-0.38,0.00,-0.24
0.687,takeoff,1,325,249,0.51,0.00,0.00,-0.80,0.00,0.93,-0.00,-0.65,0.000,0.112,0.000,0.100,-3.141,-0.000,-0.015,0.000,0.280,-0.38,0.00,-0.24
0.687,takeoff,1,325,249,0.51,0.00,0.00,-0.80,0.00,0.93,-0.00,-0.65,0.000,0.112,0.000,0.100,-3.141,-0.000,-0.015,0.000,0.280,-0.39,0.00,-0.25
0.687,takeoff,1,326,249,0.50,0.00,0.00,-0.80,0.00,0.93,-0.00,-0.65,0.000,0.112,0.000,0.100,-3.141,-0.000,-0.015,0.000,0.280,-0.39,0.00,-0.25
0.687,takeoff,1,326,249,0.50,0.00,0.00,-0.80,0.00,0.93,-0.00,-0.65,0.000,0.112,0.000,0.100,-3.141,-0.000,-0.015,0.000,0.280,-0.39,0.00,-0.25
0.703,takeoff,1,326,249,0.50,0.00,0.00,-0.80,0.00,0.94,-0.00,-0.65,0.000,0.113,0.000,0.100,-3.141,-0.000,-0.017,0.000,0.280,-0.39,0.00,-0.25
0.703,takeoff,1,326,249,0.50,0.00,0.00,-0.80,0.00,0.94,-0.00,-0.66,0.000,0.113,0.000,0.100,-3.141,-0.000,-0.017,0.000,0.280,-0.40,0.00,-0.26
0.703,takeoff,1,326,249,0.50,0.00,0.00,-0.80,0.00,0.94,-0.00,-0.66,0.000,0.113,0.000,0.100,-3.141,-0.000,-0.016,0.000,0.280,-0.40,0.00,-0.26
0.703,takeoff,1,326,249,0.50,0.00,0.00,-0.80,0.00,0.94,-0.00,-0.66,0.000,0.113,0.000,0.100,-3.141,-0.000,-0.016,0.000,0.280,-0.40,0.00,-0.26
0.703,takeoff,1,326,249,0.50,0.00,0.00,-0.80,0.00,0.94,-0.00,-0.66,0.000,0.113,0.000,0.100,-3.141,-0.000,-0.016,0.000,0.280,-0.40,0.00,-0.26
0.703,takeoff,1,326,249,0.50,0.00,0.00,-0.80,0.00,0.95,-0.00,-0.66,0.000,0.114,0.000,0.100,-3.141,-0.000,-0.017,0.000,0.280,-0.40,0.00,-0.26
0.703,takeoff,1,326,249,0.50,0.00,0.00,-0.80,0.00,0.95,-0.00,-0.67,0.000,0.114,0.000,0.100,-3.141,-0.000,-0.017,0.000,0.280,-0.41,0.00,-0.27
0.718,takeoff,1,326,249,0.50,0.00,0.00,-0.80,0.00,0.95,-0.00,-0.67,0.000,0.114,0.000,0.100,-3.141,-0.000,-0.017,0.000,0.280,-0.41,0.00,-0.27
0.718,takeoff,1,326,249,0.50,0.00,0.00,-0.80,0.00,0.95,-0.00,-0.67,0.000,0.114,0.000,0.100,-3.141,-0.000,-0.017,0.000,0.280,-0.41,0.00,-0.27
0.718,takeoff,1,326,249,0.50,0.00,0.00,-0.80,0.00,0.95,-0.00,-0.67,0.000,0.114,0.000,0.100,-3.141,-0.000,-0.017,0.000,0.280,-0.41,0.00,-0.27
0.718,takeoff,1,326,249,0.50,0.00,0.00,-0.80,0.00,0.95,-0.00,-0.67,0.000,0.114,0.000,0.101,-3.141,-0.000,-0.017,0.000,0.280,-0.42,0.00,-0.27
0.718,takeoff,1,326,249,0.50,0.00,0.00,-0.80,0.00,0.96,-0.00,-0.67,0.000,0.115,0.000,0.101,-3.141,-0.000,-0.019,0.000,0.280,-0.42,0.00,-0.27
0.718,takeoff,1,326,249,0.50,0.00,0.00,-0.80,0.00,0.96,-0.00,-0.67,0.000,0.115,0.000,0.101,-3.141,-0.000,-0.019,0.000,0.280,-0.42,0.00,-0.27
0.734,takeoff,1,326,249,0.50,0.00,0.00,-0.80,0.00,0.96,-0.00,-0.67,0.000,0.115,0.000,0.101,-3.141,-0.000,-0.019,0.000,0.280,-0.42,0.00,-0.27
0.734,takeoff,1,326,249,0.50,0.00,0.00,-0.80,0.00,0.96,-0.00,-0.68,0.000,0.115,0.000,0.101,-3.141,-0.000,-0.018,0.000,0.280,-0.44,0.00,-0.28
0.734,takeoff,1,326,249,0.50,0.00,0.00,-0.80,0.00,0.96,-0.00,-0.68,0.000,0.115,0.000,0.101,-3.141,-0.000,-0.018,0.000,0.280,-0.44,0.00,-0.28
0.734,takeoff,1,326,249,0.50,0.00,0.00,-0.80,0.00,0.98,-0.00,-0.68,0.000,0.117,0.000,0.101,-3.141,-0.000,-0.020,0.000,0.280,-0.44,0.00,-0.28
0.734,takeoff,1,326,249,0.50,0.00,0.00,-0.80,0.00,0.98,-0.00,-0.68,0.000,0.117,0.000,0.101,-3.141,-0.000,-0.020,0.000,0.280,-0.44,0.00,-0.28
0.734,takeoff,1,326,249,0.50,0.00,0.00,-0.80,0.00,0.98,-0.00,-0.68,0.000,0.117,0.000,0.101,-3.141,-0.000,-0.020,0.000,0.280,-0.44,0.00,-0.28
0.750,takeoff,1,326,249,0.50,0.00,0.00,-0.80,0.00,0.98,-0.00,-0.68,0.000,0.117,0.000,0.101,-3.141,-0.000,-0.020,0.000,0.280,-0.44,0.00,-0.28
0.750,takeoff,1,326,249,0.50,0.00,0.00,-0.80,0.00,0.98,-0.00,-0.68,0.000,0.117,0.000,0.101,-3.141,-0.000,-0.020,0.000,0.280,-0.44,0.00,-0.28
0.750,takeoff,1,326,249,0.50,0.00,0.00,-0.80,0.00,0.99,-0.00,-0.68,0.000,0.119,0.000,0.101,-3.141,-0.000,-0.021,0.000,0.280,-0.44,0.00,-0.28
0.750,takeoff,1,326,249,0.50,0.00,0.00,-0.80,0.00,0.99,-0.00,-0.68,0.000,0.119,0.000,0.101,-3.141,-0.000,-0.021,0.000,0.280,-0.44,0.00,-0.28
0.750,takeoff,1,326,249,0.50,0.00,0.00,-0.80,0.00,0.99,-0.00,-0.69,0.000,0.119,0.000,0.101,-3.141,-0.000,-0.021,0.000,0.280,-0.46,0.00,-0.29
0.750,takeoff,1,326,249,0.51,0.00,0.00,-0.80,0.00,0.99,-0.00,-0.69,0.000,0.119,0.000,0.101,-3.141,-0.000,-0.021,0.000,0.280,-0.46,0.00,-0.29
0.750,takeoff,1,326,249,0.51,0.00,0.00,-0.80,0.00,0.99,-0.00,-0.69,0.000,0.119,0.000,0.102,-3.141,-0.000,-0.021,0.000,0.280,-0.46,0.00,-0.29
0.750,takeoff,1,326,249,0.51,0.00,0.00,-0.80,0.00,0.99,-0.00,-0.69,0.000,0.119,0.000,0.102,-3.141,-0.000,-0.021,0.000,0.280,-0.46,0.00,-0.29
0.765,takeoff,1,326,249,0.51,0.00,0.00,-0.80,0.00,0.99,-0.00,-0.69,0.000,0.119,0.000,0.102,-3.141,-0.000,-0.021,0.000,0.280,-0.46,0.00,-0.29
0.765,takeoff,1,326,249,0.51,0.00,0.00,-0.80,0.00,1.00,-0.00,-0.69,0.000,0.120,0.000,0.102,-3.141,-0.000,-0.023,0.000,0.280,-0.47,0.00,-0.30
0.765,takeoff,1,326,249,0.51,0.00,0.00,-0.80,0.00,1.00,-0.00,-0.69,0.000,0.120,0.000,0.102,-3.141,-0.000,-0.022,0.000,0.280,-0.47,0.00,-0.30
0.765,takeoff,1,326,249,0.51,0.00,0.00,-0.80,0.00,1.00,-0.00,-0.69,0.000,0.120,0.000,0.102,-3.141,-0.000,-0.022,0.000,0.280,-0.47,0.00,-0.30
0.765,takeoff,1,326,249,0.51,0.00,0.00,-0.80,0.00,1.00,-0.00,-0.69,0.000,0.120,0.000,0.102,-3.141,-0.000,-0.022,0.000,0.280,-0.47,0.00,-0.30
0.765,takeoff,1,326,249,0.51,0.00,0.00,-0.80,0.00,1.00,-0.00,-0.70,0.000,0.120,0.000,0.102,-3.141,-0.000,-0.022,0.000,0.280,-0.48,0.00,-0.31
0.781,takeoff,1,326,249,0.51,0.00,0.00,-0.80,0.00,1.00,-0.00,-0.70,0.000,0.120,0.000,0.102,-3.141,-0.000,-0.022,0.000,0.280,-0.48,0.00,-0.31
0.781,takeoff,1,326,249,0.51,0.00,0.00,-0.80,0.00,1.01,-0.00,-0.70,0.000,0.122,0.000,0.102,-3.141,-0.000,-0.024,0.000,0.280,-0.48,0.00,-0.31
0.781,takeoff,1,326,249,0.51,0.00,0.00,-0.80,0.00,1.01,-0.00,-0.70,0.000,0.122,0.000,0.102,-3.141,-0.000,-0.024,0.000,0.280,-0.48,0.00,-0.31
0.781,takeoff,1,326,249,0.51,0.00,0.00,-0.80,0.00,1.01,-0.00,-0.70,0.000,0.122,0.000,0.103,-3.141,-0.000,-0.024,0.000,0.280,-0.48,0.00,-0.31
0.781,takeoff,1,326,249,0.51,0.00,0.00,-0.80,0.00,1.01,-0.00,-0.71,0.000,0.122,0.000,0.103,-3.141,-0.000,-0.024,0.000,0.280,-0.49,0.00,-0.31
0.781,takeoff,1,326,249,0.51,0.00,0.00,-0.80,0.00,1.01,-0.00,-0.71,0.000,0.122,0.000,0.103,-3.141,-0.000,-0.024,0.000,0.280,-0.49,0.00,-0.31
0.781,takeoff,1,326,249,0.51,0.00,0.00,-0.80,0.00,1.01,-0.00,-0.71,0.000,0.122,0.000,0.103,-3.141,-0.000,-0.024,0.000,0.280,-0.49,0.00,-0.31
0.796,takeoff,1,326,249,0.51,0.00,0.00,-0.80,0.00,1.03,-0.00,-0.71,0.000,0.123,0.000,0.103,-3.141,-0.000,-0.025,0.000,0.280,-0.49,0.00,-0.31
0.796,takeoff,1,326,249,0.51,0.00,0.00,-0.80,0.00,1.03,-0.00,-0.71,0.000,0.123,0.000,0.103,-3.141,-0.000,-0.025,0.000,0.280,-0.50,0.00,-0.32
0.796,takeoff,1,326,249,0.51,0.00,0.00,-0.80,0.00,1.03,-0.00,-0.71,0.000,0.123,0.000,0.103,-3.141,-0.000,-0.025,0.000,0.280,-0.50,0.00,-0.32
0.796,takeoff,1,326,249,0.51,0.00,0.00,-0.80,0.00,1.03,-0.00,-0.71,0.000,0.123,0.000,0.103,-3.141,-0.000,-0.025,0.000,0.280,-0.50,0.00,-0.32
0.796,takeoff,1,326,249,0.51,0.00,0.00,-0.80,0.00,1.03,-0.00,-0.71,0.000,0.123,0.000,0.104,-3.141,-0.000,-0.024,0.000,0.280,-0.50,0.00,-0.32
0.796,takeoff,1,326,249,0.51,0.00,0.00,-0.80,0.00,1.04,-0.00,-0.71,0.000,0.125,0.000,0.104,-3.141,-0.000,-0.026,0.000,0.280,-0.50,0.00,-0.32
0.812,takeoff,1,326,249,0.51,0.00,0.00,-0.80,0.00,1.04,-0.00,-0.72,0.000,0.125,0.000,0.104,-3.141,-0.000,-0.026,0.000,0.280,-0.51,0.00,-0.33
0.812,takeoff,1,326,249,0.51,0.00,0.00,-0.80,0.00,1.04,-0.00,-0.72,0.000,0.125,0.000,0.104,-3.141,-0.000,-0.026,0.000,0.280,-0.51,0.00,-0.33
0.812,takeoff,1,326,249,0.51,0.00,0.00,-0.80,0.00,1.04,-0.00,-0.72,0.000,0.125,0.000,0.104,-3.141,-0.000,-0.026,0.000,0.280,-0.51,0.00,-0.33
0.812,takeoff,1,326,249,0.51,0.00,0.00,-0.80,0.00,1.04,-0.00,-0.72,0.000,0.125,0.000,0.104,-3.141,-0.000,-0.026,0.000,0.280,-0.51,0.00,-0.33
0.812,takeoff,1,326,249,0.51,0.00,0.00,-0.80,0.00,1.04,-0.00,-0.73,0.000,0.125,0.000,0.104,-3.141,-0.000,-0.026,0.000,0.280,-0.53,0.00,-0.34
0.812,takeoff,1,326,249,0.51,0.00,0.00,-0.80,0.00,1.05,-0.00,-0.73,0.000,0.126,0.000,0.104,-3.141,-0.000,-0.027,0.000,0.280,-0.53,0.00,-0.34
0.812,takeoff,1,326,249,0.51,0.00,0.00,-0.80,0.00,1.05,-0.00,-0.73,0.000,0.126,0.000,0.104,-3.141,-0.000,-0.027,0.000,0.280,-0.53,0.00,-0.34
0.828,takeoff,1,326,249,0.51,0.00,0.00,-0.80,0.00,1.05,-0.00,-0.73,0.000,0.126,0.000,0.104,-3.141,-0.000,-0.027,0.000,0.280,-0.53,0.00,-0.34
0.828,takeoff,1,326,249,0.49,0.00,0.00,-0.80,0.00,1.05,-0.00,-0.73,0.000,0.126,0.000,0.104,-3.141,-0.000,-0.027,0.000,0.280,-0.53,0.00,-0.34
0.828,takeoff,1,326,249,0.49,0.00,0.00,-0.80,0.00,1.05,-0.00,-0.73,0.000,0.126,0.000,0.105,-3.141,-0.000,-0.026,0.000,0.280,-0.54,0.00,-0.35
0.828,takeoff,1,326,249,0.49,0.00,0.00,-0.80,0.00,1.06,-0.00,-0.73,0.000,0.128,0.000,0.105,-3.141,-0.000,-0.028,0.000,0.280,-0.54,0.00,-0.35
0.828,takeoff,1,326,249,0.49,0.00,0.00,-0.80,0.00,1.06,-0.00,-0.73,0.000,0.128,0.000,0.105,-3.141,-0.000,-0.028,0.000,0.280,-0.54,0.00,-0.35
0.843,takeoff,1,326,249,0.49,0.00,0.00,-0.80,0.00,1.06,-0.00,-0.74,0.000,0.128,0.000,0.105,-3.141,-0.000,-0.028,0.000,0.280,-0.55,0.00,-0.35
0.843,takeoff,1,326,249,0.49,0.00,0.00,-0.80,0.00,1.06,-0.00,-0.74,0.000,0.128,0.000,0.105,-3.141,-0.000,-0.028,0.000,0.280,-0.55,0.00,-0.35
0.843,takeoff,1,326,249,0.49,0.00,0.00,-0.80,0.00,1.06,-0.00,-0.74,0.000,0.128,0.000,0.105,-3.141,-0.000,-0.028,0.000,0.280,-0.55,0.00,-0.35
0.843,takeoff,1,326,249,0.49,0.00,0.00,-0.80,0.00,1.08,-0.00,-0.74,0.000,0.129,0.000,0.106,-3.141,-0.000,-0.029,0.000,0.280,-0.55,0.00,-0.35
0.843,takeoff,1,326,249,0.49,0.00,0.00,-0.80,0.00,1.08,-0.00,-0.75,0.000,0.129,0.000,0.106,-3.141,-0.000,-0.029,0.000,0.280,-0.57,0.00,-0.36
0.843,takeoff,1,326,249,0.49,0.00,0.00,-0.80,0.00,1.08,-0.00,-0.75,0.000,0.129,0.000,0.106,-3.141,-0.000,-0.029,0.000,0.280,-0.57,0.00,-0.36
0.843,takeoff,1,326,249,0.49,0.00,0.00,-0.80,0.00,1.08,-0.00,-0.75,0.000,0.129,0.000,0.106,-3.141,-0.000,-0.029,0.000,0.280,-0.57,0.00,-0.36
0.859,takeoff,1,326,249,0.49,0.00,0.00,-0.80,0.00,1.08,-0.00,-0.75,0.000,0.129,0.000,0.107,-3.141,-0.000,-0.028,0.000,0.280,-0.57,0.00,-0.36
0.859,takeoff,1,326,249,0.49,0.00,0.00,-0.80,0.00,1.08,-0.00,-0.75,0.000,0.129,0.000,0.107,-3.141,-0.000,-0.028,0.000,0.280,-0.57,0.00,-0.36
0.859,takeoff,1,326,249,0.49,0.00,0.00,-0.80,0.00,1.08,-0.00,-0.75,0.000,0.129,0.000,0.107,-3.141,-0.000,-0.028,0.000,0.280,-0.57,0.00,-0.36
0.859,takeoff,1,326,249,0.49,0.00,0.00,-0.80,0.00,1.09,-0.00,-0.75,0.000,0.131,0.000,0.107,-3.141,-0.000,-0.030,0.000,0.280,-0.58,0.00,-0.37
0.859,takeoff,1,326,249,0.49,0.00,0.00,-0.80,0.00,1.09,-0.00,-0.75,0.000,0.131,0.000,0.107,-3.141,-0.000,-0.030,0.000,0.280,-0.58,0.00,-0.37
0.859,takeoff,1,326,249,0.49,0.00,0.00,-0.80,0.00,1.09,-0.00,-0.75,0.000,0.131,0.000,0.107,-3.141,-0.000,-0.030,0.000,0.280,-0.58,0.00,-0.37
0.859,takeoff,1,326,249,0.49,0.00,0.00,-0.80,0.00,1.09,-0.00,-0.75,0.000,0.131,0.000,0.107,-3.141,-0.000,-0.030,0.000,0.280,-0.58,0.00,-0.37
0.875,takeoff,1,326,249,0.49,0.00,0.00,-0.80,0.00,1.09,-0.00,-0.76,0.000,0.131,0.000,0.107,-3.141,-0.000,-0.030,0.000,0.280,-0.59,0.00,-0.38
0.875,takeoff,1,326,249,0.49,0.00,0.00,-0.80,0.00,1.10,-0.00,-0.76,0.000,0.132,0.000,0.108,-3.141,-0.000,-0.031,0.000,0.280,-0.59,0.00,-0.38
0.875,takeoff,1,326,249,0.49,0.00,0.00,-0.80,0.00,1.10,-0.00,-0.76,0.000,0.132,0.000,0.108,-3.141,-0.000,-0.031,0.000,0.280,-0.59,0.00,-0.38
0.875,takeoff,1,326,249,0.49,0.00,0.00,-0.80,0.00,1.10,-0.00,-0.76,0.000,0.132,0.000,0.108,-3.141,-0.000,-0.031,0.000,0.280,-0.59,0.00,-0.38
0.875,takeoff,1,326,249,0.49,0.00,0.00,-0.80,0.00,1.10,-0.00,-0.76,0.000,0.132,0.000,0.108,-3.141,-0.000,-0.031,0.000,0.280,-0.59,0.00,-0.38
0.875,takeoff,1,326,249,0.49,0.00,0.00,-0.80,0.00,1.10,-0.00,-0.76,0.000,0.132,0.000,0.108,-3.141,-0.000,-0.031,0.000,0.280,-0.60,0.00,-0.38
0.875,takeoff,1,326,249,0.49,0.00,0.00,-0.80,0.00,1.10,-0.00,-0.76,0.000,0.132,0.000,0.108,-3.141,-0.000,-0.031,0.000,0.280,-0.60,0.00,-0.38
0.875,takeoff,1,326,249,0.49,0.00,0.00,-0.80,0.00,1.10,-0.00,-0.76,0.000,0.132,0.000,0.108,-3.141,-0.000,-0.031,0.000,0.280,-0.60,0.00,-0.38
0.890,takeoff,1,326,249,0.49,0.00,0.00,-0.80,0.00,1.10,-0.00,-0.76,0.000,0.132,0.000,0.108,-3.141,-0.000,-0.031,0.000,0.280,-0.60,0.00,-0.38
0.890,takeoff,1,326,249,0.49,0.00,0.00,-0.80,0.00,1.11,-0.00,-0.76,0.000,0.133,0.000,0.108,-3.141,-0.000,-0.032,0.000,0.280,-0.60,0.00,-0.38
0.890,takeoff,1,326,249,0.49,0.00,0.00,-0.80,0.00,1.11,-0.00,-0.77,0.000,0.133,0.000,0.108,-3.141,-0.000,-0.031,0.000,0.280,-0.61,0.00,-0.39
0.890,takeoff,1,326,248,0.50,0.00,0.00,-0.80,0.00,1.11,-0.00,-0.77,0.000,0.133,0.000,0.108,-3.141,-0.000,-0.031,0.000,0.280,-0.61,0.00,-0.39
0.890,takeoff,1,326,248,0.50,0.00,0.00,-0.80,0.00,1.11,-0.00,-0.77,0.000,0.133,0.000,0.108,-3.141,-0.000,-0.031,0.000,0.280,-0.61,0.00,-0.39
0.890,takeoff,1,326,248,0.50,0.00,0.00,-0.80,0.00,1.11,-0.00,-0.77,0.000,0.133,0.000,0.108,-3.141,-0.000,-0.031,0.000,0.280,-0.61,0.00,-0.39
0.906,takeoff,1,326,248,0.50,0.00,0.00,-0.80,0.00,1.13,-0.00,-0.77,0.000,0.135,0.000,0.109,-3.141,-0.000,-0.033,0.000,0.280,-0.61,0.00,-0.39
0.906,takeoff,1,326,248,0.50,0.00,0.00,-0.80,0.00,1.13,-0.00,-0.78,0.000,0.135,0.000,0.109,-3.141,-0.000,-0.033,0.000,0.280,-0.63,0.00,-0.40
0.906,takeoff,1,326,248,0.50,0.00,0.00,-0.80,0.00,1.13,-0.00,-0.78,0.000,0.135,0.000,0.109,-3.141,-0.000,-0.033,0.000,0.280,-0.63,0.00,-0.40
0.906,takeoff,1,326,248,0.50,0.00,0.00,-0.80,0.00,1.13,-0.00,-0.78,0.000,0.135,0.000,0.109,-3.141,-0.000,-0.033,0.000,0.280,-0.63,0.00,-0.40
0.906,takeoff,1,326,248,0.50,0.00,0.00,-0.80,0.00,1.13,-0.00,-0.78,0.000,0.135,0.000,0.109,-3.141,-0.000,-0.033,0.000,0.280,-0.63,0.00,-0.40
0.906,takeoff,1,326,248,0.50,0.00,0.00,-0.80,0.00,1.13,-0.00,-0.78,0.000,0.135,0.000,0.110,-3.141,-0.000,-0.032,0.000,0.280,-0.63,0.00,-0.40
0.906,takeoff,1,326,248,0.50,0.00,0.00,-0.80,0.00,1.13,-0.00,-0.78,0.000,0.135,0.000,0.110,-3.141,-0.000,-0.032,0.000,0.280,-0.64,0.00,-0.41
0.906,takeoff,1,326,248,0.50,0.00,0.00,-0.80,0.00,1.14,-0.00,-0.78,0.000,0.137,0.000,0.110,-3.141,-0.000,-0.034,0.000,0.280,-0.64,0.00,-0.41
0.921,takeoff,1,326,248,0.50,0.00,0.00,-0.80,0.00,1.14,-0.00,-0.78,0.000,0.137,0.000,0.111,-3.141,-0.000,-0.033,0.000,0.280,-0.64,0.00,-0.41
0.921,takeoff,1,326,248,0.50,0.00,0.00,-0.80,0.00,1.14,-0.00,-0.78,0.000,0.137,0.000,0.111,-3.141,-0.000,-0.033,0.000,0.280,-0.64,0.00,-0.41
0.921,takeoff,1,326,248,0.50,0.00,0.00,-0.80,0.00,1.14,-0.00,-0.78,0.000,0.137,0.000,0.111,-3.141,-0.000,-0.033,0.000,0.280,-0.64,0.00,-0.41
0.921,takeoff,1,326,248,0.50,0.00,0.00,-0.80,0.00,1.14,-0.00,-0.79,0.000,0.137,0.000,0.111,-3.141,-0.000,-0.033,0.000,0.280,-0.66,0.00,-0.42
0.921,takeoff,1,326,248,0.50,0.00,0.00,-0.80,0.00,1.14,-0.00,-0.79,0.000,0.137,0.000,0.111,-3.141,-0.000,-0.032,0.000,0.280,-0.66,0.00,-0.42
0.921,takeoff,1,326,248,0.50,0.00,0.00,-0.80,0.00,1.15,-0.00,-0.79,0.000,0.139,0.000,0.111,-3.141,-0.000,-0.034,0.000,0.280,-0.66,0.00,-0.42
0.921,takeoff,1,326,248,0.50,0.00,0.00,-0.80,0.00,1.15,-0.00,-0.79,0.000,0.139,0.000,0.111,-3.141,-0.000,-0.034,0.000,0.280,-0.66,0.00,-0.42
0.937,takeoff,1,326,248,0.50,0.00,0.00,-0.80,0.00,1.15,-0.00,-0.79,0.000,0.139,0.000,0.111,-3.141,-0.000,-0.034,0.000,0.280,-0.66,0.00,-0.42
0.937,takeoff,1,326,248,0.50,0.00,0.00,-0.80,0.00,1.15,-0.00,-0.79,0.000,0.139,0.000,0.112,-3.141,-0.000,-0.034,0.000,0.280,-0.67,0.00,-0.43
0.937,takeoff,1,326,248,0.50,0.00,0.00,-0.80,0.00,1.15,-0.00,-0.79,0.000,0.139,0.000,0.112,-3.141,-0.000,-0.034,0.000,0.280,-0.67,0.00,-0.43
0.937,takeoff,1,326,248,0.50,0.00,0.00,-0.80,0.00,1.15,-0.00,-0.79,0.000,0.139,0.000,0.112,-3.141,-0.000,-0.034,0.000,0.280,-0.67,0.00,-0.43
0.937,takeoff,1,326,248,0.50,0.00,0.00,-0.80,0.00,1.17,-0.00,-0.79,0.000,0.140,0.000,0.112,-3.141,-0.000,-0.036,0.000,0.280,-0.67,0.00,-0.43
0.937,takeoff,1,326,248,0.50,0.00,0.00,-0.80,0.00,1.17,-0.00,-0.80,0.000,0.140,0.000,0.113,-3.141,-0.000,-0.034,0.000,0.280,-0.68,0.00,-0.44
0.937,takeoff,1,326,248,0.50,0.00,0.00,-0.80,0.00,1.17,-0.00,-0.80,0.000,0.140,0.000,0.113,-3.141,-0.000,-0.034,0.000,0.280,-0.68,0.00,-0.44
0.953,takeoff,1,326,248,0.50,0.00,0.00,-0.80,0.00,1.17,-0.00,-0.80,0.000,0.140,0.000,0.113,-3.141,-0.000,-0.034,0.000,0.280,-0.68,0.00,-0.44
0.953,takeoff,1,326,248,0.50,0.00,0.00,-0.80,0.00,1.17,-0.00,-0.80,0.000,0.140,0.000,0.113,-3.141,-0.000,-0.034,0.000,0.280,-0.68,0.00,-0.44
0.953,takeoff,1,326,248,0.50,0.00,0.00,-0.80,0.00,1.17,-0.00,-0.80,0.000,0.140,0.000,0.113,-3.141,-0.000,-0.034,0.000,0.280,-0.68,0.00,-0.44
0.953,takeoff,1,326,248,0.50,0.00,0.00,-0.80,0.00,1.18,-0.00,-0.81,0.000,0.142,0.000,0.113,-3.141,-0.000,-0.036,0.000,0.280,-0.69,0.00,-0.44
0.953,takeoff,1,326,246,0.50,0.00,0.00,-0.80,0.00,1.18,-0.00,-0.81,0.000,0.142,0.000,0.113,-3.141,-0.000,-0.036,0.000,0.280,-0.69,0.00,-0.44
0.953,takeoff,1,326,246,0.50,0.00,0.00,-0.80,0.00,1.18,-0.00,-0.81,0.000,0.142,0.000,0.113,-3.141,-0.000,-0.036,0.000,0.280,-0.69,0.00,-0.44
0.953,takeoff,1,326,246,0.50,0.00,0.00,-0.80,0.00,1.18,-0.00,-0.81,0.000,0.142,0.000,0.114,-3.141,-0.000,-0.035,0.000,0.280,-0.69,0.00,-0.44
0.968,takeoff,1,326,246,0.50,0.00,0.00,-0.80,0.00,1.18,-0.00,-0.81,0.000,0.142,0.000,0.114,-3.141,-0.000,-0.035,0.000,0.280,-0.69,0.00,-0.44
0.968,takeoff,1,326,246,0.50,0.00,0.00,-0.80,0.00,1.18,-0.00,-0.81,0.000,0.142,0.000,0.114,-3.141,-0.000,-0.035,0.000,0.280,-0.71,0.00,-0.46
0.968,takeoff,1,326,246,0.50,0.00,0.00,-0.80,0.00,1.19,-0.00,-0.81,0.000,0.143,0.000,0.114,-3.141,-0.000,-0.037,0.000,0.280,-0.71,0.00,-0.46
0.968,takeoff,1,326,246,0.50,0.00,0.00,-0.80,0.00,1.19,-0.00,-0.81,0.000,0.143,0.000,0.114,-3.141,-0.000,-0.036,0.000,0.280,-0.71,0.00,-0.46
0.968,takeoff,1,326,246,0.50,0.00,0.00,-0.80,0.00,1.19,-0.00,-0.81,0.000,0.143,0.000,0.114,-3.141,-0.000,-0.036,0.000,0.280,-0.71,0.00,-0.46
0.968,takeoff,1,326,246,0.50,0.00,0.00,-0.80,0.00,1.19,-0.00,-0.81,0.000,0.143,0.000,0.114,-3.141,-0.000,-0.036,0.000,0.280,-0.71,0.00,-0.46
0.984,takeoff,1,326,246,0.50,0.00,0.00,-0.80,0.00,1.19,-0.00,-0.82,0.000,0.143,0.000,0.114,-3.141,-0.000,-0.036,0.000,0.280,-0.72,0.00,-0.46
0.984,takeoff,1,326,246,0.50,0.00,0.00,-0.80,0.00,1.19,-0.00,-0.82,0.000,0.143,0.000,0.115,-3.141,-0.000,-0.035,0.000,0.280,-0.72,0.00,-0.46
0.984,takeoff,1,326,246,0.50,0.00,0.00,-0.80,0.00,1.21,-0.00,-0.82,0.000,0.145,0.000,0.115,-3.141,-0.000,-0.037,0.000,0.280,-0.72,0.00,-0.46
0.984,takeoff,1,326,246,0.50,0.00,0.00,-0.80,0.00,1.21,-0.00,-0.82,0.000,0.145,0.000,0.115,-3.141,-0.000,-0.037,0.000,0.280,-0.72,0.00,-0.46
0.984,takeoff,1,326,246,0.50,0.00,0.00,-0.80,0.00,1.21,-0.00,-0.82,0.000,0.145,0.000,0.115,-3.141,-0.000,-0.037,0.000,0.280,-0.72,0.00,-0.46
0.984,takeoff,1,326,246,0.50,0.00,0.00,-0.80,0.00,1.21,-0.00,-0.82,0.000,0.145,0.000,0.116,-3.141,-0.000,-0.036,0.000,0.280,-0.74,0.00,-0.47
0.984,takeoff,1,326,246,0.50,0.00,0.00,-0.80,0.00,1.21,-0.00,-0.82,0.000,0.145,0.000,0.116,-3.141,-0.000,-0.036,0.000,0.280,-0.74,0.00,-0.47
0.984,takeoff,1,326,246,0.50,0.00,0.00,-0.80,0.00,1.21,-0.00,-0.82,0.000,0.145,0.000,0.116,-3.141,-0.000,-0.036,0.000,0.280,-0.74,0.00,-0.47
1.000,takeoff,1,326,246,0.50,0.00,0.00,-0.80,0.00,1.22,-0.00,-0.82,0.000,0.147,0.000,0.116,-3.141,-0.000,-0.038,0.000,0.280,-0.74,0.00,-0.47
1.000,takeoff,1,326,246,0.50,0.00,0.00,-0.80,0.00,1.22,-0.00,-0.83,0.000,0.147,0.000,0.117,-3.141,-0.000,-0.038,0.000,0.280,-0.75,0.00,-0.48
1.000,takeoff,1,326,246,0.50,0.00,0.00,-0.80,0.00,1.22,-0.00,-0.83,0.000,0.147,0.000,0.117,-3.141,-0.000,-0.038,0.000,0.280,-0.75,0.00,-0.48
1.000,takeoff,1,326,246,0.50,0.00,0.00,-0.80,0.00,1.22,-0.00,-0.83,0.000,0.147,0.000,0.117,-3.141,-0.000,-0.038,0.000,0.280,-0.75,0.00,-0.48
1.000,takeoff,1,326,246,0.50,0.00,0.00,-0.80,0.00,1.22,-0.00,-0.83,0.000,0.147,0.000,0.117,-3.141,-0.000,-0.038,0.000,0.280,-0.75,0.00,-0.48
1.000,takeoff,1,326,246,0.50,0.00,0.00,-0.80,0.00,1.22,-0.00,-0.84,0.000,0.147,0.000,0.118,-3.141,-0.000,-0.036,0.000,0.280,-0.77,0.00,-0.49
1.015,takeoff,1,326,246,0.50,0.00,0.00,-0.80,0.00,1.24,-0.00,-0.84,0.000,0.148,0.000,0.118,-3.141,-0.000,-0.038,0.000,0.280,-0.77,0.00,-0.49
1.015,takeoff,1,326,246,0.50,0.00,0.00,-0.80,0.00,1.24,-0.00,-0.84,0.000,0.148,0.000,0.118,-3.141,-0.000,-0.038,0.000,0.280,-0.77,0.00,-0.49
1.015,takeoff,1,326,246,0.50,0.00,0.00,-0.80,0.00,1.24,-0.00,-0.84,0.000,0.148,0.000,0.118,-3.141,-0.000,-0.037,0.000,0.280,-0.77,0.00,-0.49
1.015,takeoff,1,326,246,0.50,0.00,0.00,-0.80,0.00,1.24,-0.00,-0.84,0.000,0.148,0.000,0.118,-3.141,-0.000,-0.037,0.000,0.280,-0.78,0.00,-0.50
1.015,takeoff,1,326,246,0.50,0.00,0.00,-0.80,0.00,1.24,-0.00,-0.84,0.000,0.148,0.000,0.118,-3.141,-0.000,-0.037,0.000,0.280,-0.78,0.00,-0.50
1.015,takeoff,1,326,246,0.50,0.00,0.00,-0.80,0.00,1.25,-0.00,-0.84,0.000,0.150,0.000,0.118,-3.141,-0.000,-0.039,0.000,0.280,-0.78,0.00,-0.50
1.031,takeoff,1,326,246,0.50,0.00,0.00,-0.80,0.00,1.25,-0.00,-0.84,0.000,0.150,0.000,0.119,-3.141,-0.000,-0.039,0.000,0.280,-0.78,0.00,-0.50
1.031,takeoff,1,326,246,0.50,0.00,0.00,-0.80,0.00,1.25,-0.00,-0.84,0.000,0.150,0.000,0.119,-3.141,-0.000,-0.039,0.000,0.280,-0.78,0.00,-0.50
1.031,takeoff,1,326,246,0.50,0.00,0.00,-0.80,0.00,1.25,-0.00,-0.85,0.000,0.150,0.000,0.119,-3.141,-0.000,-0.039,0.000,0.280,-0.79,0.00,-0.51
1.031,takeoff,1,326,246,0.50,0.00,0.00,-0.80,0.00,1.25,-0.00,-0.85,0.000,0.150,0.000,0.119,-3.141,-0.000,-0.039,0.000,0.280,-0.79,0.00,-0.51
1.031,takeoff,1,326,246,0.50,0.00,0.00,-0.80,0.00,1.25,-0.00,-0.85,0.000,0.150,0.000,0.120,-3.141,-0.000,-0.037,0.000,0.280,-0.79,0.00,-0.51
1.031,takeoff,1,326,246,0.50,0.00,0.00,-0.80,0.00,1.26,-0.00,-0.85,0.000,0.152,0.000,0.120,-3.141,-0.000,-0.039,0.000,0.280,-0.79,0.00,-0.51
1.031,takeoff,1,326,246,0.50,0.00,0.00,-0.80,0.00,1.26,-0.00,-0.85,0.000,0.152,0.000,0.120,-3.141,-0.000,-0.039,0.000,0.280,-0.80,0.00,-0.51
1.046,takeoff,1,326,246,0.50,0.00,0.00,-0.80,0.00,1.26,-0.00,-0.85,0.000,0.152,0.000,0.120,-3.141,-0.000,-0.039,0.000,0.280,-0.80,0.00,-0.51
1.046,takeoff,1,326,246,0.50,0.00,0.00,-0.80,0.00,1.26,-0.00,-0.85,0.000,0.152,0.000,0.121,-3.141,-0.000,-0.039,0.000,0.280,-0.80,0.00,-0.51
1.046,takeoff,1,326,246,0.50,0.00,0.00,-0.80,0.00,1.26,-0.00,-0.85,0.000,0.152,0.000,0.121,-3.141,-0.000,-0.039,0.000,0.280,-0.80,0.00,-0.51
1.046,takeoff,1,326,246,0.50,0.00,0.00,-0.80,0.00,1.26,-0.00,-0.85,0.000,0.152,0.000,0.121,-3.141,-0.000,-0.039,0.000,0.280,-0.80,0.00,-0.51
1.046,takeoff,1,326,246,0.50,0.00,0.00,-0.80,0.00,1.26,-0.00,-0.85,0.000,0.152,0.000,0.121,-3.141,-0.000,-0.039,0.000,0.280,-0.80,0.00,-0.51
1.046,takeoff,1,326,246,0.50,0.00,0.00,-0.80,0.00,1.28,-0.00,-0.86,0.000,0.153,0.000,0.121,-3.141,-0.000,-0.040,0.000,0.280,-0.82,0.00,-0.52
1.046,takeoff,1,326,246,0.50,0.00,0.00,-0.80,0.00,1.28,-0.00,-0.86,0.000,0.153,0.000,0.121,-3.141,-0.000,-0.040,0.000,0.280,-0.82,0.00,-0.52
1.062,takeoff,1,326,246,0.50,0.00,0.00,-0.80,0.00,1.28,-0.00,-0.86,0.000,0.153,0.000,0.121,-3.141,-0.000,-0.040,0.000,0.280,-0.82,0.00,-0.52
1.062,takeoff,1,326,246,0.50,0.00,0.00,-0.80,0.00,1.28,-0.00,-0.86,0.000,0.153,0.000,0.121,-3.141,-0.000,-0.040,0.000,0.280,-0.82,0.00,-0.52
1.062,takeoff,1,326,246,0.50,0.00,0.00,-0.80,0.00,1.28,-0.00,-0.86,0.000,0.153,0.000,0.122,-3.141,-0.000,-0.039,0.000,0.280,-0.83,0.00,-0.53
1.062,takeoff,1,326,245,0.51,0.00,0.00,-0.80,0.00,1.28,-0.00,-0.86,0.000,0.153,0.000,0.122,-3.141,-0.000,-0.039,0.000,0.280,-0.83,0.00,-0.53
1.062,takeoff,1,326,245,0.51,0.00,0.00,-0.80,0.00,1.29,-0.00,-0.86,0.000,0.155,0.000,0.122,-3.141,-0.000,-0.041,0.000,0.280,-0.83,0.00,-0.53
1.062,takeoff,1,326,245,0.51,0.00,0.00,-0.80,0.00,1.29,-0.00,-0.86,0.000,0.155,0.000,0.122,-3.141,-0.000,-0.041,0.000,0.280,-0.83,0.00,-0.53
1.062,takeoff,1,326,245,0.51,0.00,0.00,-0.80,0.00,1.29,-0.00,-0.86,0.000,0.155,0.000,0.123,-3.141,-0.000,-0.040,0.000,0.280,-0.83,0.00,-0.53
1.062,takeoff,1,326,245,0.51,0.00,0.00,-0.80,0.00,1.29,-0.00,-0.86,0.000,0.155,0.000,0.123,-3.141,-0.000,-0.040,0.000,0.280,-0.83,0.00,-0.53
1.078,takeoff,1,326,245,0.51,0.00,0.00,-0.80,0.00,1.29,-0.00,-0.87,0.000,0.155,0.000,0.123,-3.141,-0.000,-0.040,0.000,0.280,-0.85,0.00,-0.54
1.078,takeoff,1,326,245,0.51,0.00,0.00,-0.80,0.00,1.29,-0.00,-0.87,0.000,0.155,0.000,0.123,-3.141,-0.000,-0.040,0.000,0.280,-0.85,0.00,-0.54
1.078,takeoff,1,326,245,0.51,0.00,0.00,-0.80,0.00,1.30,-0.00,-0.87,0.000,0.156,0.000,0.123,-3.141,-0.000,-0.042,0.000,0.280,-0.85,0.00,-0.54
1.078,takeoff,1,326,245,0.51,0.00,0.00,-0.80,0.00,1.30,-0.00,-0.87,0.000,0.156,0.000,0.123,-3.141,-0.000,-0.042,0.000,0.280,-0.85,0.00,-0.54
