t,phase,found,cx,cy,conf,cmd_vx,cmd_vy,cmd_vz,cmd_yawrate,vbx,vby,vd,roll_des,pitch_des,roll,pitch,yaw,roll_q,pitch_q,yaw_q,thrust,x,y,z
0.000,takeoff,1,324,176,0.51,0.00,0.00,-0.80,0.00,0.00,0.00,0.00,0.000,-0.000,0.000,0.311,-3.141,0.000,0.388,0.000,0.314,0.00,0.00,0.00
0.015,takeoff,1,324,176,0.51,0.00,0.00,-0.80,0.00,0.00,0.00,-0.00,0.000,-0.000,0.000,0.311,-3.141,0.000,0.388,0.000,0.315,-0.00,0.00,0.02
0.015,takeoff,1,324,176,0.51,0.00,0.00,-0.80,0.00,0.00,0.00,-0.00,0.000,-0.000,0.000,0.311,-3.141,0.000,0.388,0.000,0.315,-0.00,0.00,0.02
0.015,takeoff,1,324,176,0.51,0.00,0.00,-0.80,0.00,0.00,0.00,-0.00,0.000,-0.000,0.000,0.311,-3.141,0.000,0.388,0.000,0.315,-0.00,0.00,0.02
0.015,takeoff,1,324,176,0.51,0.00,0.00,-0.80,0.00,0.00,0.00,-0.00,0.000,-0.000,0.000,0.311,-3.141,0.000,0.388,0.000,0.315,-0.00,0.00,0.02
0.031,takeoff,1,324,176,0.51,0.00,0.00,-0.80,0.00,0.00,0.00,-0.00,0.000,-0.000,0.000,0.311,-3.141,0.000,0.388,0.000,0.315,-0.00,0.00,0.02
0.031,takeoff,1,324,176,0.51,0.00,0.00,-0.80,0.00,0.00,0.00,-0.00,0.000,-0.000,0.000,0.311,-3.141,0.000,0.388,0.000,0.315,-0.00,0.00,0.02
0.031,takeoff,1,324,176,0.51,0.00,0.00,-0.80,0.00,0.00,0.00,-0.00,0.000,-0.000,0.000,0.311,-3.141,0.000,0.388,0.000,0.315,-0.00,0.00,0.02
0.031,takeoff,1,324,176,0.51,0.00,0.00,-0.80,0.00,0.00,0.00,0.00,0.000,0.000,0.000,0.311,-3.141,0.000,0.388,0.000,0.315,-0.00,0.00,0.02
0.031,takeoff,1,324,176,0.51,0.00,0.00,-0.80,0.00,0.00,0.00,0.00,0.000,0.000,0.000,0.311,-3.141,0.000,0.388,0.000,0.315,-0.00,0.00,0.02
0.047,takeoff,1,324,176,0.51,0.00,0.00,-0.80,0.00,-0.00,0.00,0.00,0.000,0.000,0.000,0.311,-3.141,0.000,0.388,0.000,0.316,-0.00,0.00,0.02
0.047,takeoff,1,324,176,0.51,0.00,0.00,-0.80,0.00,-0.00,0.00,0.00,0.000,0.000,0.000,0.311,-3.141,0.000,0.388,0.000,0.316,-0.00,0.00,0.02
0.047,takeoff,1,324,176,0.51,0.00,0.00,-0.80,0.00,-0.00,0.00,-0.00,-0.000,-0.000,0.000,0.311,-3.141,0.000,0.389,0.000,0.316,-0.00,0.00,0.02
0.047,takeoff,1,324,176,0.51,0.00,0.00,-0.80,0.00,-0.00,0.00,-0.00,-0.000,-0.000,0.000,0.310,-3.141,0.000,0.389,0.000,0.316,-0.00,0.00,0.02
0.047,takeoff,1,324,176,0.51,0.00,0.00,-0.80,0.00,-0.00,0.00,-0.00,-0.000,-0.000,0.000,0.310,-3.141,0.000,0.389,0.000,0.316,-0.00,0.00,0.02
0.047,takeoff,1,324,176,0.51,0.00,0.00,-0.80,0.00,-0.00,0.00,-0.00,-0.000,-0.000,0.000,0.310,-3.141,0.000,0.389,0.000,0.316,-0.00,0.00,0.02
0.062,takeoff,1,324,176,0.51,0.00,0.00,-0.80,0.00,0.01,0.00,-0.01,-0.000,-0.001,0.000,0.309,-3.141,0.000,0.388,0.000,0.316,-0.00,0.00,0.02
0.062,takeoff,1,324,176,0.51,0.00,0.00,-0.80,0.00,0.01,0.00,-0.01,-0.000,-0.001,0.000,0.309,-3.141,0.000,0.388,0.000,0.316,-0.00,0.00,0.02
0.062,takeoff,1,324,176,0.51,0.00,0.00,-0.80,0.00,0.01,0.00,-0.01,-0.000,-0.001,0.000,0.309,-3.141,0.000,0.388,0.000,0.316,-0.00,0.00,0.02
0.062,takeoff,1,324,176,0.51,0.00,0.00,-0.80,0.00,0.01,0.00,-0.04,-0.000,-0.004,0.000,0.303,-3.141,0.000,0.383,0.000,0.313,-0.00,0.00,0.02
0.062,takeoff,1,324,176,0.51,0.00,0.00,-0.80,0.00,0.02,0.00,-0.04,-0.000,-0.004,0.000,0.303,-3.141,0.000,0.383,0.000,0.313,-0.00,0.00,0.02
0.062,takeoff,1,324,176,0.51,0.00,0.00,-0.80,0.00,0.02,0.00,-0.04,-0.000,-0.004,0.000,0.303,-3.141,0.000,0.383,0.000,0.313,-0.00,0.00,0.02
0.078,takeoff,1,324,176,0.51,0.00,0.00,-0.80,0.00,0.02,0.00,-0.04,-0.000,-0.004,0.000,0.303,-3.141,0.000,0.383,0.000,0.314,-0.00,0.00,0.02
0.078,takeoff,1,324,176,0.51,0.00,0.00,-0.80,0.00,0.02,0.00,-0.06,-0.000,-0.006,0.000,0.297,-3.141,0.000,0.378,0.000,0.312,-0.00,0.00,0.02
0.078,takeoff,1,324,176,0.51,0.00,0.00,-0.80,0.00,0.02,0.00,-0.06,-0.000,-0.006,0.000,0.297,-3.141,0.000,0.378,0.000,0.312,-0.00,0.00,0.02
0.078,takeoff,1,324,176,0.51,0.00,0.00,-0.80,0.00,0.02,0.00,-0.06,-0.000,-0.006,0.000,0.297,-3.141,0.000,0.378,0.000,0.312,-0.00,0.00,0.02
0.078,takeoff,1,324,176,0.51,0.00,0.00,-0.80,0.00,0.04,0.00,-0.06,-0.000,-0.006,0.000,0.290,-3.141,0.000,0.369,0.000,0.312,-0.00,0.00,0.02
0.078,takeoff,1,324,176,0.51,0.00,0.00,-0.80,0.00,0.04,0.00,-0.06,-0.000,-0.006,0.000,0.290,-3.141,0.000,0.369,0.000,0.312,-0.00,0.00,0.02
0.094,takeoff,1,324,186,0.51,0.00,0.00,-0.80,0.00,0.04,0.00,-0.09,-0.000,-0.010,0.000,0.290,-3.141,0.000,0.374,0.000,0.310,-0.00,0.00,0.02
0.094,takeoff,1,324,186,0.51,0.00,0.00,-0.80,0.00,0.04,0.00,-0.09,-0.000,-0.010,0.000,0.290,-3.141,0.000,0.374,0.000,0.310,-0.00,0.00,0.02
0.094,takeoff,1,324,186,0.51,0.00,0.00,-0.80,0.00,0.04,0.00,-0.09,-0.000,-0.010,-0.000,0.281,-3.141,0.000,0.363,0.000,0.310,-0.00,0.00,0.02
0.094,takeoff,1,324,186,0.51,0.00,0.00,-0.80,0.00,0.07,0.00,-0.09,-0.000,-0.010,-0.000,0.281,-3.141,0.000,0.363,0.000,0.310,-0.00,0.00,0.02
0.094,takeoff,1,324,186,0.51,0.00,0.00,-0.80,0.00,0.07,0.00,-0.10,-0.000,-0.012,-0.000,0.281,-3.141,0.000,0.366,0.000,0.310,-0.00,0.00,0.02
0.109,takeoff,1,324,186,0.51,0.00,0.00,-0.80,0.00,0.07,0.00,-0.10,-0.000,-0.012,0.000,0.262,-3.141,0.000,0.342,0.000,0.310,-0.00,0.00,0.02
0.109,takeoff,1,324,186,0.51,0.00,0.00,-0.80,0.00,0.07,0.00,-0.10,-0.000,-0.012,0.000,0.262,-3.141,0.000,0.342,0.000,0.310,-0.00,0.00,0.02
0.109,takeoff,1,324,186,0.51,0.00,0.00,-0.80,0.00,0.07,0.00,-0.11,-0.000,-0.017,0.000,0.262,-3.141,0.000,0.348,0.000,0.309,-0.00,0.00,0.02
0.109,takeoff,1,324,186,0.51,0.00,0.00,-0.80,0.00,0.11,0.00,-0.11,-0.000,-0.017,0.000,0.252,-3.141,0.000,0.336,0.000,0.309,-0.00,0.00,0.02
0.109,takeoff,1,324,186,0.51,0.00,0.00,-0.80,0.00,0.11,0.00,-0.11,-0.000,-0.017,0.000,0.252,-3.141,0.000,0.336,0.000,0.309,-0.00,0.00,0.02
0.109,takeoff,1,324,186,0.51,0.00,0.00,-0.80,0.00,0.11,0.00,-0.11,-0.000,-0.017,0.000,0.252,-3.141,0.000,0.336,0.000,0.309,-0.00,0.00,0.02
0.109,takeoff,1,324,186,0.51,0.00,0.00,-0.80,0.00,0.11,0.00,-0.11,-0.000,-0.017,0.000,0.252,-3.141,0.000,0.336,0.000,0.309,-0.00,0.00,0.02
0.125,takeoff,1,324,186,0.51,0.00,0.00,-0.80,0.00,0.11,0.00,-0.12,-0.000,-0.019,0.000,0.244,-3.141,0.000,0.329,0.000,0.309,-0.01,-0.00,0.02
0.125,takeoff,1,324,186,0.51,0.00,0.00,-0.80,0.00,0.11,0.00,-0.12,-0.000,-0.019,0.000,0.244,-3.141,0.000,0.329,0.000,0.309,-0.01,-0.00,0.02
0.125,takeoff,1,324,186,0.51,0.00,0.00,-0.80,0.00,0.14,0.00,-0.12,-0.000,-0.019,0.000,0.244,-3.141,0.000,0.329,0.000,0.309,-0.01,-0.00,0.02
0.125,takeoff,1,325,200,0.52,0.00,0.00,-0.80,0.00,0.14,0.00,-0.12,-0.000,-0.019,0.000,0.244,-3.141,0.000,0.329,0.000,0.309,-0.01,-0.00,0.02
0.125,takeoff,1,325,200,0.52,0.00,0.00,-0.80,0.00,0.14,0.00,-0.12,-0.000,-0.019,0.000,0.236,-3.141,0.000,0.319,0.000,0.309,-0.01,-0.00,0.02
0.125,takeoff,1,325,200,0.52,0.00,0.00,-0.80,0.00,0.14,0.00,-0.14,-0.000,-0.024,0.000,0.236,-3.141,0.000,0.325,0.000,0.308,-0.01,-0.00,0.01
0.125,takeoff,1,325,200,0.52,0.00,0.00,-0.80,0.00,0.14,0.00,-0.14,-0.000,-0.024,0.000,0.236,-3.141,0.000,0.325,0.000,0.308,-0.01,-0.00,0.01
0.140,takeoff,1,325,200,0.52,0.00,0.00,-0.80,0.00,0.14,0.00,-0.14,-0.000,-0.024,0.000,0.223,-3.141,0.000,0.309,0.000,0.308,-0.01,-0.00,0.01
0.140,takeoff,1,325,200,0.52,0.00,0.00,-0.80,0.00,0.18,0.00,-0.14,-0.000,-0.024,0.000,0.223,-3.141,0.000,0.309,0.000,0.308,-0.01,-0.00,0.01
0.140,takeoff,1,325,200,0.52,0.00,0.00,-0.80,0.00,0.18,0.00,-0.15,-0.000,-0.026,0.000,0.223,-3.141,0.000,0.312,0.000,0.307,-0.01,-0.00,0.01
0.140,takeoff,1,325,200,0.52,0.00,0.00,-0.80,0.00,0.18,0.00,-0.15,-0.000,-0.026,0.000,0.223,-3.141,0.000,0.312,0.000,0.307,-0.01,-0.00,0.01
0.140,takeoff,1,325,200,0.52,0.00,0.00,-0.80,0.00,0.18,0.00,-0.15,-0.000,-0.026,0.000,0.218,-3.141,0.000,0.305,0.000,0.307,-0.01,-0.00,0.01
0.140,takeoff,1,325,200,0.52,0.00,0.00,-0.80,0.00,0.18,0.00,-0.15,-0.000,-0.026,0.000,0.218,-3.141,0.000,0.305,0.000,0.307,-0.01,-0.00,0.01
0.156,takeoff,1,325,200,0.52,0.00,0.00,-0.80,0.00,0.21,0.00,-0.17,-0.000,-0.030,0.000,0.218,-3.141,0.000,0.310,0.000,0.306,-0.01,-0.00,0.01
0.156,takeoff,1,325,200,0.52,0.00,0.00,-0.80,0.00,0.21,0.00,-0.17,-0.000,-0.030,0.000,0.218,-3.141,0.000,0.310,0.000,0.306,-0.01,-0.00,0.01
0.156,takeoff,1,325,200,0.52,0.00,0.00,-0.80,0.00,0.21,0.00,-0.17,-0.000,-0.030,0.000,0.213,-3.141,0.000,0.303,0.000,0.306,-0.01,-0.00,0.01
0.156,takeoff,1,325,200,0.52,0.00,0.00,-0.80,0.00,0.21,0.00,-0.17,-0.000,-0.030,0.000,0.213,-3.141,0.000,0.303,0.000,0.306,-0.01,-0.00,0.01
0.156,takeoff,1,325,200,0.52,0.00,0.00,-0.80,0.00,0.21,0.00,-0.17,-0.000,-0.030,0.000,0.213,-3.141,0.000,0.303,0.000,0.306,-0.01,-0.00,0.01
0.156,takeoff,1,325,209,0.51,0.00,0.00,-0.80,0.00,0.21,0.00,-0.19,-0.000,-0.032,0.000,0.207,-3.141,0.000,0.299,0.000,0.305,-0.02,-0.00,0.01
0.156,takeoff,1,325,209,0.51,0.00,0.00,-0.80,0.00,0.24,0.00,-0.19,-0.000,-0.032,0.000,0.207,-3.141,0.000,0.299,0.000,0.305,-0.02,-0.00,0.01
0.172,takeoff,1,325,209,0.51,0.00,0.00,-0.80,0.00,0.24,0.00,-0.19,-0.000,-0.032,0.000,0.207,-3.141,0.000,0.299,0.000,0.305,-0.02,-0.00,0.01
0.172,takeoff,1,325,209,0.51,0.00,0.00,-0.80,0.00,0.24,0.00,-0.19,-0.000,-0.032,0.000,0.207,-3.141,0.000,0.299,0.000,0.305,-0.02,-0.00,0.01
0.172,takeoff,1,325,209,0.51,0.00,0.00,-0.80,0.00,0.24,0.00,-0.21,-0.000,-0.036,0.000,0.197,-3.141,0.000,0.291,0.000,0.303,-0.02,-0.00,0.01
0.172,takeoff,1,325,209,0.51,0.00,0.00,-0.80,0.00,0.24,0.00,-0.21,-0.000,-0.036,0.000,0.197,-3.141,0.000,0.291,0.000,0.303,-0.02,-0.00,0.01
0.172,takeoff,1,325,209,0.51,0.00,0.00,-0.80,0.00,0.24,0.00,-0.21,-0.000,-0.036,0.000,0.197,-3.141,0.000,0.291,0.000,0.303,-0.02,-0.00,0.01
0.172,takeoff,1,325,209,0.51,0.00,0.00,-0.80,0.00,0.27,0.00,-0.21,-0.000,-0.036,0.000,0.191,-3.141,0.000,0.285,0.000,0.303,-0.02,-0.00,0.01
0.187,takeoff,1,325,209,0.51,0.00,0.00,-0.80,0.00,0.27,0.00,-0.21,-0.000,-0.036,0.000,0.191,-3.141,0.000,0.285,0.000,0.304,-0.02,-0.00,0.01
0.187,takeoff,1,325,209,0.51,0.00,0.00,-0.80,0.00,0.27,0.00,-0.23,-0.000,-0.038,0.000,0.191,-3.141,0.000,0.287,0.000,0.302,-0.02,-0.00,0.00
0.187,takeoff,1,325,209,0.51,0.00,0.00,-0.80,0.00,0.27,0.00,-0.23,-0.000,-0.038,0.000,0.191,-3.141,0.000,0.287,0.000,0.302,-0.02,-0.00,0.00
0.187,takeoff,1,325,209,0.51,0.00,0.00,-0.80,0.00,0.27,0.00,-0.23,-0.000,-0.038,-0.000,0.186,-3.141,0.000,0.280,0.000,0.302,-0.02,-0.00,0.00
0.187,takeoff,1,325,209,0.51,0.00,0.00,-0.80,0.00,0.29,0.00,-0.23,-0.000,-0.038,-0.000,0.186,-3.141,0.000,0.280,0.000,0.302,-0.02,-0.00,0.00
0.187,takeoff,1,325,209,0.51,0.00,0.00,-0.80,0.00,0.29,0.00,-0.25,-0.000,-0.042,-0.000,0.186,-3.141,0.000,0.284,0.000,0.300,-0.02,-0.00,0.00
0.187,takeoff,1,326,217,0.51,0.00,0.00,-0.80,0.00,0.29,0.00,-0.25,-0.000,-0.042,-0.000,0.186,-3.141,0.000,0.284,0.000,0.300,-0.02,-0.00,0.00
0.203,takeoff,1,326,217,0.51,0.00,0.00,-0.80,0.00,0.29,0.00,-0.25,-0.000,-0.042,-0.000,0.177,-3.141,0.000,0.274,0.000,0.301,-0.02,-0.00,0.00
0.203,takeoff,1,326,217,0.51,0.00,0.00,-0.80,0.00,0.29,0.00,-0.25,-0.000,-0.042,-0.000,0.177,-3.141,0.000,0.274,0.000,0.301,-0.02,-0.00,0.00
0.203,takeoff,1,326,217,0.51,0.00,0.00,-0.80,0.00,0.29,0.00,-0.28,-0.000,-0.045,-0.000,0.177,-3.141,0.000,0.278,0.000,0.299,-0.03,-0.00,-0.00
0.203,takeoff,1,326,217,0.51,0.00,0.00,-0.80,0.00,0.32,0.00,-0.28,-0.000,-0.045,-0.000,0.172,-3.141,0.000,0.271,0.000,0.299,-0.03,-0.00,-0.00
0.203,takeoff,1,326,217,0.51,0.00,0.00,-0.80,0.00,0.32,0.00,-0.28,-0.000,-0.045,-0.000,0.172,-3.141,0.000,0.271,0.000,0.299,-0.03,-0.00,-0.00
0.203,takeoff,1,326,217,0.51,0.00,0.00,-0.80,0.00,0.32,0.00,-0.28,-0.000,-0.045,-0.000,0.172,-3.141,0.000,0.271,0.000,0.299,-0.03,-0.00,-0.00
0.219,takeoff,1,326,217,0.51,0.00,0.00,-0.80,0.00,0.32,0.00,-0.28,-0.000,-0.045,-0.000,0.172,-3.141,0.000,0.271,0.000,0.299,-0.03,-0.00,-0.00
0.219,takeoff,1,326,217,0.51,0.00,0.00,-0.80,0.00,0.32,0.00,-0.29,-0.000,-0.047,-0.000,0.167,-3.141,0.000,0.267,0.000,0.298,-0.03,-0.00,-0.00
0.219,takeoff,1,326,217,0.51,0.00,0.00,-0.80,0.00,0.32,0.00,-0.29,-0.000,-0.047,-0.000,0.167,-3.141,0.000,0.267,0.000,0.298,-0.03,-0.00,-0.00
0.219,takeoff,1,326,217,0.51,0.00,0.00,-0.80,0.00,0.35,0.00,-0.29,-0.000,-0.047,-0.000,0.167,-3.141,0.000,0.267,0.000,0.298,-0.03,-0.00,-0.00
0.219,takeoff,1,326,217,0.51,0.00,0.00,-0.80,0.00,0.35,0.00,-0.29,-0.000,-0.047,-0.000,0.167,-3.141,0.000,0.267,0.000,0.298,-0.03,-0.00,-0.00
0.219,takeoff,1,326,217,0.51,0.00,0.00,-0.80,0.00,0.35,0.00,-0.32,-0.000,-0.050,-0.000,0.157,-3.141,0.000,0.258,0.000,0.296,-0.04,-0.00,-0.01
0.219,takeoff,1,326,217,0.51,0.00,0.00,-0.80,0.00,0.35,0.00,-0.32,-0.000,-0.050,-0.000,0.157,-3.141,0.000,0.258,0.000,0.296,-0.04,-0.00,-0.01
0.234,takeoff,1,326,227,0.52,0.00,0.00,-0.80,0.00,0.35,0.00,-0.32,-0.000,-0.050,-0.000,0.157,-3.141,0.000,0.258,0.000,0.296,-0.04,-0.00,-0.01
0.234,takeoff,1,326,227,0.52,0.00,0.00,-0.80,0.00,0.37,0.00,-0.32,-0.000,-0.050,-0.000,0.157,-3.141,0.000,0.258,0.000,0.296,-0.04,-0.00,-0.01
0.234,takeoff,1,326,227,0.52,0.00,0.00,-0.80,0.00,0.37,0.00,-0.32,-0.000,-0.050,-0.000,0.152,-3.141,0.000,0.252,0.000,0.296,-0.04,-0.00,-0.01
0.234,takeoff,1,326,227,0.52,0.00,0.00,-0.80,0.00,0.37,0.00,-0.33,-0.000,-0.051,-0.000,0.152,-3.141,0.000,0.254,0.000,0.295,-0.04,-0.00,-0.01
0.234,takeoff,1,326,227,0.52,0.00,0.00,-0.80,0.00,0.37,0.00,-0.33,-0.000,-0.051,-0.000,0.152,-3.141,0.000,0.254,0.000,0.295,-0.04,-0.00,-0.01
0.234,takeoff,1,326,227,0.52,0.00,0.00,-0.80,0.00,0.37,0.00,-0.33,-0.000,-0.051,-0.000,0.152,-3.141,0.000,0.254,0.000,0.295,-0.04,-0.00,-0.01
0.234,takeoff,1,326,227,0.52,0.00,0.00,-0.80,0.00,0.37,0.00,-0.33,-0.000,-0.051,-0.000,0.147,-3.141,0.000,0.248,0.000,0.295,-0.04,-0.00,-0.01
0.250,takeoff,1,326,227,0.52,0.00,0.00,-0.80,0.00,0.40,0.00,-0.35,-0.000,-0.054,-0.000,0.147,-3.141,0.000,0.251,0.000,0.294,-0.05,-0.00,-0.02
0.250,takeoff,1,326,227,0.52,0.00,0.00,-0.80,0.00,0.40,0.00,-0.35,-0.000,-0.054,-0.000,0.147,-3.141,0.000,0.251,0.000,0.294,-0.05,-0.00,-0.02
0.250,takeoff,1,326,227,0.52,0.00,0.00,-0.80,0.00,0.40,0.00,-0.35,-0.000,-0.054,-0.000,0.147,-3.141,0.000,0.251,0.000,0.294,-0.05,-0.00,-0.02
0.250,takeoff,1,326,227,0.52,0.00,0.00,-0.80,0.00,0.40,0.00,-0.35,-0.000,-0.054,-0.000,0.138,-3.141,0.000,0.240,0.000,0.294,-0.05,-0.00,-0.02
0.250,takeoff,1,326,227,0.52,0.00,0.00,-0.80,0.00,0.40,0.00,-0.35,-0.000,-0.054,-0.000,0.138,-3.141,0.000,0.240,0.000,0.294,-0.05,-0.00,-0.02
0.250,takeoff,1,326,227,0.52,0.00,0.00,-0.80,0.00,0.40,0.00,-0.37,-0.000,-0.056,-0.000,0.138,-3.141,0.000,0.241,0.000,0.293,-0.05,-0.00,-0.02
0.250,takeoff,1,326,227,0.52,0.00,0.00,-0.80,0.00,0.42,0.00,-0.37,-0.000,-0.056,-0.000,0.138,-3.141,0.000,0.241,0.000,0.293,-0.05,-0.00,-0.02
0.265,takeoff,1,326,227,0.52,0.00,0.00,-0.80,0.00,0.42,0.00,-0.37,-0.000,-0.056,-0.000,0.133,-3.141,0.000,0.236,0.000,0.293,-0.05,-0.00,-0.02
0.265,takeoff,1,326,234,0.52,0.00,0.00,-0.80,0.00,0.42,0.00,-0.37,-0.000,-0.056,-0.000,0.133,-3.141,0.000,0.236,0.000,0.293,-0.05,-0.00,-0.02
0.265,takeoff,1,326,234,0.52,0.00,0.00,-0.80,0.00,0.42,0.00,-0.39,-0.000,-0.058,-0.000,0.133,-3.141,0.000,0.239,0.000,0.292,-0.06,-0.00,-0.02
0.265,takeoff,1,326,234,0.52,0.00,0.00,-0.80,0.00,0.42,0.00,-0.39,-0.000,-0.058,-0.000,0.128,-3.141,0.000,0.233,0.000,0.292,-0.06,-0.00,-0.02
0.281,takeoff,1,326,234,0.52,0.00,0.00,-0.80,0.00,0.44,0.00,-0.39,-0.000,-0.058,-0.000,0.128,-3.141,0.000,0.233,0.000,0.292,-0.06,-0.00,-0.02
0.281,takeoff,1,326,234,0.52,0.00,0.00,-0.80,0.00,0.44,0.00,-0.40,-0.000,-0.059,-0.000,0.128,-3.141,0.000,0.235,0.000,0.291,-0.06,-0.00,-0.03
0.281,takeoff,1,326,234,0.52,0.00,0.00,-0.80,0.00,0.44,0.00,-0.40,-0.000,-0.059,-0.000,0.124,-3.141,0.000,0.229,0.000,0.291,-0.06,-0.00,-0.03
0.281,takeoff,1,326,234,0.52,0.00,0.00,-0.80,0.00,0.44,0.00,-0.40,-0.000,-0.059,-0.000,0.124,-3.141,0.000,0.229,0.000,0.291,-0.06,-0.00,-0.03
0.281,takeoff,1,326,234,0.52,0.00,0.00,-0.80,0.00,0.44,0.00,-0.40,-0.000,-0.059,-0.000,0.124,-3.141,0.000,0.229,0.000,0.291,-0.06,-0.00,-0.03
0.281,takeoff,1,326,234,0.52,0.00,0.00,-0.80,0.00,0.45,0.00,-0.40,-0.000,-0.059,-0.000,0.124,-3.141,0.000,0.229,0.000,0.291,-0.06,-0.00,-0.03
0.281,takeoff,1,326,234,0.52,0.00,0.00,-0.80,0.00,0.45,0.00,-0.41,-0.000,-0.062,-0.000,0.115,-3.141,0.000,0.221,0.000,0.290,-0.07,-0.00,-0.03
0.281,takeoff,1,326,241,0.52,0.00,0.00,-0.80,0.00,0.45,0.00,-0.41,-0.000,-0.062,-0.000,0.115,-3.141,0.000,0.221,0.000,0.290,-0.07,-0.00,-0.03
0.297,takeoff,1,326,241,0.52,0.00,0.00,-0.80,0.00,0.45,0.00,-0.41,-0.000,-0.062,-0.000,0.115,-3.141,0.000,0.221,0.000,0.290,-0.07,-0.00,-0.03
0.297,takeoff,1,326,241,0.52,0.00,0.00,-0.80,0.00,0.45,0.00,-0.41,-0.000,-0.062,-0.000,0.115,-3.141,0.000,0.221,0.000,0.290,-0.07,-0.00,-0.03
0.297,takeoff,1,326,241,0.52,0.00,0.00,-0.80,0.00,0.45,0.00,-0.42,-0.000,-0.063,-0.000,0.111,-3.141,0.000,0.217,0.000,0.290,-0.07,-0.00,-0.03
0.297,takeoff,1,326,241,0.52,0.00,0.00,-0.80,0.00,0.47,0.00,-0.42,-0.000,-0.063,-0.000,0.111,-3.141,0.000,0.217,0.000,0.290,-0.07,-0.00,-0.03
0.297,takeoff,1,326,241,0.52,0.00,0.00,-0.80,0.00,0.47,0.00,-0.42,-0.000,-0.063,-0.000,0.111,-3.141,0.000,0.217,0.000,0.290,-0.07,-0.00,-0.03
0.297,takeoff,1,326,241,0.52,0.00,0.00,-0.80,0.00,0.47,0.00,-0.42,-0.000,-0.063,-0.000,0.111,-3.141,0.000,0.217,0.000,0.290,-0.07,-0.00,-0.03
0.312,takeoff,1,326,241,0.52,0.00,0.00,-0.80,0.00,0.47,0.00,-0.42,-0.000,-0.063,-0.000,0.107,-3.141,0.000,0.212,0.000,0.290,-0.07,-0.00,-0.03
0.312,takeoff,1,326,241,0.52,0.00,0.00,-0.80,0.00,0.47,0.00,-0.43,-0.000,-0.064,-0.000,0.107,-3.141,0.000,0.214,0.000,0.289,-0.08,-0.00,-0.04
0.312,takeoff,1,326,241,0.52,0.00,0.00,-0.80,0.00,0.47,0.00,-0.43,-0.000,-0.064,-0.000,0.107,-3.141,0.000,0.214,0.000,0.289,-0.08,-0.00,-0.04
0.312,takeoff,1,326,241,0.52,0.00,0.00,-0.80,0.00,0.49,0.00,-0.43,-0.000,-0.064,-0.000,0.107,-3.141,0.000,0.214,0.000,0.289,-0.08,-0.00,-0.04
0.312,takeoff,1,326,241,0.52,0.00,0.00,-0.80,0.00,0.49,0.00,-0.43,-0.000,-0.064,-0.000,0.099,-3.141,0.000,0.204,0.000,0.289,-0.08,-0.00,-0.04
0.312,takeoff,1,326,241,0.52,0.00,0.00,-0.80,0.00,0.49,0.00,-0.43,-0.000,-0.064,-0.000,0.099,-3.141,0.000,0.204,0.000,0.289,-0.08,-0.00,-0.04
0.312,takeoff,1,326,241,0.52,0.00,0.00,-0.80,0.00,0.49,0.00,-0.44,-0.000,-0.065,-0.000,0.099,-3.141,0.000,0.206,0.000,0.289,-0.08,-0.00,-0.04
0.312,takeoff,1,326,241,0.52,0.00,0.00,-0.80,0.00,0.49,0.00,-0.44,-0.000,-0.065,-0.000,0.099,-3.141,0.000,0.206,0.000,0.289,-0.08,-0.00,-0.04
0.328,takeoff,1,326,241,0.52,0.00,0.00,-0.80,0.00,0.49,0.00,-0.44,-0.000,-0.065,-0.000,0.095,-3.141,0.000,0.201,0.000,0.289,-0.08,-0.00,-0.04
0.328,takeoff,1,326,248,0.52,0.00,0.00,-0.80,0.00,0.49,0.00,-0.44,-0.000,-0.065,-0.000,0.095,-3.141,0.000,0.201,0.000,0.289,-0.08,-0.00,-0.04
0.328,takeoff,1,326,248,0.52,0.00,0.00,-0.80,0.00,0.52,0.00,-0.44,-0.000,-0.065,-0.000,0.095,-3.141,0.000,0.201,0.000,0.289,-0.08,-0.00,-0.04
0.328,takeoff,1,326,248,0.52,0.00,0.00,-0.80,0.00,0.52,0.00,-0.45,-0.000,-0.067,-0.000,0.095,-3.141,0.000,0.203,0.000,0.288,-0.09,-0.00,-0.05
0.328,takeoff,1,326,248,0.52,0.00,0.00,-0.80,0.00,0.52,0.00,-0.45,-0.000,-0.067,-0.000,0.091,-3.141,0.000,0.198,0.000,0.288,-0.09,-0.00,-0.05
0.328,takeoff,1,326,248,0.52,0.00,0.00,-0.80,0.00,0.52,0.00,-0.45,-0.000,-0.067,-0.000,0.091,-3.141,0.000,0.198,0.000,0.288,-0.09,-0.00,-0.05
0.344,takeoff,1,326,248,0.52,0.00,0.00,-0.80,0.00,0.52,0.00,-0.45,-0.000,-0.067,-0.000,0.091,-3.141,0.000,0.198,0.000,0.288,-0.09,-0.00,-0.05
0.344,takeoff,1,326,248,0.52,0.00,0.00,-0.80,0.00,0.52,0.00,-0.45,-0.000,-0.067,-0.000,0.091,-3.141,0.000,0.198,0.000,0.288,-0.09,-0.00,-0.05
0.344,takeoff,1,326,248,0.52,0.00,0.00,-0.80,0.00,0.52,0.00,-0.45,-0.000,-0.068,-0.000,0.088,-3.141,0.000,0.194,0.000,0.288,-0.09,-0.00,-0.05
0.344,takeoff,1,326,248,0.52,0.00,0.00,-0.80,0.00,0.52,0.00,-0.45,-0.000,-0.068,-0.000,0.088,-3.141,0.000,0.194,0.000,0.288,-0.09,-0.00,-0.05
0.344,takeoff,1,326,248,0.52,0.00,0.00,-0.80,0.00,0.52,0.00,-0.45,-0.000,-0.068,-0.000,0.088,-3.141,0.000,0.194,0.000,0.288,-0.09,-0.00,-0.05
0.344,takeoff,1,326,248,0.52,0.00,0.00,-0.80,0.00,0.52,0.00,-0.45,-0.000,-0.068,-0.000,0.080,-3.141,0.000,0.185,0.000,0.288,-0.09,-0.00,-0.05
0.344,takeoff,1,326,248,0.52,0.00,0.00,-0.80,0.00,0.52,0.00,-0.46,-0.000,-0.069,-0.000,0.080,-3.141,0.000,0.187,0.000,0.287,-0.10,-0.00,-0.06
0.359,takeoff,1,326,248,0.52,0.00,0.00,-0.80,0.00,0.54,0.00,-0.46,-0.000,-0.069,-0.000,0.080,-3.141,0.000,0.187,0.000,0.287,-0.10,-0.00,-0.06
0.359,takeoff,1,326,248,0.52,0.00,0.00,-0.80,0.00,0.54,0.00,-0.46,-0.000,-0.069,-0.000,0.080,-3.141,0.000,0.187,0.000,0.287,-0.10,-0.00,-0.06
0.359,takeoff,1,326,248,0.52,0.00,0.00,-0.80,0.00,0.54,0.00,-0.46,-0.000,-0.069,-0.000,0.076,-3.141,0.000,0.182,0.000,0.287,-0.10,-0.00,-0.06
0.359,takeoff,1,326,248,0.52,0.00,0.00,-0.80,0.00,0.54,0.00,-0.47,-0.000,-0.070,-0.000,0.076,-3.141,0.000,0.183,0.000,0.287,-0.11,-0.00,-0.06
0.359,takeoff,1,326,254,0.51,0.00,0.00,-0.80,0.00,0.54,0.00,-0.47,-0.000,-0.070,-0.000,0.076,-3.141,0.000,0.183,0.000,0.287,-0.11,-0.00,-0.06
0.359,takeoff,1,326,254,0.51,0.00,0.00,-0.80,0.00,0.54,0.00,-0.47,-0.000,-0.070,-0.000,0.076,-3.141,0.000,0.183,0.000,0.287,-0.11,-0.00,-0.06
0.359,takeoff,1,326,254,0.51,0.00,0.00,-0.80,0.00,0.55,0.00,-0.47,-0.000,-0.070,-0.000,0.072,-3.141,0.000,0.178,0.000,0.287,-0.11,-0.00,-0.06
0.375,takeoff,1,326,254,0.51,0.00,0.00,-0.80,0.00,0.55,0.00,-0.47,-0.000,-0.070,-0.000,0.072,-3.141,0.000,0.178,0.000,0.287,-0.11,-0.00,-0.06
0.375,takeoff,1,326,254,0.51,0.00,0.00,-0.80,0.00,0.55,0.00,-0.48,-0.000,-0.072,-0.000,0.072,-3.141,0.000,0.180,0.000,0.286,-0.12,-0.00,-0.07
0.375,takeoff,1,326,254,0.51,0.00,0.00,-0.80,0.00,0.55,0.00,-0.48,-0.000,-0.072,-0.000,0.072,-3.141,0.000,0.180,0.000,0.286,-0.12,-0.00,-0.07
0.375,takeoff,1,326,254,0.51,0.00,0.00,-0.80,0.00,0.55,0.00,-0.48,-0.000,-0.072,-0.000,0.066,-3.141,0.000,0.171,0.000,0.286,-0.12,-0.00,-0.07
0.375,takeoff,1,326,254,0.51,0.00,0.00,-0.80,0.00,0.55,0.00,-0.48,-0.000,-0.072,-0.000,0.066,-3.141,0.000,0.171,0.000,0.286,-0.12,-0.00,-0.07
0.375,takeoff,1,326,254,0.51,0.00,0.00,-0.80,0.00,0.57,0.00,-0.48,-0.000,-0.072,-0.000,0.066,-3.141,0.000,0.171,0.000,0.286,-0.12,-0.00,-0.07
0.375,takeoff,1,326,254,0.51,0.00,0.00,-0.80,0.00,0.57,0.00,-0.49,-0.000,-0.072,-0.000,0.066,-3.141,0.000,0.172,0.000,0.286,-0.12,-0.00,-0.07
0.390,takeoff,1,326,254,0.51,0.00,0.00,-0.80,0.00,0.57,0.00,-0.49,-0.000,-0.072,-0.000,0.062,-3.141,0.000,0.168,0.000,0.286,-0.12,-0.00,-0.07
0.390,takeoff,1,326,254,0.51,0.00,0.00,-0.80,0.00,0.57,0.00,-0.49,-0.000,-0.072,-0.000,0.062,-3.141,0.000,0.168,0.000,0.286,-0.12,-0.00,-0.07
0.390,takeoff,1,326,254,0.51,0.00,0.00,-0.80,0.00,0.57,0.00,-0.49,-0.000,-0.072,-0.000,0.062,-3.141,0.000,0.168,0.000,0.286,-0.12,-0.00,-0.07
0.390,takeoff,1,326,254,0.51,0.00,0.00,-0.80,0.00,0.57,0.00,-0.49,-0.000,-0.072,-0.000,0.062,-3.141,0.000,0.168,0.000,0.286,-0.12,-0.00,-0.07
0.390,takeoff,1,326,254,0.51,0.00,0.00,-0.80,0.00,0.58,0.00,-0.50,-0.000,-0.073,-0.000,0.059,-3.141,0.000,0.165,0.000,0.285,-0.13,-0.00,-0.08
0.390,takeoff,1,326,260,0.51,0.00,0.00,-0.80,0.00,0.58,0.00,-0.50,-0.000,-0.073,-0.000,0.059,-3.141,0.000,0.165,0.000,0.285,-0.13,-0.00,-0.08
0.390,takeoff,1,326,260,0.51,0.00,0.00,-0.80,0.00,0.58,0.00,-0.50,-0.000,-0.073,-0.000,0.059,-3.141,0.000,0.165,0.000,0.285,-0.13,-0.00,-0.08
0.406,takeoff,1,326,260,0.51,0.00,0.00,-0.80,0.00,0.58,0.00,-0.50,-0.000,-0.073,-0.000,0.059,-3.141,0.000,0.165,0.000,0.285,-0.13,-0.00,-0.08
0.406,takeoff,1,326,260,0.51,0.00,0.00,-0.80,0.00,0.58,0.00,-0.50,-0.000,-0.074,-0.000,0.056,-3.141,0.000,0.162,0.000,0.285,-0.13,-0.00,-0.08
0.406,takeoff,1,326,260,0.51,0.00,0.00,-0.80,0.00,0.58,0.00,-0.50,-0.000,-0.074,-0.000,0.056,-3.141,0.000,0.162,0.000,0.285,-0.13,-0.00,-0.08
0.406,takeoff,1,326,260,0.51,0.00,0.00,-0.80,0.00,0.58,0.00,-0.50,-0.000,-0.074,-0.000,0.056,-3.141,0.000,0.162,0.000,0.285,-0.13,-0.00,-0.08
0.406,takeoff,1,326,260,0.51,0.00,0.00,-0.80,0.00,0.59,0.00,-0.50,-0.000,-0.074,-0.000,0.056,-3.141,0.000,0.162,0.000,0.285,-0.13,-0.00,-0.08
0.406,takeoff,1,326,260,0.51,0.00,0.00,-0.80,0.00,0.59,0.00,-0.50,-0.000,-0.074,-0.000,0.053,-3.141,0.000,0.158,0.000,0.285,-0.13,-0.00,-0.08
0.406,takeoff,1,326,260,0.51,0.00,0.00,-0.80,0.00,0.59,0.00,-0.51,-0.000,-0.075,-0.000,0.053,-3.141,0.000,0.159,0.000,0.284,-0.14,-0.00,-0.09
0.422,takeoff,1,326,260,0.51,0.00,0.00,-0.80,0.00,0.59,0.00,-0.51,-0.000,-0.075,-0.000,0.053,-3.141,0.000,0.159,0.000,0.284,-0.14,-0.00,-0.09
0.422,takeoff,1,326,260,0.51,0.00,0.00,-0.80,0.00,0.59,0.00,-0.51,-0.000,-0.075,-0.000,0.053,-3.141,0.000,0.159,0.000,0.284,-0.14,-0.00,-0.09
0.422,takeoff,1,326,260,0.51,0.00,0.00,-0.80,0.00,0.59,0.00,-0.51,-0.000,-0.075,-0.000,0.047,-3.141,0.000,0.152,0.000,0.284,-0.14,-0.00,-0.09
0.422,takeoff,1,326,260,0.51,0.00,0.00,-0.80,0.00,0.60,0.00,-0.51,-0.000,-0.075,-0.000,0.047,-3.141,0.000,0.152,0.000,0.284,-0.14,-0.00,-0.09
0.422,takeoff,1,326,264,0.51,0.00,0.00,-0.80,0.00,0.60,0.00,-0.52,-0.000,-0.075,-0.000,0.047,-3.141,0.000,0.152,0.000,0.284,-0.15,-0.00,-0.09
0.422,takeoff,1,326,264,0.51,0.00,0.00,-0.80,0.00,0.60,0.00,-0.52,-0.000,-0.075,-0.000,0.047,-3.141,0.000,0.152,0.000,0.284,-0.15,-0.00,-0.09
0.422,takeoff,1,326,264,0.51,0.00,0.00,-0.80,0.00,0.60,0.00,-0.52,-0.000,-0.075,-0.000,0.044,-3.141,0.000,0.149,0.000,0.284,-0.15,-0.00,-0.09
0.437,takeoff,1,326,264,0.51,0.00,0.00,-0.80,0.00,0.60,0.00,-0.52,-0.000,-0.075,-0.000,0.044,-3.141,0.000,0.149,0.000,0.284,-0.15,-0.00,-0.09
0.437,takeoff,1,326,264,0.51,0.00,0.00,-0.80,0.00,0.60,0.00,-0.52,-0.000,-0.075,-0.000,0.044,-3.141,0.000,0.149,0.000,0.284,-0.15,-0.00,-0.09
0.437,takeoff,1,326,264,0.51,0.00,0.00,-0.80,0.00,0.61,0.00,-0.53,-0.000,-0.076,-0.000,0.044,-3.141,-0.000,0.150,0.000,0.283,-0.15,-0.00,-0.10
0.437,takeoff,1,326,264,0.51,0.00,0.00,-0.80,0.00,0.61,0.00,-0.53,-0.000,-0.076,-0.000,0.041,-3.141,-0.000,0.146,0.000,0.283,-0.15,-0.00,-0.10
0.437,takeoff,1,326,264,0.51,0.00,0.00,-0.80,0.00,0.61,0.00,-0.53,-0.000,-0.076,-0.000,0.041,-3.141,-0.000,0.146,0.000,0.283,-0.15,-0.00,-0.10
0.437,takeoff,1,326,264,0.51,0.00,0.00,-0.80,0.00,0.61,0.00,-0.53,-0.000,-0.076,-0.000,0.041,-3.141,-0.000,0.146,0.000,0.283,-0.15,-0.00,-0.10
0.453,takeoff,1,326,264,0.51,0.00,0.00,-0.80,0.00,0.61,0.00,-0.53,-0.000,-0.076,-0.000,0.035,-3.141,-0.000,0.140,0.000,0.283,-0.16,-0.00,-0.11
0.453,takeoff,1,326,264,0.51,0.00,0.00,-0.80,0.00,0.62,0.00,-0.53,-0.000,-0.076,-0.000,0.035,-3.141,-0.000,0.140,0.000,0.283,-0.16,-0.00,-0.11
0.453,takeoff,1,326,264,0.51,0.00,0.00,-0.80,0.00,0.62,0.00,-0.53,-0.000,-0.076,-0.000,0.035,-3.141,-0.000,0.140,0.000,0.283,-0.16,-0.00,-0.11
0.453,takeoff,1,326,264,0.51,0.00,0.00,-0.80,0.00,0.62,0.00,-0.53,-0.000,-0.076,-0.000,0.035,-3.141,-0.000,0.140,0.000,0.283,-0.16,-0.00,-0.11
0.453,takeoff,1,326,270,0.49,0.00,0.00,-0.80,0.00,0.62,0.00,-0.54,-0.000,-0.077,-0.000,0.033,-3.141,-0.000,0.137,0.000,0.283,-0.17,-0.00,-0.11
0.453,takeoff,1,326,270,0.49,0.00,0.00,-0.80,0.00,0.62,0.00,-0.54,-0.000,-0.077,-0.000,0.033,-3.141,-0.000,0.137,0.000,0.283,-0.17,-0.00,-0.11
0.469,takeoff,1,326,270,0.49,0.00,0.00,-0.80,0.00,0.62,0.00,-0.54,-0.000,-0.077,-0.000,0.033,-3.141,-0.000,0.137,0.000,0.283,-0.17,-0.00,-0.11
0.469,takeoff,1,326,270,0.49,0.00,0.00,-0.80,0.00,0.63,0.00,-0.54,-0.000,-0.077,-0.000,0.030,-3.141,-0.000,0.134,0.000,0.283,-0.17,-0.00,-0.11
0.469,takeoff,1,326,270,0.49,0.00,0.00,-0.80,0.00,0.63,0.00,-0.54,-0.000,-0.077,-0.000,0.030,-3.141,-0.000,0.134,0.000,0.282,-0.17,-0.00,-0.12
0.469,takeoff,1,326,270,0.49,0.00,0.00,-0.80,0.00,0.63,0.00,-0.54,-0.000,-0.077,-0.000,0.030,-3.141,-0.000,0.134,0.000,0.282,-0.17,-0.00,-0.12
0.469,takeoff,1,326,270,0.49,0.00,0.00,-0.80,0.00,0.63,0.00,-0.54,-0.000,-0.077,-0.000,0.030,-3.141,-0.000,0.134,0.000,0.282,-0.17,-0.00,-0.12
0.469,takeoff,1,326,270,0.49,0.00,0.00,-0.80,0.00,0.63,0.00,-0.54,-0.000,-0.077,-0.000,0.025,-3.141,-0.000,0.128,0.000,0.282,-0.17,-0.00,-0.12
0.469,takeoff,1,326,270,0.49,0.00,0.00,-0.80,0.00,0.63,0.00,-0.55,-0.000,-0.078,-0.000,0.025,-3.141,-0.000,0.128,0.000,0.282,-0.18,-0.00,-0.12
0.484,takeoff,1,326,270,0.49,0.00,0.00,-0.80,0.00,0.63,0.00,-0.55,-0.000,-0.078,-0.000,0.025,-3.141,-0.000,0.128,0.000,0.282,-0.18,-0.00,-0.12
0.484,takeoff,1,326,270,0.49,0.00,0.00,-0.80,0.00,0.63,0.00,-0.55,-0.000,-0.078,-0.000,0.023,-3.141,-0.000,0.125,0.000,0.282,-0.18,-0.00,-0.12
0.484,takeoff,1,326,270,0.49,0.00,0.00,-0.80,0.00,0.63,0.00,-0.55,-0.000,-0.078,-0.000,0.023,-3.141,-0.000,0.125,0.000,0.282,-0.18,-0.00,-0.12
0.484,takeoff,1,326,270,0.49,0.00,0.00,-0.80,0.00,0.63,0.00,-0.55,-0.000,-0.078,-0.000,0.023,-3.141,-0.000,0.125,0.000,0.282,-0.18,-0.00,-0.12
0.484,takeoff,1,326,270,0.49,0.00,0.00,-0.80,0.00,0.63,0.00,-0.56,-0.000,-0.078,-0.000,0.023,-3.141,-0.000,0.125,0.000,0.282,-0.19,-0.00,-0.13
0.484,takeoff,1,326,270,0.49,0.00,0.00,-0.80,0.00,0.63,0.00,-0.56,-0.000,-0.078,-0.000,0.023,-3.141,-0.000,0.125,0.000,0.282,-0.19,-0.00,-0.13
0.500,takeoff,1,326,270,0.49,0.00,0.00,-0.80,0.00,0.64,0.00,-0.56,-0.000,-0.078,-0.000,0.020,-3.141,-0.000,0.122,0.000,0.282,-0.19,-0.00,-0.13
0.500,takeoff,1,326,274,0.48,0.00,0.00,-0.80,0.00,0.64,0.00,-0.56,-0.000,-0.078,-0.000,0.020,-3.141,-0.000,0.122,0.000,0.282,-0.19,-0.00,-0.13
0.500,takeoff,1,326,274,0.48,0.00,0.00,-0.80,0.00,0.64,0.00,-0.56,-0.000,-0.078,-0.000,0.020,-3.141,-0.000,0.122,0.000,0.282,-0.19,-0.00,-0.13
0.500,takeoff,1,326,274,0.48,0.00,0.00,-0.80,0.00,0.64,0.00,-0.57,-0.000,-0.078,-0.000,0.020,-3.141,-0.000,0.123,0.000,0.281,-0.19,-0.00,-0.14
0.500,takeoff,1,326,274,0.48,0.00,0.00,-0.80,0.00,0.64,0.00,-0.57,-0.000,-0.078,-0.000,0.018,-3.141,-0.000,0.120,0.000,0.281,-0.19,-0.00,-0.14
0.500,takeoff,1,326,274,0.48,0.00,0.00,-0.80,0.00,0.64,0.00,-0.57,-0.000,-0.078,-0.000,0.018,-3.141,-0.000,0.120,0.000,0.281,-0.19,-0.00,-0.14
0.500,takeoff,1,326,274,0.48,0.00,0.00,-0.80,0.00,0.64,0.00,-0.57,-0.000,-0.078,-0.000,0.018,-3.141,-0.000,0.120,0.000,0.281,-0.19,-0.00,-0.14
0.500,takeoff,1,326,274,0.48,0.00,0.00,-0.80,0.00,0.64,0.00,-0.57,-0.000,-0.078,-0.000,0.018,-3.141,-0.000,0.120,0.000,0.281,-0.19,-0.00,-0.14
0.500,takeoff,1,326,274,0.48,0.00,0.00,-0.80,0.00,0.64,0.00,-0.57,-0.000,-0.078,-0.000,0.018,-3.141,-0.000,0.120,0.000,0.281,-0.20,-0.00,-0.14
0.515,takeoff,1,326,274,0.48,0.00,0.00,-0.80,0.00,0.64,0.00,-0.57,-0.000,-0.078,-0.000,0.013,-3.141,-0.000,0.114,0.000,0.281,-0.20,-0.00,-0.14
0.515,takeoff,1,326,274,0.48,0.00,0.00,-0.80,0.00,0.64,0.00,-0.57,-0.000,-0.078,-0.000,0.013,-3.141,-0.000,0.114,0.000,0.281,-0.20,-0.00,-0.14
0.515,takeoff,1,326,274,0.48,0.00,0.00,-0.80,0.00,0.64,0.00,-0.57,-0.000,-0.078,-0.000,0.013,-3.141,-0.000,0.114,0.000,0.281,-0.20,-0.00,-0.14
0.515,takeoff,1,326,274,0.48,0.00,0.00,-0.80,0.00,0.64,0.00,-0.57,-0.000,-0.078,-0.000,0.011,-3.141,-0.000,0.111,0.000,0.281,-0.20,-0.00,-0.14
0.515,takeoff,1,326,274,0.48,0.00,0.00,-0.80,0.00,0.65,0.00,-0.58,-0.000,-0.078,-0.000,0.011,-3.141,-0.000,0.112,0.000,0.280,-0.21,-0.00,-0.15
0.515,takeoff,1,326,274,0.48,0.00,0.00,-0.80,0.00,0.65,0.00,-0.58,-0.000,-0.078,-0.000,0.011,-3.141,-0.000,0.112,0.000,0.280,-0.21,-0.00,-0.15
0.531,takeoff,1,326,274,0.48,0.00,0.00,-0.80,0.00,0.65,0.00,-0.58,-0.000,-0.078,-0.000,0.011,-3.141,-0.000,0.112,0.000,0.280,-0.21,-0.00,-0.15
0.531,takeoff,1,326,274,0.48,0.00,0.00,-0.80,0.00,0.65,0.00,-0.58,-0.000,-0.078,-0.000,0.009,-3.141,-0.000,0.109,0.000,0.280,-0.21,-0.00,-0.15
0.531,takeoff,1,326,278,0.45,0.00,0.00,-0.80,0.00,0.65,0.00,-0.58,-0.000,-0.078,-0.000,0.009,-3.141,-0.000,0.109,0.000,0.280,-0.21,-0.00,-0.15
0.531,takeoff,1,326,278,0.45,0.00,0.00,-0.80,0.00,0.65,0.00,-0.58,-0.000,-0.078,-0.000,0.009,-3.141,-0.000,0.109,0.000,0.280,-0.21,-0.00,-0.15
0.531,takeoff,1,326,278,0.45,0.00,0.00,-0.80,0.00,0.65,0.00,-0.58,-0.000,-0.078,-0.000,0.009,-3.141,-0.000,0.109,0.000,0.280,-0.21,-0.00,-0.15
0.531,takeoff,1,326,278,0.45,0.00,0.00,-0.80,0.00,0.65,0.00,-0.58,-0.000,-0.078,-0.000,0.009,-3.141,-0.000,0.109,0.000,0.280,-0.21,-0.00,-0.15
0.531,takeoff,1,326,278,0.45,0.00,0.00,-0.80,0.00,0.65,0.00,-0.58,-0.000,-0.078,-0.000,0.007,-3.141,-0.000,0.106,0.000,0.280,-0.21,-0.00,-0.15
0.531,takeoff,1,326,278,0.45,0.00,0.00,-0.80,0.00,0.65,0.00,-0.58,-0.000,-0.078,-0.000,0.007,-3.141,-0.000,0.106,0.000,0.280,-0.21,-0.00,-0.15
0.547,takeoff,1,326,278,0.45,0.00,0.00,-0.80,0.00,0.65,0.00,-0.59,-0.000,-0.079,-0.000,0.007,-3.141,-0.000,0.106,0.000,0.280,-0.22,-0.00,-0.16
0.547,takeoff,1,326,278,0.45,0.00,0.00,-0.80,0.00,0.65,0.00,-0.59,-0.000,-0.079,-0.000,0.007,-3.141,-0.000,0.106,0.000,0.280,-0.22,-0.00,-0.16
0.547,takeoff,1,326,278,0.45,0.00,0.00,-0.80,0.00,0.65,0.00,-0.59,-0.000,-0.079,-0.000,0.002,-3.141,-0.000,0.101,0.000,0.280,-0.22,-0.00,-0.16
0.547,takeoff,1,326,278,0.45,0.00,0.00,-0.80,0.00,0.65,0.00,-0.59,-0.000,-0.079,-0.000,0.002,-3.141,-0.000,0.101,0.000,0.280,-0.22,-0.00,-0.16
0.547,takeoff,1,326,278,0.45,0.00,0.00,-0.80,0.00,0.65,0.00,-0.59,-0.000,-0.079,-0.000,0.002,-3.141,-0.000,0.101,0.000,0.280,-0.22,-0.00,-0.16
0.547,takeoff,1,326,278,0.45,0.00,0.00,-0.80,0.00,0.65,0.00,-0.59,-0.000,-0.079,-0.000,0.002,-3.141,-0.000,0.101,0.000,0.280,-0.23,-0.00,-0.17
0.547,takeoff,1,326,278,0.45,0.00,0.00,-0.80,0.00,0.65,0.00,-0.59,-0.000,-0.079,-0.000,0.001,-3.141,-0.000,0.099,0.000,0.280,-0.23,-0.00,-0.17
0.547,takeoff,1,326,278,0.45,0.00,0.00,-0.80,0.00,0.65,0.00,-0.59,-0.000,-0.079,-0.000,0.001,-3.141,-0.000,0.099,0.000,0.280,-0.23,-0.00,-0.17
0.562,takeoff,1,326,278,0.45,0.00,0.00,-0.80,0.00,0.65,0.00,-0.59,-0.000,-0.079,-0.000,0.001,-3.141,-0.000,0.099,0.000,0.280,-0.23,-0.00,-0.17
0.562,takeoff,1,326,278,0.45,0.00,0.00,-0.80,0.00,0.66,0.00,-0.59,-0.000,-0.079,-0.000,0.001,-3.141,-0.000,0.099,0.000,0.280,-0.23,-0.00,-0.17
0.562,takeoff,1,326,278,0.45,0.00,0.00,-0.80,0.00,0.66,0.00,-0.60,-0.000,-0.079,-0.000,-0.001,-3.141,-0.000,0.096,0.000,0.280,-0.24,-0.00,-0.17
0.562,takeoff,1,326,282,0.45,0.00,0.00,-0.80,0.00,0.66,0.00,-0.60,-0.000,-0.079,-0.000,-0.001,-3.141,-0.000,0.096,0.000,0.280,-0.24,-0.00,-0.17
0.562,takeoff,1,326,282,0.45,0.00,0.00,-0.80,0.00,0.66,0.00,-0.60,-0.000,-0.079,-0.000,-0.001,-3.141,-0.000,0.096,0.000,0.280,-0.24,-0.00,-0.17
0.562,takeoff,1,326,282,0.45,0.00,0.00,-0.80,0.00,0.66,0.00,-0.60,-0.000,-0.079,-0.000,-0.001,-3.141,-0.000,0.096,0.000,0.280,-0.24,-0.00,-0.17
0.562,takeoff,1,326,282,0.45,0.00,0.00,-0.80,0.00,0.66,0.00,-0.60,-0.000,-0.079,-0.000,-0.003,-3.141,-0.000,0.094,0.000,0.280,-0.24,-0.00,-0.17
0.578,takeoff,1,326,282,0.45,0.00,0.00,-0.80,0.00,0.66,0.00,-0.61,-0.000,-0.078,-0.000,-0.003,-3.141,-0.000,0.094,0.000,0.280,-0.24,-0.00,-0.18
0.578,takeoff,1,326,282,0.45,0.00,0.00,-0.80,0.00,0.66,0.00,-0.61,-0.000,-0.078,-0.000,-0.003,-3.141,-0.000,0.094,0.000,0.280,-0.24,-0.00,-0.18
0.578,takeoff,1,326,282,0.45,0.00,0.00,-0.80,0.00,0.66,0.00,-0.61,-0.000,-0.078,-0.000,-0.003,-3.141,-0.000,0.094,0.000,0.280,-0.24,-0.00,-0.18
0.578,takeoff,1,326,282,0.45,0.00,0.00,-0.80,0.00,0.66,0.00,-0.61,-0.000,-0.078,-0.000,-0.005,-3.141,-0.000,0.092,0.000,0.280,-0.24,-0.00,-0.18
0.578,takeoff,1,326,282,0.45,0.00,0.00,-0.80,0.00,0.66,0.00,-0.61,-0.000,-0.078,-0.000,-0.005,-3.141,-0.000,0.092,0.000,0.280,-0.24,-0.00,-0.18
0.578,takeoff,1,326,282,0.45,0.00,0.00,-0.80,0.00,0.66,0.00,-0.61,-0.000,-0.078,-0.000,-0.005,-3.141,-0.000,0.092,0.000,0.280,-0.25,-0.00,-0.19
0.578,takeoff,1,326,282,0.45,0.00,0.00,-0.80,0.00,0.66,0.00,-0.61,-0.000,-0.078,-0.000,-0.005,-3.141,-0.000,0.092,0.000,0.280,-0.25,-0.00,-0.19
0.594,takeoff,1,326,282,0.45,0.00,0.00,-0.80,0.00,0.66,0.00,-0.61,-0.000,-0.078,-0.000,-0.009,-3.141,-0.000,0.087,0.000,0.280,-0.25,-0.00,-0.19
0.594,takeoff,1,326,282,0.45,0.00,0.00,-0.80,0.00,0.66,0.00,-0.61,-0.000,-0.078,-0.000,-0.009,-3.141,-0.000,0.087,0.000,0.280,-0.25,-0.00,-0.19
0.594,takeoff,1,326,290,0.43,0.00,0.00,-0.80,0.00,0.66,0.00,-0.61,-0.000,-0.078,-0.000,-0.009,-3.141,-0.000,0.087,0.000,0.280,-0.25,-0.00,-0.19
0.594,takeoff,1,326,290,0.43,0.00,0.00,-0.80,0.00,0.66,0.00,-0.62,-0.000,-0.078,-0.000,-0.009,-3.141,-0.000,0.087,0.000,0.280,-0.26,-0.00,-0.19
0.594,takeoff,1,326,290,0.43,0.00,0.00,-0.80,0.00,0.66,0.00,-0.62,-0.000,-0.078,-0.000,-0.010,-3.141,-0.000,0.085,0.000,0.280,-0.26,-0.00,-0.19
0.594,takeoff,1,326,290,0.43,0.00,0.00,-0.80,0.00,0.66,0.00,-0.62,-0.000,-0.078,-0.000,-0.010,-3.141,-0.000,0.085,0.000,0.280,-0.26,-0.00,-0.19
0.594,takeoff,1,326,290,0.43,0.00,0.00,-0.80,0.00,0.66,0.00,-0.62,-0.000,-0.078,-0.000,-0.010,-3.141,-0.000,0.085,0.000,0.280,-0.26,-0.00,-0.19
0.609,takeoff,1,326,290,0.43,0.00,0.00,-0.80,0.00,0.66,0.00,-0.62,-0.000,-0.078,-0.000,-0.012,-3.141,-0.000,0.082,0.000,0.280,-0.26,-0.00,-0.20
0.609,takeoff,1,326,290,0.43,0.00,0.00,-0.80,0.00,0.66,0.00,-0.62,-0.000,-0.078,-0.000,-0.012,-3.141,-0.000,0.082,0.000,0.280,-0.26,-0.00,-0.20
0.609,takeoff,1,326,290,0.43,0.00,0.00,-0.80,0.00,0.66,0.00,-0.62,-0.000,-0.078,-0.000,-0.012,-3.141,-0.000,0.082,0.000,0.280,-0.26,-0.00,-0.20
0.609,takeoff,1,326,290,0.43,0.00,0.00,-0.80,0.00,0.66,0.00,-0.62,-0.000,-0.078,-0.000,-0.012,-3.141,-0.000,0.082,0.000,0.280,-0.26,-0.00,-0.20
0.609,takeoff,1,326,290,0.43,0.00,0.00,-0.80,0.00,0.66,0.00,-0.62,-0.000,-0.078,-0.000,-0.014,-3.141,-0.000,0.080,0.000,0.280,-0.26,-0.00,-0.20
0.609,takeoff,1,326,290,0.43,0.00,0.00,-0.80,0.00,0.66,0.00,-0.63,-0.000,-0.078,-0.000,-0.014,-3.141,-0.000,0.080,0.000,0.280,-0.27,-0.00,-0.21
0.609,takeoff,1,326,290,0.43,0.00,0.00,-0.80,0.00,0.66,0.00,-0.63,-0.000,-0.078,-0.000,-0.014,-3.141,-0.000,0.080,0.000,0.280,-0.27,-0.00,-0.21
0.625,takeoff,1,326,290,0.43,0.00,0.00,-0.80,0.00,0.66,0.00,-0.63,-0.000,-0.078,-0.000,-0.015,-3.141,-0.000,0.078,0.000,0.280,-0.27,-0.00,-0.21
0.625,takeoff,1,326,290,0.43,0.00,0.00,-0.80,0.00,0.66,0.00,-0.63,-0.000,-0.078,-0.000,-0.015,-3.141,-0.000,0.078,0.000,0.280,-0.27,-0.00,-0.21
0.625,takeoff,1,326,290,0.43,0.00,0.00,-0.80,0.00,0.66,0.00,-0.63,-0.000,-0.078,-0.000,-0.015,-3.141,-0.000,0.078,0.000,0.280,-0.27,-0.00,-0.21
0.625,takeoff,1,326,290,0.43,0.00,0.00,-0.80,0.00,0.66,0.00,-0.63,-0.000,-0.078,-0.000,-0.015,-3.141,-0.000,0.078,0.000,0.280,-0.28,-0.00,-0.21
0.625,takeoff,1,326,294,0.41,0.00,0.00,-0.80,0.00,0.66,0.00,-0.63,-0.000,-0.078,-0.000,-0.018,-3.141,-0.000,0.074,0.000,0.280,-0.28,-0.00,-0.21
0.625,takeoff,1,326,294,0.41,0.00,0.00,-0.80,0.00,0.66,0.00,-0.63,-0.000,-0.078,-0.000,-0.018,-3.141,-0.000,0.074,0.000,0.280,-0.28,-0.00,-0.21
0.625,takeoff,1,326,294,0.41,0.00,0.00,-0.80,0.00,0.66,0.00,-0.63,-0.000,-0.078,-0.000,-0.018,-3.141,-0.000,0.074,0.000,0.280,-0.28,-0.00,-0.21
0.625,takeoff,1,326,294,0.41,0.00,0.00,-0.80,0.00,0.66,0.00,-0.63,-0.000,-0.078,-0.000,-0.018,-3.141,-0.000,0.074,0.000,0.280,-0.28,-0.00,-0.21
0.640,takeoff,1,326,294,0.41,0.00,0.00,-0.80,0.00,0.66,0.00,-0.64,-0.000,-0.077,-0.000,-0.020,-3.141,-0.000,0.072,0.000,0.280,-0.29,-0.00,-0.22
0.640,takeoff,1,326,294,0.41,0.00,0.00,-0.80,0.00,0.66,0.00,-0.64,-0.000,-0.077,-0.000,-0.020,-3.141,-0.000,0.072,0.000,0.280,-0.29,-0.00,-0.22
0.640,takeoff,1,326,294,0.41,0.00,0.00,-0.80,0.00,0.66,0.00,-0.64,-0.000,-0.077,-0.000,-0.020,-3.141,-0.000,0.072,0.000,0.280,-0.29,-0.00,-0.22
0.640,takeoff,1,326,294,0.41,0.00,0.00,-0.80,0.00,0.66,0.00,-0.64,-0.000,-0.077,-0.000,-0.020,-3.141,-0.000,0.072,0.000,0.280,-0.29,-0.00,-0.22
0.640,takeoff,1,326,294,0.41,0.00,0.00,-0.80,0.00,0.66,0.00,-0.64,-0.000,-0.077,-0.000,-0.021,-3.141,-0.000,0.070,0.000,0.280,-0.29,-0.00,-0.22
0.640,takeoff,1,326,294,0.41,0.00,0.00,-0.80,0.00,0.66,0.00,-0.64,-0.000,-0.077,-0.000,-0.021,-3.141,-0.000,0.070,0.000,0.280,-0.29,-0.00,-0.22
0.640,takeoff,1,326,294,0.41,0.00,0.00,-0.80,0.00,0.66,0.00,-0.64,-0.000,-0.077,-0.000,-0.021,-3.141,-0.000,0.070,0.000,0.280,-0.29,-0.00,-0.22
0.656,takeoff,1,326,294,0.41,0.00,0.00,-0.80,0.00,0.66,0.00,-0.64,-0.000,-0.077,-0.000,-0.021,-3.141,-0.000,0.070,0.000,0.280,-0.29,-0.00,-0.22
0.656,takeoff,1,326,294,0.41,0.00,0.00,-0.80,0.00,0.66,0.00,-0.64,-0.000,-0.077,-0.000,-0.021,-3.141,-0.000,0.070,0.000,0.280,-0.29,-0.00,-0.22
0.656,takeoff,1,326,294,0.41,0.00,0.00,-0.80,0.00,0.66,0.00,-0.64,-0.000,-0.077,-0.000,-0.024,-3.141,-0.000,0.066,0.000,0.280,-0.29,-0.00,-0.22
0.656,takeoff,1,326,294,0.41,0.00,0.00,-0.80,0.00,0.66,0.00,-0.65,-0.000,-0.077,-0.000,-0.024,-3.141,-0.000,0.066,0.000,0.280,-0.30,-0.00,-0.23
0.656,takeoff,1,326,291,0.48,0.00,0.00,-0.80,0.00,0.66,0.00,-0.65,-0.000,-0.077,-0.000,-0.024,-3.141,-0.000,0.066,0.000,0.280,-0.30,-0.00,-0.23
0.656,takeoff,1,326,291,0.48,0.00,0.00,-0.80,0.00,0.66,0.00,-0.65,-0.000,-0.077,-0.000,-0.024,-3.141,-0.000,0.066,0.000,0.280,-0.30,-0.00,-0.23
0.656,takeoff,1,326,291,0.48,0.00,0.00,-0.80,0.00,0.66,0.00,-0.65,-0.000,-0.077,-0.000,-0.024,-3.141,-0.000,0.066,0.000,0.280,-0.30,-0.00,-0.23
0.672,takeoff,1,326,291,0.48,0.00,0.00,-0.80,0.00,0.66,0.00,-0.65,-0.000,-0.077,-0.000,-0.024,-3.141,-0.000,0.066,0.000,0.280,-0.30,-0.00,-0.23
0.672,takeoff,1,326,291,0.48,0.00,0.00,-0.80,0.00,0.66,0.00,-0.65,-0.000,-0.077,-0.000,-0.024,-3.141,-0.000,0.066,0.000,0.280,-0.30,-0.00,-0.23
0.672,takeoff,1,326,291,0.48,0.00,0.00,-0.80,0.00,0.66,0.00,-0.65,-0.000,-0.077,-0.000,-0.024,-3.141,-0.000,0.066,0.000,0.280,-0.30,-0.00,-0.23
0.672,takeoff,1,326,291,0.48,0.00,0.00,-0.80,0.00,0.66,0.00,-0.65,-0.000,-0.077,-0.000,-0.025,-3.141,-0.000,0.064,0.000,0.280,-0.30,-0.00,-0.23
0.672,takeoff,1,326,291,0.48,0.00,0.00,-0.80,0.00,0.66,0.00,-0.65,-0.000,-0.077,-0.000,-0.025,-3.141,-0.000,0.064,0.000,0.280,-0.30,-0.00,-0.23
0.672,takeoff,1,326,291,0.48,0.00,0.00,-0.80,0.00,0.66,0.00,-0.67,-0.000,-0.076,-0.000,-0.025,-3.141,-0.000,0.063,0.000,0.280,-0.31,-0.00,-0.25
0.687,takeoff,1,326,291,0.48,0.00,0.00,-0.80,0.00,0.65,0.00,-0.67,-0.000,-0.076,-0.000,-0.028,-3.141,-0.000,0.060,0.000,0.280,-0.31,-0.00,-0.25
0.687,takeoff,1,326,291,0.48,0.00,0.00,-0.80,0.00,0.65,0.00,-0.67,-0.000,-0.076,-0.000,-0.028,-3.141,-0.000,0.060,0.000,0.280,-0.31,-0.00,-0.25
0.687,takeoff,1,326,291,0.48,0.00,0.00,-0.80,0.00,0.65,0.00,-0.67,-0.000,-0.076,-0.000,-0.028,-3.141,-0.000,0.060,0.000,0.280,-0.31,-0.00,-0.25
0.687,takeoff,1,326,291,0.48,0.00,0.00,-0.80,0.00,0.65,0.00,-0.67,-0.000,-0.076,-0.000,-0.028,-3.141,-0.000,0.060,0.000,0.280,-0.32,-0.00,-0.25
0.687,takeoff,1,326,291,0.48,0.00,0.00,-0.80,0.00,0.65,0.00,-0.67,-0.000,-0.076,-0.000,-0.030,-3.141,-0.000,0.057,0.000,0.280,-0.32,-0.00,-0.25
0.687,takeoff,1,326,291,0.48,0.00,0.00,-0.80,0.00,0.65,0.00,-0.67,-0.000,-0.076,-0.000,-0.030,-3.141,-0.000,0.057,0.000,0.280,-0.32,-0.00,-0.25
0.687,takeoff,1,326,291,0.48,0.00,0.00,-0.80,0.00,0.65,0.00,-0.67,-0.000,-0.076,-0.000,-0.030,-3.141,-0.000,0.057,0.000,0.280,-0.32,-0.00,-0.25
0.703,takeoff,1,326,294,0.49,0.00,0.00,-0.80,0.00,0.65,0.00,-0.67,-0.000,-0.076,-0.000,-0.030,-3.141,-0.000,0.057,0.000,0.280,-0.32,-0.00,-0.25
0.703,takeoff,1,326,294,0.49,0.00,0.00,-0.80,0.00,0.65,0.00,-0.67,-0.000,-0.076,-0.000,-0.030,-3.141,-0.000,0.057,0.000,0.280,-0.32,-0.00,-0.25
0.703,takeoff,1,326,294,0.49,0.00,0.00,-0.80,0.00,0.65,0.00,-0.68,-0.000,-0.075,-0.000,-0.032,-3.141,-0.000,0.054,0.000,0.280,-0.33,-0.00,-0.26
0.703,takeoff,1,326,294,0.49,0.00,0.00,-0.80,0.00,0.65,0.00,-0.68,-0.000,-0.075,-0.000,-0.032,-3.141,-0.000,0.054,0.000,0.280,-0.33,-0.00,-0.26
0.703,takeoff,1,326,294,0.49,0.00,0.00,-0.80,0.00,0.65,0.00,-0.68,-0.000,-0.075,-0.000,-0.032,-3.141,-0.000,0.054,0.000,0.280,-0.33,-0.00,-0.26
0.703,takeoff,1,326,294,0.49,0.00,0.00,-0.80,0.00,0.65,0.00,-0.68,-0.000,-0.075,-0.000,-0.032,-3.141,-0.000,0.054,0.000,0.280,-0.33,-0.00,-0.26
0.703,takeoff,1,326,294,0.49,0.00,0.00,-0.80,0.00,0.65,0.00,-0.68,-0.000,-0.075,-0.000,-0.033,-3.141,-0.000,0.053,0.000,0.280,-0.33,-0.00,-0.26
0.703,takeoff,1,326,294,0.49,0.00,0.00,-0.80,0.00,0.64,0.00,-0.69,-0.000,-0.075,-0.000,-0.033,-3.141,-0.000,0.052,0.000,0.280,-0.33,-0.00,-0.27
0.719,takeoff,1,326,294,0.49,0.00,0.00,-0.80,0.00,0.64,0.00,-0.69,-0.000,-0.075,-0.000,-0.033,-3.141,-0.000,0.052,0.000,0.280,-0.33,-0.00,-0.27
0.719,takeoff,1,326,294,0.49,0.00,0.00,-0.80,0.00,0.64,0.00,-0.69,-0.000,-0.075,-0.000,-0.033,-3.141,-0.000,0.052,0.000,0.280,-0.33,-0.00,-0.27
0.719,takeoff,1,326,294,0.49,0.00,0.00,-0.80,0.00,0.64,0.00,-0.69,-0.000,-0.075,-0.000,-0.034,-3.141,-0.000,0.051,0.000,0.280,-0.33,-0.00,-0.27
0.719,takeoff,1,326,294,0.49,0.00,0.00,-0.80,0.00,0.64,0.00,-0.69,-0.000,-0.075,-0.000,-0.034,-3.141,-0.000,0.051,0.000,0.280,-0.33,-0.00,-0.27
0.719,takeoff,1,326,294,0.49,0.00,0.00,-0.80,0.00,0.64,0.00,-0.69,-0.000,-0.074,-0.000,-0.034,-3.141,-0.000,0.050,0.000,0.280,-0.34,-0.00,-0.28
0.719,takeoff,1,326,296,0.49,0.00,0.00,-0.80,0.00,0.64,0.00,-0.69,-0.000,-0.074,-0.000,-0.034,-3.141,-0.000,0.050,0.000,0.280,-0.34,-0.00,-0.28
0.719,takeoff,1,326,296,0.49,0.00,0.00,-0.80,0.00,0.64,0.00,-0.69,-0.000,-0.074,-0.000,-0.034,-3.141,-0.000,0.050,0.000,0.280,-0.34,-0.00,-0.28
0.719,takeoff,1,326,296,0.49,0.00,0.00,-0.80,0.00,0.64,0.00,-0.69,-0.000,-0.074,-0.000,-0.036,-3.141,-0.000,0.048,0.000,0.280,-0.34,-0.00,-0.28
0.734,takeoff,1,326,296,0.49,0.00,0.00,-0.80,0.00,0.64,0.00,-0.69,-0.000,-0.074,-0.000,-0.036,-3.141,-0.000,0.048,0.000,0.280,-0.34,-0.00,-0.28
0.734,takeoff,1,326,296,0.49,0.00,0.00,-0.80,0.00,0.64,0.00,-0.69,-0.000,-0.074,-0.000,-0.036,-3.141,-0.000,0.048,0.000,0.280,-0.34,-0.00,-0.28
0.734,takeoff,1,326,296,0.49,0.00,0.00,-0.80,0.00,0.64,0.00,-0.69,-0.000,-0.074,-0.000,-0.036,-3.141,-0.000,0.048,0.000,0.280,-0.34,-0.00,-0.28
0.734,takeoff,1,326,296,0.49,0.00,0.00,-0.80,0.00,0.64,0.00,-0.70,-0.000,-0.074,-0.000,-0.037,-3.141,-0.000,0.046,0.000,0.280,-0.35,-0.00,-0.29
0.734,takeoff,1,326,296,0.49,0.00,0.00,-0.80,0.00,0.64,0.00,-0.70,-0.000,-0.074,-0.000,-0.037,-3.141,-0.000,0.046,0.000,0.280,-0.35,-0.00,-0.29
0.734,takeoff,1,326,296,0.49,0.00,0.00,-0.80,0.00,0.64,0.00,-0.70,-0.000,-0.074,-0.000,-0.037,-3.141,-0.000,0.046,0.000,0.280,-0.35,-0.00,-0.29
0.734,takeoff,1,326,296,0.49,0.00,0.00,-0.80,0.00,0.64,0.00,-0.70,-0.000,-0.074,-0.000,-0.037,-3.141,-0.000,0.046,0.000,0.280,-0.35,-0.00,-0.29
0.734,takeoff,1,326,296,0.49,0.00,0.00,-0.80,0.00,0.64,0.00,-0.70,-0.000,-0.074,-0.000,-0.038,-3.141,-0.000,0.045,0.000,0.280,-0.35,-0.00,-0.29
0.750,takeoff,1,326,296,0.49,0.00,0.00,-0.80,0.00,0.64,0.00,-0.71,-0.000,-0.073,-0.000,-0.038,-3.141,-0.000,0.044,0.000,0.280,-0.35,-0.00,-0.29
0.750,takeoff,1,326,296,0.49,0.00,0.00,-0.80,0.00,0.64,0.00,-0.71,-0.000,-0.073,-0.000,-0.038,-3.141,-0.000,0.044,0.000,0.280,-0.35,-0.00,-0.29
0.750,takeoff,1,326,296,0.49,0.00,0.00,-0.80,0.00,0.64,0.00,-0.71,-0.000,-0.073,-0.000,-0.038,-3.141,-0.000,0.044,0.000,0.280,-0.35,-0.00,-0.29
0.750,takeoff,1,326,296,0.49,0.00,0.00,-0.80,0.00,0.64,0.00,-0.71,-0.000,-0.073,-0.000,-0.038,-3.141,-0.000,0.044,0.000,0.280,-0.35,-0.00,-0.29
0.750,takeoff,1,326,296,0.49,0.00,0.00,-0.80,0.00,0.64,0.00,-0.71,-0.000,-0.073,-0.000,-0.039,-3.141,-0.000,0.043,0.000,0.280,-0.35,-0.00,-0.29
0.750,takeoff,1,326,296,0.49,0.00,0.00,-0.80,0.00,0.64,0.00,-0.72,-0.000,-0.073,-0.000,-0.039,-3.141,-0.000,0.042,0.000,0.280,-0.36,-0.00,-0.30
0.750,takeoff,1,326,296,0.49,0.00,0.00,-0.80,0.00,0.64,0.00,-0.72,-0.000,-0.073,-0.000,-0.039,-3.141,-0.000,0.042,0.000,0.280,-0.36,-0.00,-0.30
0.765,takeoff,1,326,298,0.50,0.00,0.00,-0.80,0.00,0.64,0.00,-0.72,-0.000,-0.073,-0.000,-0.039,-3.141,-0.000,0.042,0.000,0.280,-0.36,-0.00,-0.30
0.765,takeoff,1,326,298,0.50,0.00,0.00,-0.80,0.00,0.64,0.00,-0.72,-0.000,-0.073,-0.000,-0.041,-3.141,-0.000,0.040,0.000,0.280,-0.36,-0.00,-0.30
0.765,takeoff,1,326,298,0.50,0.00,0.00,-0.80,0.00,0.64,0.00,-0.72,-0.000,-0.073,-0.000,-0.041,-3.141,-0.000,0.040,0.000,0.280,-0.36,-0.00,-0.30
0.765,takeoff,1,326,298,0.50,0.00,0.00,-0.80,0.00,0.64,0.00,-0.72,-0.000,-0.073,-0.000,-0.041,-3.141,-0.000,0.040,0.000,0.280,-0.36,-0.00,-0.30
0.765,takeoff,1,326,298,0.50,0.00,0.00,-0.80,0.00,0.63,0.00,-0.72,-0.000,-0.072,-0.000,-0.041,-3.141,-0.000,0.039,0.000,0.280,-0.36,-0.00,-0.31
0.765,takeoff,1,326,298,0.50,0.00,0.00,-0.80,0.00,0.63,0.00,-0.72,-0.000,-0.072,-0.000,-0.041,-3.141,-0.000,0.039,0.000,0.280,-0.36,-0.00,-0.31
0.765,takeoff,1,326,298,0.50,0.00,0.00,-0.80,0.00,0.63,0.00,-0.72,-0.000,-0.072,-0.000,-0.042,-3.141,-0.000,0.038,0.000,0.280,-0.36,-0.00,-0.31
0.765,takeoff,1,326,298,0.50,0.00,0.00,-0.80,0.00,0.63,0.00,-0.72,-0.000,-0.072,-0.000,-0.042,-3.141,-0.000,0.038,0.000,0.280,-0.36,-0.00,-0.31
0.765,takeoff,1,326,298,0.50,0.00,0.00,-0.80,0.00,0.63,0.00,-0.72,-0.000,-0.072,-0.000,-0.042,-3.141,-0.000,0.038,0.000,0.280,-0.36,-0.00,-0.31
0.781,takeoff,1,326,298,0.50,0.00,0.00,-0.80,0.00,0.63,0.00,-0.73,-0.000,-0.071,-0.000,-0.042,-3.141,-0.000,0.037,0.000,0.280,-0.37,-0.00,-0.32
0.781,takeoff,1,326,298,0.50,0.00,0.00,-0.80,0.00,0.63,0.00,-0.73,-0.000,-0.071,-0.000,-0.042,-3.141,-0.000,0.036,0.000,0.280,-0.37,-0.00,-0.32
0.781,takeoff,1,326,298,0.50,0.00,0.00,-0.80,0.00,0.63,0.00,-0.73,-0.000,-0.071,-0.000,-0.042,-3.141,-0.000,0.036,0.000,0.280,-0.37,-0.00,-0.32
0.781,takeoff,1,326,298,0.50,0.00,0.00,-0.80,0.00,0.63,0.00,-0.73,-0.000,-0.071,-0.000,-0.042,-3.141,-0.000,0.036,0.000,0.280,-0.37,-0.00,-0.32
0.781,takeoff,1,326,298,0.50,0.00,0.00,-0.80,0.00,0.63,0.00,-0.73,-0.000,-0.071,-0.000,-0.042,-3.141,-0.000,0.036,0.000,0.280,-0.37,-0.00,-0.32
0.781,takeoff,1,326,298,0.50,0.00,0.00,-0.80,0.00,0.63,0.00,-0.74,-0.000,-0.071,-0.000,-0.042,-3.141,-0.000,0.036,0.000,0.280,-0.38,-0.00,-0.32
0.781,takeoff,1,326,298,0.50,0.00,0.00,-0.80,0.00,0.63,0.00,-0.74,-0.000,-0.071,-0.000,-0.044,-3.141,-0.000,0.034,0.000,0.280,-0.38,-0.00,-0.32
0.797,takeoff,1,326,298,0.50,0.00,0.00,-0.80,0.00,0.63,0.00,-0.74,-0.000,-0.071,-0.000,-0.044,-3.141,-0.000,0.034,0.000,0.280,-0.38,-0.00,-0.32
0.797,takeoff,1,326,300,0.49,0.00,0.00,-0.80,0.00,0.62,0.00,-0.74,-0.000,-0.071,-0.000,-0.044,-3.141,-0.000,0.034,0.000,0.280,-0.38,-0.00,-0.32
0.797,takeoff,1,326,300,0.49,0.00,0.00,-0.80,0.00,0.62,0.00,-0.74,-0.000,-0.071,-0.000,-0.044,-3.141,-0.000,0.034,0.000,0.280,-0.38,-0.00,-0.32
0.797,takeoff,1,326,300,0.49,0.00,0.00,-0.80,0.00,0.62,0.00,-0.74,-0.000,-0.070,-0.000,-0.045,-3.141,-0.000,0.032,0.000,0.280,-0.38,-0.00,-0.33
0.797,takeoff,1,326,300,0.49,0.00,0.00,-0.80,0.00,0.62,0.00,-0.74,-0.000,-0.070,-0.000,-0.045,-3.141,-0.000,0.032,0.000,0.280,-0.38,-0.00,-0.33
0.797,takeoff,1,326,300,0.49,0.00,0.00,-0.80,0.00,0.62,0.00,-0.74,-0.000,-0.070,-0.000,-0.045,-3.141,-0.000,0.032,0.000,0.280,-0.38,-0.00,-0.33
0.797,takeoff,1,326,300,0.49,0.00,0.00,-0.80,0.00,0.62,0.00,-0.74,-0.000,-0.070,-0.000,-0.045,-3.141,-0.000,0.032,0.000,0.280,-0.38,-0.00,-0.33
0.812,takeoff,1,326,300,0.49,0.00,0.00,-0.80,0.00,0.62,0.00,-0.74,-0.000,-0.070,-0.000,-0.045,-3.141,-0.000,0.031,0.000,0.280,-0.38,-0.00,-0.33
0.812,takeoff,1,326,300,0.49,0.00,0.00,-0.80,0.00,0.62,0.00,-0.75,-0.000,-0.070,-0.000,-0.045,-3.141,-0.000,0.031,0.000,0.280,-0.39,-0.00,-0.34
0.812,takeoff,1,326,300,0.49,0.00,0.00,-0.80,0.00,0.62,0.00,-0.75,-0.000,-0.070,-0.000,-0.045,-3.141,-0.000,0.031,0.000,0.280,-0.39,-0.00,-0.34
0.812,takeoff,1,326,300,0.49,0.00,0.00,-0.80,0.00,0.62,0.00,-0.75,-0.000,-0.070,-0.000,-0.045,-3.141,-0.000,0.031,0.000,0.280,-0.39,-0.00,-0.34
0.812,takeoff,1,326,300,0.49,0.00,0.00,-0.80,0.00,0.62,0.00,-0.75,-0.000,-0.070,-0.000,-0.045,-3.141,-0.000,0.031,0.000,0.280,-0.39,-0.00,-0.34
0.812,takeoff,1,326,300,0.49,0.00,0.00,-0.80,0.00,0.62,0.00,-0.75,-0.000,-0.070,-0.000,-0.046,-3.141,-0.000,0.030,0.000,0.280,-0.39,-0.00,-0.34
0.812,takeoff,1,326,300,0.49,0.00,0.00,-0.80,0.00,0.62,0.00,-0.76,-0.000,-0.069,-0.000,-0.046,-3.141,-0.000,0.029,0.000,0.280,-0.40,-0.00,-0.35
0.812,takeoff,1,326,300,0.49,0.00,0.00,-0.80,0.00,0.61,0.00,-0.76,-0.000,-0.069,-0.000,-0.046,-3.141,-0.000,0.029,0.000,0.280,-0.40,-0.00,-0.35
0.828,takeoff,1,326,300,0.49,0.00,0.00,-0.80,0.00,0.61,0.00,-0.76,-0.000,-0.069,-0.000,-0.046,-3.141,-0.000,0.029,0.000,0.280,-0.40,-0.00,-0.35
0.828,takeoff,1,326,300,0.49,0.00,0.00,-0.80,0.00,0.61,0.00,-0.76,-0.000,-0.069,-0.000,-0.047,-3.141,-0.000,0.027,0.000,0.280,-0.40,-0.00,-0.35
0.828,takeoff,1,326,300,0.49,0.00,0.00,-0.80,0.00,0.61,0.00,-0.76,-0.000,-0.069,-0.000,-0.047,-3.141,-0.000,0.027,0.000,0.280,-0.40,-0.00,-0.35
0.828,takeoff,1,326,302,0.48,0.00,0.00,-0.80,0.00,0.61,0.00,-0.76,-0.000,-0.069,-0.000,-0.047,-3.141,-0.000,0.027,0.000,0.280,-0.40,-0.00,-0.35
0.828,takeoff,1,326,302,0.48,0.00,0.00,-0.80,0.00,0.61,0.00,-0.76,-0.000,-0.069,-0.000,-0.048,-3.141,-0.000,0.026,0.000,0.280,-0.40,-0.00,-0.35
0.828,takeoff,1,326,302,0.48,0.00,0.00,-0.80,0.00,0.60,0.00,-0.76,-0.000,-0.069,-0.000,-0.048,-3.141,-0.000,0.026,0.000,0.280,-0.40,-0.00,-0.35
0.828,takeoff,1,326,302,0.48,0.00,0.00,-0.80,0.00,0.60,0.00,-0.76,-0.000,-0.069,-0.000,-0.048,-3.141,-0.000,0.026,0.000,0.280,-0.40,-0.00,-0.35
0.828,takeoff,1,326,302,0.48,0.00,0.00,-0.80,0.00,0.60,0.00,-0.76,-0.000,-0.069,-0.000,-0.048,-3.141,-0.000,0.026,0.000,0.280,-0.40,-0.00,-0.35
0.844,takeoff,1,326,302,0.48,0.00,0.00,-0.80,0.00,0.60,0.00,-0.77,-0.000,-0.068,-0.000,-0.048,-3.141,-0.000,0.025,0.000,0.280,-0.41,-0.00,-0.36
0.844,takeoff,1,326,302,0.48,0.00,0.00,-0.80,0.00,0.60,0.00,-0.77,-0.000,-0.068,-0.000,-0.048,-3.141,-0.000,0.024,0.000,0.280,-0.41,-0.00,-0.36
0.844,takeoff,1,326,302,0.48,0.00,0.00,-0.80,0.00,0.60,0.00,-0.77,-0.000,-0.068,-0.000,-0.048,-3.141,-0.000,0.024,0.000,0.280,-0.41,-0.00,-0.36
0.844,takeoff,1,326,302,0.48,0.00,0.00,-0.80,0.00,0.60,0.00,-0.77,-0.000,-0.068,-0.000,-0.048,-3.141,-0.000,0.024,0.000,0.280,-0.41,-0.00,-0.36
0.844,takeoff,1,326,302,0.48,0.00,0.00,-0.80,0.00,0.60,0.00,-0.77,-0.000,-0.068,-0.000,-0.048,-3.141,-0.000,0.024,0.000,0.280,-0.41,-0.00,-0.36
0.844,takeoff,1,326,302,0.48,0.00,0.00,-0.80,0.00,0.60,0.00,-0.77,-0.000,-0.068,-0.000,-0.048,-3.141,-0.000,0.024,0.000,0.280,-0.41,-0.00,-0.36
0.844,takeoff,1,326,302,0.48,0.00,0.00,-0.80,0.00,0.60,0.00,-0.78,-0.000,-0.067,-0.000,-0.049,-3.141,-0.000,0.023,0.000,0.280,-0.41,-0.00,-0.37
0.844,takeoff,1,326,302,0.48,0.00,0.00,-0.80,0.00,0.60,0.00,-0.78,-0.000,-0.067,-0.000,-0.049,-3.141,-0.000,0.023,0.000,0.280,-0.41,-0.00,-0.37
0.859,takeoff,1,326,302,0.48,0.00,0.00,-0.80,0.00,0.60,0.00,-0.78,-0.000,-0.067,-0.000,-0.049,-3.141,-0.000,0.023,0.000,0.280,-0.41,-0.00,-0.37
0.859,takeoff,1,326,302,0.48,0.00,0.00,-0.80,0.00,0.60,0.00,-0.78,-0.000,-0.067,-0.000,-0.049,-3.141,-0.000,0.023,0.000,0.280,-0.41,-0.00,-0.37
0.859,takeoff,1,326,302,0.48,0.00,0.00,-0.80,0.00,0.60,0.00,-0.78,-0.000,-0.067,-0.000,-0.050,-3.141,-0.000,0.022,0.000,0.280,-0.41,-0.00,-0.37
0.859,takeoff,1,326,302,0.48,0.00,0.00,-0.80,0.00,0.59,0.00,-0.78,-0.000,-0.066,-0.000,-0.050,-3.141,-0.000,0.021,0.000,0.280,-0.42,-0.00,-0.38
0.859,takeoff,1,326,302,0.48,0.00,0.00,-0.80,0.00,0.59,0.00,-0.78,-0.000,-0.066,-0.000,-0.050,-3.141,-0.000,0.021,0.000,0.280,-0.42,-0.00,-0.38
0.859,takeoff,1,326,304,0.51,0.00,0.00,-0.80,0.00,0.59,0.00,-0.78,-0.000,-0.066,-0.000,-0.050,-3.141,-0.000,0.021,0.000,0.280,-0.42,-0.00,-0.38
0.859,takeoff,1,326,304,0.51,0.00,0.00,-0.80,0.00,0.59,0.00,-0.78,-0.000,-0.066,-0.000,-0.050,-3.141,-0.000,0.020,0.000,0.280,-0.42,-0.00,-0.38
0.875,takeoff,1,326,304,0.51,0.00,0.00,-0.80,0.00,0.59,0.00,-0.78,-0.000,-0.066,-0.000,-0.050,-3.141,-0.000,0.020,0.000,0.280,-0.42,-0.00,-0.38
0.875,takeoff,1,326,304,0.51,0.00,0.00,-0.80,0.00,0.59,0.00,-0.79,-0.000,-0.066,-0.000,-0.050,-3.141,-0.000,0.019,0.000,0.280,-0.43,-0.00,-0.39
0.875,takeoff,1,326,304,0.51,0.00,0.00,-0.80,0.00,0.59,0.00,-0.79,-0.000,-0.066,-0.000,-0.050,-3.141,-0.000,0.019,0.000,0.280,-0.43,-0.00,-0.39
0.875,takeoff,1,326,304,0.51,0.00,0.00,-0.80,0.00,0.59,0.00,-0.79,-0.000,-0.066,-0.000,-0.050,-3.141,-0.000,0.019,0.000,0.280,-0.43,-0.00,-0.39
0.875,takeoff,1,326,304,0.51,0.00,0.00,-0.80,0.00,0.59,0.00,-0.79,-0.000,-0.066,-0.000,-0.051,-3.141,-0.000,0.018,0.000,0.280,-0.43,-0.00,-0.39
0.875,takeoff,1,326,304,0.51,0.00,0.00,-0.80,0.00,0.59,0.00,-0.79,-0.000,-0.066,-0.000,-0.051,-3.141,-0.000,0.018,0.000,0.280,-0.43,-0.00,-0.39
0.875,takeoff,1,326,304,0.51,0.00,0.00,-0.80,0.00,0.59,0.00,-0.80,-0.000,-0.065,-0.000,-0.051,-3.141,-0.000,0.018,0.000,0.280,-0.43,-0.00,-0.40
0.875,takeoff,1,326,304,0.51,0.00,0.00,-0.80,0.00,0.59,0.00,-0.80,-0.000,-0.065,-0.000,-0.051,-3.141,-0.000,0.018,0.000,0.280,-0.43,-0.00,-0.40
0.890,takeoff,1,326,304,0.51,0.00,0.00,-0.80,0.00,0.59,0.00,-0.80,-0.000,-0.065,-0.000,-0.052,-3.141,-0.000,0.017,0.000,0.280,-0.43,-0.00,-0.40
0.890,takeoff,1,326,304,0.51,0.00,0.00,-0.80,0.00,0.58,0.00,-0.80,-0.000,-0.065,-0.000,-0.052,-3.141,-0.000,0.017,0.000,0.280,-0.43,-0.00,-0.40
0.890,takeoff,1,326,305,0.49,0.00,0.00,-0.80,0.00,0.58,0.00,-0.80,-0.000,-0.065,-0.000,-0.052,-3.141,-0.000,0.017,0.000,0.280,-0.43,-0.00,-0.40
0.890,takeoff,1,326,305,0.49,0.00,0.00,-0.80,0.00,0.58,0.00,-0.81,-0.000,-0.064,-0.000,-0.052,-3.141,-0.000,0.015,0.000,0.280,-0.44,-0.00,-0.41
0.890,takeoff,1,326,305,0.49,0.00,0.00,-0.80,0.00,0.58,0.00,-0.81,-0.000,-0.064,-0.000,-0.052,-3.141,-0.000,0.015,0.000,0.280,-0.44,-0.00,-0.41
0.890,takeoff,1,326,305,0.49,0.00,0.00,-0.80,0.00,0.58,0.00,-0.81,-0.000,-0.064,-0.000,-0.052,-3.141,-0.000,0.015,0.000,0.280,-0.44,-0.00,-0.41
0.890,takeoff,1,326,305,0.49,0.00,0.00,-0.80,0.00,0.58,0.00,-0.81,-0.000,-0.064,-0.000,-0.052,-3.141,-0.000,0.015,0.000,0.280,-0.44,-0.00,-0.41
0.906,takeoff,1,326,305,0.49,0.00,0.00,-0.80,0.00,0.58,0.00,-0.81,-0.000,-0.064,-0.000,-0.052,-3.141,-0.000,0.015,0.000,0.280,-0.44,-0.00,-0.41
0.906,takeoff,1,326,305,0.49,0.00,0.00,-0.80,0.00,0.57,0.00,-0.81,-0.000,-0.064,-0.000,-0.052,-3.141,-0.000,0.014,0.000,0.280,-0.44,-0.00,-0.41
0.906,takeoff,1,326,305,0.49,0.00,0.00,-0.80,0.00,0.57,0.00,-0.81,-0.000,-0.064,-0.000,-0.053,-3.141,-0.000,0.014,0.000,0.280,-0.44,-0.00,-0.41
0.906,takeoff,1,326,305,0.49,0.00,0.00,-0.80,0.00,0.57,0.00,-0.81,-0.000,-0.064,-0.000,-0.053,-3.141,-0.000,0.014,0.000,0.280,-0.44,-0.00,-0.41
0.906,takeoff,1,326,305,0.49,0.00,0.00,-0.80,0.00,0.57,0.00,-0.81,-0.000,-0.064,-0.000,-0.053,-3.141,-0.000,0.014,0.000,0.280,-0.44,-0.00,-0.41
0.906,takeoff,1,326,305,0.49,0.00,0.00,-0.80,0.00,0.57,0.00,-0.81,-0.000,-0.064,-0.000,-0.053,-3.141,-0.000,0.014,0.000,0.280,-0.44,-0.00,-0.41
0.906,takeoff,1,326,305,0.49,0.00,0.00,-0.80,0.00,0.57,0.00,-0.81,-0.000,-0.064,-0.000,-0.053,-3.141,-0.000,0.014,0.000,0.280,-0.44,-0.00,-0.41
0.906,takeoff,1,326,305,0.49,0.00,0.00,-0.80,0.00,0.57,0.00,-0.82,-0.000,-0.063,-0.000,-0.053,-3.141,-0.000,0.013,0.000,0.280,-0.45,-0.00,-0.42
0.906,takeoff,1,326,305,0.49,0.00,0.00,-0.80,0.00,0.57,0.00,-0.82,-0.000,-0.063,-0.000,-0.053,-3.141,-0.000,0.013,0.000,0.280,-0.45,-0.00,-0.42
0.922,takeoff,1,326,305,0.49,0.00,0.00,-0.80,0.00,0.57,0.00,-0.82,-0.000,-0.063,-0.000,-0.053,-3.141,-0.000,0.013,0.000,0.280,-0.45,-0.00,-0.42
0.922,takeoff,1,326,305,0.49,0.00,0.00,-0.80,0.00,0.57,0.00,-0.82,-0.000,-0.062,-0.000,-0.054,-3.141,-0.000,0.011,0.000,0.280,-0.45,-0.00,-0.43
0.922,takeoff,1,326,306,0.49,0.00,0.00,-0.80,0.00,0.57,0.00,-0.82,-0.000,-0.062,-0.000,-0.054,-3.141,-0.000,0.011,0.000,0.280,-0.45,-0.00,-0.43
0.922,takeoff,1,326,306,0.49,0.00,0.00,-0.80,0.00,0.56,0.00,-0.82,-0.000,-0.062,-0.000,-0.054,-3.141,-0.000,0.011,0.000,0.280,-0.45,-0.00,-0.43
0.922,takeoff,1,326,306,0.49,0.00,0.00,-0.80,0.00,0.56,0.00,-0.82,-0.000,-0.062,-0.000,-0.054,-3.141,-0.000,0.010,0.000,0.280,-0.45,-0.00,-0.43
0.937,takeoff,1,326,306,0.49,0.00,0.00,-0.80,0.00,0.56,0.00,-0.82,-0.000,-0.062,-0.000,-0.054,-3.141,-0.000,0.010,0.000,0.280,-0.45,-0.00,-0.43
0.937,takeoff,1,326,306,0.49,0.00,0.00,-0.80,0.00,0.56,0.00,-0.83,-0.000,-0.062,-0.000,-0.054,-3.141,-0.000,0.010,0.000,0.280,-0.46,-0.00,-0.44
0.937,takeoff,1,326,306,0.49,0.00,0.00,-0.80,0.00,0.56,0.00,-0.83,-0.000,-0.062,-0.000,-0.054,-3.141,-0.000,0.010,0.000,0.280,-0.46,-0.00,-0.44
0.937,takeoff,1,326,306,0.49,0.00,0.00,-0.80,0.00,0.56,0.00,-0.83,-0.000,-0.062,-0.000,-0.054,-3.141,-0.000,0.010,0.000,0.280,-0.46,-0.00,-0.44
0.937,takeoff,1,326,306,0.49,0.00,0.00,-0.80,0.00,0.56,0.00,-0.83,-0.000,-0.062,-0.000,-0.054,-3.141,-0.000,0.010,0.000,0.280,-0.46,-0.00,-0.44
0.937,takeoff,1,326,306,0.49,0.00,0.00,-0.80,0.00,0.55,0.00,-0.84,-0.000,-0.061,-0.000,-0.054,-3.141,-0.000,0.008,0.000,0.280,-0.46,-0.00,-0.45
0.937,takeoff,1,326,306,0.49,0.00,0.00,-0.80,0.00,0.55,0.00,-0.84,-0.000,-0.061,-0.000,-0.054,-3.141,-0.000,0.008,0.000,0.280,-0.46,-0.00,-0.45
0.953,takeoff,1,326,306,0.49,0.00,0.00,-0.80,0.00,0.55,0.00,-0.84,-0.000,-0.061,-0.000,-0.055,-3.141,-0.000,0.008,0.000,0.280,-0.46,-0.00,-0.45
0.953,takeoff,1,326,306,0.49,0.00,0.00,-0.80,0.00,0.55,0.00,-0.84,-0.000,-0.061,-0.000,-0.055,-3.141,-0.000,0.008,0.000,0.280,-0.46,-0.00,-0.45
0.953,takeoff,1,326,306,0.49,0.00,0.00,-0.80,0.00,0.55,0.00,-0.85,-0.000,-0.060,-0.000,-0.055,-3.141,-0.000,0.006,0.000,0.280,-0.47,-0.00,-0.46
0.953,takeoff,1,326,306,0.49,0.00,0.00,-0.80,0.00,0.54,0.00,-0.85,-0.000,-0.060,-0.000,-0.055,-3.141,-0.000,0.006,0.000,0.280,-0.47,-0.00,-0.46
0.953,takeoff,1,326,306,0.49,0.00,0.00,-0.80,0.00,0.54,0.00,-0.85,-0.000,-0.060,-0.000,-0.055,-3.141,-0.000,0.006,0.000,0.280,-0.47,-0.00,-0.46
