t,phase,found,cx,cy,conf,cmd_vx,cmd_vy,cmd_vz,cmd_yawrate,vbx,vby,vd,roll_des,pitch_des,roll,pitch,yaw,roll_q,pitch_q,yaw_q,thrust,x,y,z
0.000,takeoff,1,325,176,0.51,0.00,0.00,-0.80,0.00,0.00,0.00,0.00,0.000,0.000,-0.001,0.311,3.140,-0.001,0.388,0.000,0.314,0.00,0.00,0.00
0.016,takeoff,1,325,176,0.51,0.00,0.00,-0.80,0.00,0.00,0.00,-0.00,0.000,0.000,-0.001,0.311,3.140,-0.001,0.388,0.000,0.315,-0.00,0.00,0.02
0.016,takeoff,1,325,176,0.51,0.00,0.00,-0.80,0.00,0.00,0.00,-0.00,0.000,0.000,-0.001,0.311,3.140,-0.001,0.388,0.000,0.315,-0.00,0.00,0.02
0.016,takeoff,1,325,176,0.51,0.00,0.00,-0.80,0.00,0.00,0.00,-0.00,0.000,0.000,-0.001,0.311,3.140,-0.001,0.388,0.000,0.315,-0.00,0.00,0.02
0.016,takeoff,1,325,176,0.51,0.00,0.00,-0.80,0.00,0.00,0.00,-0.00,0.000,0.000,-0.001,0.311,3.140,-0.001,0.388,0.000,0.315,-0.00,0.00,0.02
0.032,takeoff,1,325,176,0.51,0.00,0.00,-0.80,0.00,0.00,0.00,-0.00,0.000,0.000,-0.001,0.311,3.140,-0.001,0.388,0.000,0.315,-0.00,0.00,0.02
0.032,takeoff,1,325,176,0.51,0.00,0.00,-0.80,0.00,0.00,0.00,-0.00,0.000,0.000,-0.001,0.311,3.140,-0.001,0.388,0.000,0.315,-0.00,0.00,0.02
0.032,takeoff,1,325,176,0.50,0.00,0.00,-0.80,0.00,0.00,0.00,-0.00,0.000,0.000,-0.001,0.311,3.140,-0.001,0.388,0.000,0.315,-0.00,0.00,0.02
0.032,takeoff,1,325,176,0.50,0.00,0.00,-0.80,0.00,0.00,0.00,0.01,-0.000,-0.000,-0.000,0.311,3.140,-0.000,0.388,0.000,0.316,-0.00,0.00,0.02
0.032,takeoff,1,325,176,0.50,0.00,0.00,-0.80,0.00,0.00,0.00,0.01,-0.000,-0.000,-0.000,0.311,3.140,-0.000,0.388,0.000,0.316,-0.00,0.00,0.02
0.032,takeoff,1,325,176,0.50,0.00,0.00,-0.80,0.00,0.00,0.00,0.01,-0.000,-0.000,-0.000,0.311,3.140,-0.000,0.388,0.000,0.316,-0.00,0.00,0.02
0.032,takeoff,1,325,176,0.50,0.00,0.00,-0.80,0.00,0.00,0.00,0.01,-0.000,-0.000,-0.000,0.311,3.140,-0.000,0.388,0.000,0.316,-0.00,0.00,0.02
0.047,takeoff,1,325,176,0.50,0.00,0.00,-0.80,0.00,0.00,0.00,0.01,-0.000,-0.000,-0.000,0.311,3.140,-0.000,0.388,0.000,0.316,-0.00,0.00,0.02
0.047,takeoff,1,325,176,0.50,0.00,0.00,-0.80,0.00,0.00,0.00,0.00,-0.000,-0.000,-0.000,0.311,3.140,-0.000,0.388,0.000,0.316,-0.00,0.00,0.02
0.047,takeoff,1,325,176,0.50,0.00,0.00,-0.80,0.00,0.00,-0.00,0.00,0.000,-0.000,-0.000,0.311,3.140,-0.000,0.389,0.000,0.316,-0.00,0.00,0.02
0.047,takeoff,1,325,176,0.50,0.00,0.00,-0.80,0.00,0.00,-0.00,0.00,0.000,-0.000,-0.000,0.311,3.140,-0.000,0.389,0.000,0.316,-0.00,0.00,0.02
0.047,takeoff,1,325,176,0.50,0.00,0.00,-0.80,0.00,0.00,-0.00,0.00,0.000,-0.000,-0.000,0.310,3.140,-0.001,0.388,0.000,0.316,-0.00,0.00,0.02
0.047,takeoff,1,325,176,0.50,0.00,0.00,-0.80,0.00,0.00,-0.00,-0.01,0.000,-0.000,-0.000,0.310,3.140,-0.001,0.388,0.000,0.315,-0.00,0.00,0.02
0.063,takeoff,1,325,176,0.50,0.00,0.00,-0.80,0.00,0.00,-0.00,-0.01,0.000,-0.000,-0.000,0.310,3.140,-0.001,0.388,0.000,0.316,-0.00,0.00,0.02
0.063,takeoff,1,325,176,0.50,0.00,0.00,-0.80,0.00,0.01,-0.00,-0.01,0.000,-0.001,-0.000,0.308,3.140,-0.001,0.386,0.000,0.316,-0.00,0.00,0.02
0.063,takeoff,1,325,178,0.49,0.00,0.00,-0.80,0.00,0.01,-0.00,-0.01,0.000,-0.001,-0.000,0.308,3.140,-0.001,0.386,0.000,0.316,-0.00,0.00,0.02
0.063,takeoff,1,325,178,0.49,0.00,0.00,-0.80,0.00,0.01,-0.00,-0.04,0.000,-0.001,-0.000,0.308,3.140,-0.001,0.386,0.000,0.313,-0.00,0.00,0.02
0.063,takeoff,1,325,178,0.49,0.00,0.00,-0.80,0.00,0.01,-0.00,-0.04,0.000,-0.001,-0.000,0.308,3.140,-0.001,0.386,0.000,0.313,-0.00,0.00,0.02
0.063,takeoff,1,325,178,0.49,0.00,0.00,-0.80,0.00,0.01,-0.00,-0.04,0.000,-0.001,-0.000,0.304,3.140,-0.001,0.382,0.000,0.313,-0.00,0.00,0.02
0.078,takeoff,1,325,178,0.49,0.00,0.00,-0.80,0.00,0.02,-0.00,-0.04,0.000,-0.003,-0.000,0.304,3.140,-0.001,0.384,0.000,0.314,-0.00,0.00,0.02
0.078,takeoff,1,325,178,0.49,0.00,0.00,-0.80,0.00,0.02,-0.00,-0.06,0.000,-0.003,-0.000,0.304,3.140,-0.001,0.384,0.000,0.312,-0.00,0.00,0.02
0.078,takeoff,1,325,178,0.49,0.00,0.00,-0.80,0.00,0.02,-0.00,-0.06,0.000,-0.003,-0.000,0.292,3.140,-0.001,0.368,0.000,0.312,-0.00,0.00,0.02
0.078,takeoff,1,325,178,0.49,0.00,0.00,-0.80,0.00,0.02,-0.00,-0.06,0.000,-0.003,-0.000,0.292,3.140,-0.001,0.368,0.000,0.312,-0.00,0.00,0.02
0.078,takeoff,1,325,178,0.49,0.00,0.00,-0.80,0.00,0.02,-0.00,-0.06,0.000,-0.003,-0.000,0.292,3.140,-0.001,0.368,0.000,0.312,-0.00,0.00,0.02
0.078,takeoff,1,325,178,0.49,0.00,0.00,-0.80,0.00,0.02,-0.00,-0.09,0.000,-0.003,-0.000,0.292,3.140,-0.001,0.368,0.000,0.310,-0.00,0.00,0.02
0.094,takeoff,1,325,178,0.49,0.00,0.00,-0.80,0.00,0.05,-0.00,-0.09,0.000,-0.006,-0.001,0.284,3.140,-0.001,0.362,0.000,0.310,-0.00,0.00,0.02
0.094,takeoff,1,325,178,0.49,0.00,0.00,-0.80,0.00,0.05,-0.00,-0.09,0.000,-0.006,-0.001,0.284,3.140,-0.001,0.362,0.000,0.310,-0.00,0.00,0.02
0.094,takeoff,1,325,178,0.49,0.00,0.00,-0.80,0.00,0.05,-0.00,-0.09,0.000,-0.006,-0.001,0.284,3.140,-0.001,0.362,0.000,0.310,-0.00,0.00,0.02
0.094,takeoff,1,325,178,0.49,0.00,0.00,-0.80,0.00,0.05,-0.00,-0.10,0.000,-0.006,-0.000,0.274,3.140,-0.001,0.350,0.000,0.310,-0.00,0.00,0.02
0.094,takeoff,1,325,188,0.47,0.00,0.00,-0.80,0.00,0.05,-0.00,-0.10,0.000,-0.006,-0.000,0.274,3.140,-0.001,0.350,0.000,0.310,-0.00,0.00,0.02
0.094,takeoff,1,325,188,0.47,0.00,0.00,-0.80,0.00,0.08,-0.00,-0.10,0.000,-0.010,-0.000,0.274,3.140,-0.001,0.356,0.000,0.310,-0.00,0.00,0.02
0.110,takeoff,1,325,188,0.47,0.00,0.00,-0.80,0.00,0.08,-0.00,-0.10,0.000,-0.010,-0.000,0.265,3.140,-0.001,0.343,0.000,0.310,-0.00,0.00,0.02
0.110,takeoff,1,325,188,0.47,0.00,0.00,-0.80,0.00,0.08,-0.00,-0.11,0.000,-0.010,-0.000,0.265,3.140,-0.001,0.343,0.000,0.309,-0.00,0.00,0.02
0.110,takeoff,1,325,188,0.47,0.00,0.00,-0.80,0.00,0.08,-0.00,-0.11,0.000,-0.010,-0.000,0.265,3.140,-0.001,0.343,0.000,0.309,-0.00,0.00,0.02
0.110,takeoff,1,325,188,0.47,0.00,0.00,-0.80,0.00,0.08,-0.00,-0.11,0.000,-0.010,-0.000,0.265,3.140,-0.001,0.343,0.000,0.309,-0.00,0.00,0.02
0.110,takeoff,1,325,188,0.47,0.00,0.00,-0.80,0.00,0.12,-0.00,-0.11,0.000,-0.015,-0.000,0.246,3.140,-0.001,0.326,0.000,0.309,-0.00,0.00,0.02
0.110,takeoff,1,325,188,0.47,0.00,0.00,-0.80,0.00,0.12,-0.00,-0.11,0.000,-0.015,-0.000,0.246,3.140,-0.001,0.326,0.000,0.309,-0.00,0.00,0.02
0.125,takeoff,1,325,188,0.47,0.00,0.00,-0.80,0.00,0.12,-0.00,-0.12,0.000,-0.015,-0.000,0.246,3.140,-0.001,0.326,0.000,0.309,-0.01,0.00,0.02
0.125,takeoff,1,325,188,0.47,0.00,0.00,-0.80,0.00,0.12,-0.00,-0.12,0.000,-0.015,-0.000,0.238,3.140,-0.001,0.316,0.000,0.309,-0.01,0.00,0.02
0.125,takeoff,1,325,188,0.47,0.00,0.00,-0.80,0.00,0.12,-0.00,-0.12,0.000,-0.015,-0.000,0.238,3.140,-0.001,0.316,0.000,0.309,-0.01,0.00,0.02
0.125,takeoff,1,325,188,0.47,0.00,0.00,-0.80,0.00,0.16,-0.00,-0.14,0.000,-0.019,-0.000,0.238,3.140,-0.001,0.321,0.000,0.308,-0.01,0.00,0.01
0.141,takeoff,1,325,202,0.47,0.00,0.00,-0.80,0.00,0.16,-0.00,-0.14,0.000,-0.019,-0.000,0.231,3.140,-0.001,0.313,0.000,0.308,-0.01,0.00,0.01
0.141,takeoff,1,325,202,0.47,0.00,0.00,-0.80,0.00,0.16,-0.00,-0.14,0.000,-0.019,-0.000,0.231,3.140,-0.001,0.313,0.000,0.308,-0.01,0.00,0.01
0.141,takeoff,1,325,202,0.47,0.00,0.00,-0.80,0.00,0.19,-0.00,-0.15,0.000,-0.023,-0.000,0.220,3.140,-0.001,0.303,0.000,0.307,-0.01,0.00,0.01
0.141,takeoff,1,325,202,0.47,0.00,0.00,-0.80,0.00,0.19,-0.00,-0.15,0.000,-0.023,-0.000,0.220,3.140,-0.001,0.303,0.000,0.307,-0.01,0.00,0.01
0.141,takeoff,1,325,202,0.47,0.00,0.00,-0.80,0.00,0.19,-0.00,-0.17,0.000,-0.023,-0.000,0.214,3.140,-0.001,0.296,0.000,0.305,-0.01,0.00,0.01
0.157,takeoff,1,325,202,0.47,0.00,0.00,-0.80,0.00,0.19,-0.00,-0.17,0.000,-0.023,-0.000,0.214,3.140,-0.001,0.296,0.000,0.306,-0.01,0.00,0.01
0.157,takeoff,1,325,202,0.47,0.00,0.00,-0.80,0.00,0.19,-0.00,-0.17,0.000,-0.023,-0.000,0.214,3.140,-0.001,0.296,0.000,0.306,-0.01,0.00,0.01
0.157,takeoff,1,325,202,0.47,0.00,0.00,-0.80,0.00,0.22,-0.00,-0.17,0.000,-0.027,-0.000,0.214,3.140,-0.001,0.301,0.000,0.306,-0.01,0.00,0.01
0.157,takeoff,1,325,202,0.47,0.00,0.00,-0.80,0.00,0.22,-0.00,-0.17,0.000,-0.027,-0.000,0.209,3.140,-0.001,0.295,0.000,0.306,-0.01,0.00,0.01
0.157,takeoff,1,325,202,0.47,0.00,0.00,-0.80,0.00,0.22,-0.00,-0.19,0.000,-0.027,-0.000,0.209,3.140,-0.001,0.295,0.000,0.305,-0.02,0.00,0.01
0.157,takeoff,1,325,202,0.47,0.00,0.00,-0.80,0.00,0.22,-0.00,-0.19,0.000,-0.027,-0.000,0.209,3.140,-0.001,0.295,0.000,0.305,-0.02,0.00,0.01
0.172,takeoff,1,325,211,0.48,0.00,0.00,-0.80,0.00,0.22,-0.00,-0.19,0.000,-0.027,-0.000,0.209,3.140,-0.001,0.295,0.000,0.305,-0.02,0.00,0.01
0.172,takeoff,1,325,211,0.48,0.00,0.00,-0.80,0.00,0.25,-0.00,-0.19,0.000,-0.030,-0.000,0.204,3.140,-0.001,0.293,0.000,0.305,-0.02,0.00,0.01
0.172,takeoff,1,325,211,0.48,0.00,0.00,-0.80,0.00,0.25,-0.00,-0.21,0.000,-0.030,-0.000,0.204,3.140,-0.001,0.293,0.000,0.303,-0.02,0.00,0.01
0.172,takeoff,1,325,211,0.48,0.00,0.00,-0.80,0.00,0.25,-0.00,-0.21,0.000,-0.030,-0.000,0.204,3.140,-0.001,0.293,0.000,0.303,-0.02,0.00,0.01
0.172,takeoff,1,325,211,0.48,0.00,0.00,-0.80,0.00,0.25,-0.00,-0.21,0.000,-0.030,-0.000,0.194,3.140,-0.001,0.280,0.000,0.303,-0.02,0.00,0.01
0.172,takeoff,1,325,211,0.48,0.00,0.00,-0.80,0.00,0.25,-0.00,-0.21,0.000,-0.030,-0.000,0.194,3.140,-0.001,0.280,0.000,0.303,-0.02,0.00,0.01
0.188,takeoff,1,325,211,0.48,0.00,0.00,-0.80,0.00,0.25,-0.00,-0.23,0.000,-0.030,-0.000,0.194,3.140,-0.001,0.280,0.000,0.303,-0.02,0.00,0.00
0.188,takeoff,1,325,211,0.48,0.00,0.00,-0.80,0.00,0.28,-0.00,-0.23,0.000,-0.034,-0.000,0.194,3.140,-0.001,0.284,0.000,0.303,-0.02,0.00,0.00
0.188,takeoff,1,325,211,0.48,0.00,0.00,-0.80,0.00,0.28,-0.00,-0.23,0.000,-0.034,-0.000,0.188,3.140,-0.001,0.278,0.000,0.303,-0.02,0.00,0.00
0.188,takeoff,1,325,211,0.48,0.00,0.00,-0.80,0.00,0.28,-0.00,-0.23,0.000,-0.034,-0.000,0.188,3.140,-0.001,0.278,0.000,0.303,-0.02,0.00,0.00
0.188,takeoff,1,325,211,0.48,0.00,0.00,-0.80,0.00,0.28,-0.00,-0.23,0.000,-0.034,-0.000,0.188,3.140,-0.001,0.278,0.000,0.303,-0.02,0.00,0.00
0.188,takeoff,1,325,211,0.48,0.00,0.00,-0.80,0.00,0.28,-0.00,-0.25,0.000,-0.034,-0.000,0.183,3.140,-0.001,0.271,0.000,0.300,-0.03,0.00,0.00
0.188,takeoff,1,325,218,0.48,0.00,0.00,-0.80,0.00,0.28,-0.00,-0.25,0.000,-0.034,-0.000,0.183,3.140,-0.001,0.271,0.000,0.300,-0.03,0.00,0.00
0.203,takeoff,1,325,218,0.48,0.00,0.00,-0.80,0.00,0.30,-0.00,-0.25,0.000,-0.036,-0.000,0.183,3.140,-0.001,0.273,0.000,0.301,-0.03,0.00,0.00
0.203,takeoff,1,325,218,0.48,0.00,0.00,-0.80,0.00,0.30,-0.00,-0.25,0.000,-0.036,-0.000,0.183,3.140,-0.001,0.273,0.000,0.301,-0.03,0.00,0.00
0.203,takeoff,1,325,218,0.48,0.00,0.00,-0.80,0.00,0.30,-0.00,-0.27,0.000,-0.036,-0.000,0.177,3.140,-0.001,0.265,0.000,0.300,-0.03,0.00,-0.00
0.203,takeoff,1,325,218,0.48,0.00,0.00,-0.80,0.00,0.30,-0.00,-0.27,0.000,-0.036,-0.000,0.177,3.140,-0.001,0.265,0.000,0.300,-0.03,0.00,-0.00
0.203,takeoff,1,325,218,0.48,0.00,0.00,-0.80,0.00,0.30,-0.00,-0.27,0.000,-0.036,-0.000,0.177,3.140,-0.001,0.265,0.000,0.300,-0.03,0.00,-0.00
0.203,takeoff,1,325,218,0.48,0.00,0.00,-0.80,0.00,0.33,-0.00,-0.27,0.000,-0.039,-0.000,0.177,3.140,-0.001,0.270,0.000,0.300,-0.03,0.00,-0.00
0.219,takeoff,1,325,218,0.48,0.00,0.00,-0.80,0.00,0.33,-0.00,-0.30,0.000,-0.039,-0.000,0.167,3.140,-0.001,0.257,0.000,0.298,-0.03,0.00,-0.00
0.219,takeoff,1,325,218,0.48,0.00,0.00,-0.80,0.00,0.33,-0.00,-0.30,0.000,-0.039,-0.000,0.167,3.140,-0.001,0.257,0.000,0.298,-0.03,0.00,-0.00
0.219,takeoff,1,325,218,0.48,0.00,0.00,-0.80,0.00,0.33,-0.00,-0.30,0.000,-0.039,-0.000,0.167,3.140,-0.001,0.257,0.000,0.298,-0.03,0.00,-0.00
0.219,takeoff,1,325,218,0.48,0.00,0.00,-0.80,0.00,0.33,-0.00,-0.30,0.000,-0.039,-0.000,0.162,3.140,-0.001,0.251,0.000,0.298,-0.03,0.00,-0.00
0.219,takeoff,1,325,218,0.48,0.00,0.00,-0.80,0.00,0.33,-0.00,-0.30,0.000,-0.039,-0.000,0.162,3.140,-0.001,0.251,0.000,0.298,-0.03,0.00,-0.00
0.219,takeoff,1,325,218,0.48,0.00,0.00,-0.80,0.00,0.35,-0.00,-0.31,0.000,-0.042,-0.000,0.162,3.140,-0.001,0.255,0.000,0.297,-0.04,0.00,-0.01
0.235,takeoff,1,325,218,0.48,0.00,0.00,-0.80,0.00,0.35,-0.00,-0.31,0.000,-0.042,-0.000,0.162,3.140,-0.001,0.255,0.000,0.297,-0.04,0.00,-0.01
0.235,takeoff,1,325,227,0.48,0.00,0.00,-0.80,0.00,0.35,-0.00,-0.31,0.000,-0.042,-0.000,0.157,3.140,-0.001,0.249,0.000,0.297,-0.04,0.00,-0.01
0.235,takeoff,1,325,227,0.48,0.00,0.00,-0.80,0.00,0.35,-0.00,-0.31,0.000,-0.042,-0.000,0.157,3.140,-0.001,0.249,0.000,0.297,-0.04,0.00,-0.01
0.235,takeoff,1,325,227,0.48,0.00,0.00,-0.80,0.00,0.38,-0.00,-0.34,0.000,-0.045,-0.000,0.157,3.140,-0.001,0.253,0.000,0.295,-0.04,0.00,-0.01
0.235,takeoff,1,325,227,0.48,0.00,0.00,-0.80,0.00,0.38,-0.00,-0.34,0.000,-0.045,-0.000,0.147,3.140,-0.001,0.241,0.000,0.295,-0.04,0.00,-0.01
0.235,takeoff,1,325,227,0.48,0.00,0.00,-0.80,0.00,0.38,-0.00,-0.34,0.000,-0.045,-0.000,0.147,3.140,-0.001,0.241,0.000,0.295,-0.04,0.00,-0.01
0.250,takeoff,1,325,227,0.48,0.00,0.00,-0.80,0.00,0.38,-0.00,-0.34,0.000,-0.045,-0.000,0.147,3.140,-0.001,0.241,0.000,0.295,-0.04,0.00,-0.01
0.250,takeoff,1,325,227,0.48,0.00,0.00,-0.80,0.00,0.38,-0.00,-0.36,0.000,-0.045,-0.000,0.147,3.140,-0.001,0.241,0.000,0.293,-0.05,0.00,-0.02
0.250,takeoff,1,325,227,0.48,0.00,0.00,-0.80,0.00,0.38,-0.00,-0.36,0.000,-0.045,-0.000,0.143,3.140,-0.001,0.235,0.000,0.293,-0.05,0.00,-0.02
0.250,takeoff,1,325,227,0.48,0.00,0.00,-0.80,0.00,0.40,-0.00,-0.36,0.000,-0.048,-0.000,0.143,3.140,-0.001,0.239,0.000,0.293,-0.05,0.00,-0.02
0.250,takeoff,1,325,227,0.48,0.00,0.00,-0.80,0.00,0.40,-0.00,-0.36,0.000,-0.048,-0.000,0.143,3.140,-0.001,0.239,0.000,0.293,-0.05,0.00,-0.02
0.250,takeoff,1,325,227,0.48,0.00,0.00,-0.80,0.00,0.40,-0.00,-0.37,0.000,-0.048,-0.000,0.138,3.140,-0.001,0.233,0.000,0.293,-0.05,0.00,-0.02
0.250,takeoff,1,325,227,0.48,0.00,0.00,-0.80,0.00,0.40,-0.00,-0.37,0.000,-0.048,-0.000,0.138,3.140,-0.001,0.233,0.000,0.293,-0.05,0.00,-0.02
0.266,takeoff,1,325,227,0.48,0.00,0.00,-0.80,0.00,0.40,-0.00,-0.37,0.000,-0.048,-0.000,0.138,3.140,-0.001,0.233,0.000,0.293,-0.05,0.00,-0.02
0.266,takeoff,1,325,234,0.48,0.00,0.00,-0.80,0.00,0.40,-0.00,-0.37,0.000,-0.048,-0.000,0.138,3.140,-0.001,0.233,0.000,0.293,-0.05,0.00,-0.02
0.266,takeoff,1,325,234,0.48,0.00,0.00,-0.80,0.00,0.43,-0.00,-0.39,0.000,-0.051,-0.000,0.130,3.140,-0.001,0.226,0.000,0.291,-0.06,0.00,-0.02
0.266,takeoff,1,325,234,0.48,0.00,0.00,-0.80,0.00,0.43,-0.00,-0.39,0.000,-0.051,-0.000,0.130,3.140,-0.001,0.226,0.000,0.291,-0.06,0.00,-0.02
0.266,takeoff,1,325,234,0.48,0.00,0.00,-0.80,0.00,0.43,-0.00,-0.39,0.000,-0.051,-0.000,0.130,3.140,-0.001,0.226,0.000,0.291,-0.06,0.00,-0.02
0.282,takeoff,1,325,234,0.48,0.00,0.00,-0.80,0.00,0.43,-0.00,-0.40,0.000,-0.051,-0.000,0.126,3.140,-0.001,0.221,0.000,0.291,-0.06,0.00,-0.03
0.282,takeoff,1,325,234,0.48,0.00,0.00,-0.80,0.00,0.45,-0.00,-0.40,0.000,-0.054,-0.000,0.126,3.140,-0.001,0.224,0.000,0.291,-0.06,0.00,-0.03
0.282,takeoff,1,325,234,0.48,0.00,0.00,-0.80,0.00,0.45,-0.00,-0.40,0.000,-0.054,-0.000,0.121,3.140,-0.001,0.219,0.000,0.291,-0.06,0.00,-0.03
0.282,takeoff,1,325,234,0.48,0.00,0.00,-0.80,0.00,0.45,-0.00,-0.41,0.000,-0.054,-0.000,0.121,3.140,-0.001,0.219,0.000,0.290,-0.07,0.00,-0.03
0.282,takeoff,1,325,234,0.48,0.00,0.00,-0.80,0.00,0.45,-0.00,-0.41,0.000,-0.054,-0.000,0.121,3.140,-0.001,0.219,0.000,0.290,-0.07,0.00,-0.03
0.297,takeoff,1,325,234,0.48,0.00,0.00,-0.80,0.00,0.47,-0.00,-0.41,0.000,-0.056,-0.000,0.117,3.140,-0.001,0.217,0.000,0.290,-0.07,0.00,-0.03
0.297,takeoff,1,325,234,0.48,0.00,0.00,-0.80,0.00,0.47,-0.00,-0.41,0.000,-0.056,-0.000,0.117,3.140,-0.001,0.217,0.000,0.290,-0.07,0.00,-0.03
0.297,takeoff,1,325,234,0.48,0.00,0.00,-0.80,0.00,0.47,-0.00,-0.42,0.000,-0.056,-0.000,0.117,3.140,-0.001,0.217,0.000,0.290,-0.07,0.00,-0.04
0.297,takeoff,1,326,242,0.50,0.00,0.00,-0.80,0.00,0.47,-0.00,-0.42,0.000,-0.056,-0.000,0.109,3.140,-0.001,0.207,0.000,0.290,-0.07,0.00,-0.04
0.297,takeoff,1,326,242,0.50,0.00,0.00,-0.80,0.00,0.47,-0.00,-0.42,0.000,-0.056,-0.000,0.109,3.140,-0.001,0.207,0.000,0.290,-0.07,0.00,-0.04
0.313,takeoff,1,326,242,0.50,0.00,0.00,-0.80,0.00,0.49,-0.00,-0.43,0.000,-0.058,-0.000,0.109,3.140,-0.001,0.210,0.000,0.289,-0.08,0.00,-0.04
0.313,takeoff,1,326,242,0.50,0.00,0.00,-0.80,0.00,0.49,-0.00,-0.43,0.000,-0.058,-0.000,0.109,3.140,-0.001,0.210,0.000,0.289,-0.08,0.00,-0.04
0.313,takeoff,1,326,242,0.50,0.00,0.00,-0.80,0.00,0.49,-0.00,-0.43,0.000,-0.058,-0.000,0.105,3.140,-0.001,0.205,0.000,0.289,-0.08,0.00,-0.04
0.313,takeoff,1,326,242,0.50,0.00,0.00,-0.80,0.00,0.49,-0.00,-0.43,0.000,-0.058,-0.000,0.105,3.140,-0.001,0.205,0.000,0.289,-0.08,0.00,-0.04
0.313,takeoff,1,326,242,0.50,0.00,0.00,-0.80,0.00,0.49,-0.00,-0.43,0.000,-0.058,-0.000,0.105,3.140,-0.001,0.205,0.000,0.289,-0.08,0.00,-0.04
0.313,takeoff,1,326,242,0.50,0.00,0.00,-0.80,0.00,0.51,-0.00,-0.44,0.000,-0.061,-0.000,0.101,3.140,-0.001,0.202,0.000,0.288,-0.09,0.00,-0.04
0.328,takeoff,1,326,242,0.50,0.00,0.00,-0.80,0.00,0.51,-0.00,-0.44,0.000,-0.061,-0.000,0.101,3.140,-0.001,0.202,0.000,0.289,-0.09,0.00,-0.04
0.328,takeoff,1,326,242,0.50,0.00,0.00,-0.80,0.00,0.51,-0.00,-0.44,0.000,-0.061,-0.000,0.101,3.140,-0.001,0.202,0.000,0.289,-0.09,0.00,-0.04
0.328,takeoff,1,326,242,0.50,0.00,0.00,-0.80,0.00,0.51,-0.00,-0.44,0.000,-0.061,-0.000,0.101,3.140,-0.001,0.202,0.000,0.289,-0.09,0.00,-0.04
0.328,takeoff,1,326,242,0.50,0.00,0.00,-0.80,0.00,0.51,-0.00,-0.45,0.000,-0.061,-0.000,0.094,3.140,-0.001,0.193,0.000,0.288,-0.09,0.00,-0.05
0.328,takeoff,1,326,248,0.49,0.00,0.00,-0.80,0.00,0.52,-0.00,-0.45,0.000,-0.063,-0.000,0.094,3.140,-0.001,0.195,0.000,0.288,-0.09,0.00,-0.05
0.344,takeoff,1,326,248,0.49,0.00,0.00,-0.80,0.00,0.52,-0.00,-0.45,0.000,-0.063,-0.000,0.094,3.140,-0.001,0.195,0.000,0.288,-0.09,0.00,-0.05
0.344,takeoff,1,326,248,0.49,0.00,0.00,-0.80,0.00,0.52,-0.00,-0.45,0.000,-0.063,-0.000,0.090,3.140,-0.001,0.191,0.000,0.288,-0.10,0.00,-0.05
0.344,takeoff,1,326,248,0.49,0.00,0.00,-0.80,0.00,0.52,-0.00,-0.45,0.000,-0.063,-0.000,0.090,3.140,-0.001,0.191,0.000,0.288,-0.10,0.00,-0.05
0.344,takeoff,1,326,248,0.49,0.00,0.00,-0.80,0.00,0.52,-0.00,-0.45,0.000,-0.063,-0.000,0.090,3.140,-0.001,0.191,0.000,0.288,-0.10,0.00,-0.05
0.344,takeoff,1,326,248,0.49,0.00,0.00,-0.80,0.00,0.54,-0.00,-0.45,0.000,-0.065,-0.000,0.086,3.140,-0.001,0.189,0.000,0.288,-0.10,0.00,-0.05
0.344,takeoff,1,326,248,0.49,0.00,0.00,-0.80,0.00,0.54,-0.00,-0.46,0.000,-0.065,-0.000,0.086,3.140,-0.001,0.189,0.000,0.287,-0.10,0.00,-0.06
0.360,takeoff,1,326,248,0.49,0.00,0.00,-0.80,0.00,0.54,-0.00,-0.46,0.000,-0.065,-0.000,0.086,3.140,-0.001,0.189,0.000,0.287,-0.10,0.00,-0.06
0.360,takeoff,1,326,248,0.49,0.00,0.00,-0.80,0.00,0.54,-0.00,-0.46,0.000,-0.065,-0.000,0.079,3.140,-0.001,0.180,0.000,0.287,-0.10,0.00,-0.06
0.360,takeoff,1,326,254,0.50,0.00,0.00,-0.80,0.00,0.54,-0.00,-0.46,0.000,-0.065,-0.000,0.079,3.140,-0.001,0.180,0.000,0.287,-0.10,0.00,-0.06
0.360,takeoff,1,326,254,0.50,0.00,0.00,-0.80,0.00,0.55,-0.00,-0.47,0.000,-0.066,-0.000,0.079,3.140,-0.001,0.182,0.000,0.287,-0.11,0.00,-0.06
0.360,takeoff,1,326,254,0.50,0.00,0.00,-0.80,0.00,0.55,-0.00,-0.47,0.000,-0.066,-0.000,0.079,3.140,-0.001,0.182,0.000,0.287,-0.11,0.00,-0.06
0.360,takeoff,1,326,254,0.50,0.00,0.00,-0.80,0.00,0.55,-0.00,-0.47,0.000,-0.066,-0.000,0.076,3.140,-0.001,0.178,0.000,0.287,-0.11,0.00,-0.06
0.375,takeoff,1,326,254,0.50,0.00,0.00,-0.80,0.00,0.55,-0.00,-0.47,0.000,-0.066,-0.000,0.076,3.140,-0.001,0.178,0.000,0.287,-0.11,0.00,-0.06
0.375,takeoff,1,326,254,0.50,0.00,0.00,-0.80,0.00,0.55,-0.00,-0.48,0.000,-0.066,-0.000,0.076,3.140,-0.001,0.178,0.000,0.286,-0.12,0.00,-0.07
0.375,takeoff,1,326,254,0.50,0.00,0.00,-0.80,0.00,0.57,-0.00,-0.48,0.000,-0.068,-0.000,0.072,3.140,-0.001,0.176,0.000,0.286,-0.12,0.00,-0.07
0.375,takeoff,1,326,254,0.50,0.00,0.00,-0.80,0.00,0.57,-0.00,-0.48,0.000,-0.068,-0.000,0.072,3.140,-0.001,0.176,0.000,0.286,-0.12,0.00,-0.07
0.375,takeoff,1,326,254,0.50,0.00,0.00,-0.80,0.00,0.57,-0.00,-0.48,0.000,-0.068,-0.000,0.072,3.140,-0.001,0.176,0.000,0.286,-0.12,0.00,-0.07
0.375,takeoff,1,326,254,0.50,0.00,0.00,-0.80,0.00,0.57,-0.00,-0.49,0.000,-0.068,-0.000,0.072,3.140,-0.001,0.176,0.000,0.285,-0.12,0.00,-0.07
0.391,takeoff,1,326,254,0.50,0.00,0.00,-0.80,0.00,0.57,-0.00,-0.49,0.000,-0.068,-0.000,0.069,3.140,-0.001,0.171,0.000,0.286,-0.12,0.00,-0.07
0.391,takeoff,1,326,254,0.50,0.00,0.00,-0.80,0.00,0.57,-0.00,-0.49,0.000,-0.068,-0.000,0.069,3.140,-0.001,0.171,0.000,0.286,-0.12,0.00,-0.07
0.391,takeoff,1,326,254,0.50,0.00,0.00,-0.80,0.00,0.58,-0.00,-0.49,0.000,-0.070,-0.000,0.069,3.140,-0.001,0.174,0.000,0.286,-0.12,0.00,-0.07
0.391,takeoff,1,326,254,0.50,0.00,0.00,-0.80,0.00,0.58,-0.00,-0.49,0.000,-0.070,-0.000,0.065,3.140,-0.001,0.168,0.000,0.285,-0.13,0.00,-0.08
0.391,takeoff,1,326,254,0.50,0.00,0.00,-0.80,0.00,0.58,-0.00,-0.49,0.000,-0.070,-0.000,0.065,3.140,-0.001,0.168,0.000,0.285,-0.13,0.00,-0.08
0.391,takeoff,1,326,254,0.50,0.00,0.00,-0.80,0.00,0.58,-0.00,-0.49,0.000,-0.070,-0.000,0.065,3.140,-0.001,0.168,0.000,0.285,-0.13,0.00,-0.08
0.407,takeoff,1,326,260,0.51,0.00,0.00,-0.80,0.00,0.58,-0.00,-0.49,0.000,-0.070,-0.000,0.065,3.140,-0.001,0.168,0.000,0.286,-0.13,0.00,-0.08
0.407,takeoff,1,326,260,0.51,0.00,0.00,-0.80,0.00,0.59,-0.00,-0.49,0.000,-0.071,-0.000,0.058,3.140,-0.001,0.162,0.000,0.286,-0.13,0.00,-0.08
0.407,takeoff,1,326,260,0.51,0.00,0.00,-0.80,0.00,0.59,-0.00,-0.50,0.000,-0.071,-0.000,0.058,3.140,-0.001,0.162,0.000,0.285,-0.14,0.00,-0.09
0.407,takeoff,1,326,260,0.51,0.00,0.00,-0.80,0.00,0.59,-0.00,-0.50,0.000,-0.071,-0.000,0.058,3.140,-0.001,0.162,0.000,0.285,-0.14,0.00,-0.09
0.407,takeoff,1,326,260,0.51,0.00,0.00,-0.80,0.00,0.59,-0.00,-0.50,0.000,-0.071,-0.000,0.055,3.140,-0.001,0.158,0.000,0.285,-0.14,0.00,-0.09
0.422,takeoff,1,326,260,0.51,0.00,0.00,-0.80,0.00,0.61,-0.00,-0.51,0.000,-0.073,-0.000,0.055,3.140,-0.001,0.160,0.000,0.285,-0.14,0.00,-0.09
0.422,takeoff,1,326,260,0.51,0.00,0.00,-0.80,0.00,0.61,-0.00,-0.51,0.000,-0.073,-0.000,0.052,3.140,-0.001,0.156,0.000,0.285,-0.14,0.00,-0.09
0.422,takeoff,1,326,260,0.51,0.00,0.00,-0.80,0.00,0.61,-0.00,-0.51,0.000,-0.073,-0.000,0.052,3.140,-0.001,0.156,0.000,0.285,-0.14,0.00,-0.09
0.422,takeoff,1,326,260,0.51,0.00,0.00,-0.80,0.00,0.61,-0.00,-0.52,0.000,-0.073,-0.000,0.052,3.140,-0.001,0.156,0.000,0.284,-0.15,0.00,-0.10
0.438,takeoff,1,326,263,0.51,0.00,0.00,-0.80,0.00,0.61,-0.00,-0.52,0.000,-0.074,-0.000,0.046,3.140,-0.001,0.150,0.000,0.284,-0.15,0.00,-0.10
0.438,takeoff,1,326,263,0.51,0.00,0.00,-0.80,0.00,0.61,-0.00,-0.52,0.000,-0.074,-0.000,0.046,3.140,-0.001,0.150,0.000,0.284,-0.15,0.00,-0.10
0.438,takeoff,1,326,263,0.51,0.00,0.00,-0.80,0.00,0.61,-0.00,-0.53,0.000,-0.074,-0.000,0.046,3.140,-0.001,0.150,0.000,0.283,-0.16,0.00,-0.10
0.438,takeoff,1,326,263,0.51,0.00,0.00,-0.80,0.00,0.61,-0.00,-0.53,0.000,-0.074,-0.000,0.043,3.140,-0.001,0.146,0.000,0.283,-0.16,0.00,-0.10
0.438,takeoff,1,326,263,0.51,0.00,0.00,-0.80,0.00,0.61,-0.00,-0.53,0.000,-0.074,-0.000,0.043,3.140,-0.001,0.146,0.000,0.283,-0.16,0.00,-0.10
0.438,takeoff,1,326,263,0.51,0.00,0.00,-0.80,0.00,0.62,-0.00,-0.53,0.000,-0.075,-0.000,0.043,3.140,-0.001,0.148,0.000,0.283,-0.16,0.00,-0.10
0.438,takeoff,1,326,263,0.51,0.00,0.00,-0.80,0.00,0.62,-0.00,-0.53,0.000,-0.075,-0.000,0.043,3.140,-0.001,0.148,0.000,0.283,-0.16,0.00,-0.11
0.453,takeoff,1,326,263,0.51,0.00,0.00,-0.80,0.00,0.62,-0.00,-0.53,0.000,-0.075,-0.000,0.040,3.140,-0.001,0.144,0.000,0.283,-0.16,0.00,-0.11
0.453,takeoff,1,326,263,0.51,0.00,0.00,-0.80,0.00,0.62,-0.00,-0.53,0.000,-0.075,-0.000,0.040,3.140,-0.001,0.144,0.000,0.283,-0.16,0.00,-0.11
0.453,takeoff,1,326,263,0.51,0.00,0.00,-0.80,0.00,0.62,-0.00,-0.53,0.000,-0.075,-0.000,0.040,3.140,-0.001,0.144,0.000,0.283,-0.16,0.00,-0.11
0.453,takeoff,1,326,263,0.51,0.00,0.00,-0.80,0.00,0.63,-0.00,-0.54,0.000,-0.076,-0.000,0.038,3.140,-0.001,0.142,0.000,0.282,-0.17,0.00,-0.11
0.453,takeoff,1,326,263,0.51,0.00,0.00,-0.80,0.00,0.63,-0.00,-0.54,0.000,-0.076,-0.000,0.038,3.140,-0.001,0.142,0.000,0.282,-0.17,0.00,-0.11
0.453,takeoff,1,326,268,0.51,0.00,0.00,-0.80,0.00,0.63,-0.00,-0.54,0.000,-0.076,-0.000,0.038,3.140,-0.001,0.142,0.000,0.282,-0.17,0.00,-0.11
0.469,takeoff,1,326,268,0.51,0.00,0.00,-0.80,0.00,0.63,-0.00,-0.54,0.000,-0.076,-0.000,0.032,3.140,-0.001,0.135,0.000,0.283,-0.17,0.00,-0.11
0.469,takeoff,1,326,268,0.51,0.00,0.00,-0.80,0.00,0.63,-0.00,-0.55,0.000,-0.076,-0.000,0.032,3.140,-0.001,0.135,0.000,0.282,-0.18,0.00,-0.12
0.469,takeoff,1,326,268,0.51,0.00,0.00,-0.80,0.00,0.63,-0.00,-0.55,0.000,-0.076,-0.000,0.032,3.140,-0.001,0.135,0.000,0.282,-0.18,0.00,-0.12
0.469,takeoff,1,326,268,0.51,0.00,0.00,-0.80,0.00,0.64,-0.00,-0.55,0.000,-0.077,-0.000,0.032,3.140,-0.001,0.136,0.000,0.282,-0.18,0.00,-0.12
0.469,takeoff,1,326,268,0.51,0.00,0.00,-0.80,0.00,0.64,-0.00,-0.55,0.000,-0.077,-0.000,0.030,3.140,-0.001,0.133,0.000,0.282,-0.18,0.00,-0.12
0.469,takeoff,1,326,268,0.51,0.00,0.00,-0.80,0.00,0.64,-0.00,-0.55,0.000,-0.077,-0.000,0.030,3.140,-0.001,0.133,0.000,0.282,-0.18,0.00,-0.12
0.485,takeoff,1,326,268,0.51,0.00,0.00,-0.80,0.00,0.64,-0.00,-0.55,0.000,-0.077,-0.000,0.030,3.140,-0.001,0.133,0.000,0.282,-0.19,0.00,-0.13
0.485,takeoff,1,326,268,0.51,0.00,0.00,-0.80,0.00,0.64,-0.00,-0.55,0.000,-0.077,-0.000,0.030,3.140,-0.001,0.133,0.000,0.282,-0.19,0.00,-0.13
0.485,takeoff,1,326,268,0.51,0.00,0.00,-0.80,0.00,0.65,-0.00,-0.55,0.000,-0.077,-0.000,0.027,3.140,-0.001,0.131,0.000,0.282,-0.19,0.00,-0.13
0.485,takeoff,1,326,268,0.51,0.00,0.00,-0.80,0.00,0.65,-0.00,-0.55,0.000,-0.077,-0.000,0.027,3.140,-0.001,0.131,0.000,0.282,-0.19,0.00,-0.13
0.485,takeoff,1,326,268,0.51,0.00,0.00,-0.80,0.00,0.65,-0.00,-0.56,0.000,-0.077,-0.000,0.027,3.140,-0.001,0.131,0.000,0.281,-0.19,0.00,-0.13
0.485,takeoff,1,326,268,0.51,0.00,0.00,-0.80,0.00,0.65,-0.00,-0.56,0.000,-0.077,-0.000,0.022,3.140,-0.001,0.125,0.000,0.281,-0.19,0.00,-0.13
0.500,takeoff,1,326,268,0.51,0.00,0.00,-0.80,0.00,0.65,-0.00,-0.56,0.000,-0.077,-0.000,0.022,3.140,-0.001,0.125,0.000,0.282,-0.19,0.00,-0.13
0.500,takeoff,1,326,274,0.50,0.00,0.00,-0.80,0.00,0.65,-0.00,-0.56,0.000,-0.077,-0.000,0.022,3.140,-0.001,0.125,0.000,0.282,-0.19,0.00,-0.13
0.500,takeoff,1,326,274,0.50,0.00,0.00,-0.80,0.00,0.65,-0.00,-0.57,0.000,-0.078,-0.000,0.020,3.140,-0.001,0.122,0.000,0.281,-0.20,0.00,-0.14
0.500,takeoff,1,326,274,0.50,0.00,0.00,-0.80,0.00,0.65,-0.00,-0.57,0.000,-0.078,-0.000,0.020,3.140,-0.001,0.122,0.000,0.281,-0.20,0.00,-0.14
0.500,takeoff,1,326,274,0.50,0.00,0.00,-0.80,0.00,0.65,-0.00,-0.57,0.000,-0.078,-0.000,0.020,3.140,-0.001,0.122,0.000,0.281,-0.20,0.00,-0.14
0.500,takeoff,1,326,274,0.50,0.00,0.00,-0.80,0.00,0.65,-0.00,-0.57,0.000,-0.078,-0.000,0.020,3.140,-0.001,0.122,0.000,0.281,-0.20,0.00,-0.14
0.516,takeoff,1,326,274,0.50,0.00,0.00,-0.80,0.00,0.65,-0.00,-0.57,0.000,-0.078,-0.000,0.017,3.140,-0.001,0.120,0.000,0.281,-0.20,0.00,-0.14
0.516,takeoff,1,326,274,0.50,0.00,0.00,-0.80,0.00,0.65,-0.00,-0.57,0.000,-0.078,-0.000,0.017,3.140,-0.001,0.120,0.000,0.281,-0.20,0.00,-0.14
0.516,takeoff,1,326,274,0.50,0.00,0.00,-0.80,0.00,0.66,-0.00,-0.57,0.000,-0.079,-0.000,0.017,3.140,-0.001,0.120,0.000,0.281,-0.20,0.00,-0.14
0.516,takeoff,1,326,274,0.50,0.00,0.00,-0.80,0.00,0.66,-0.00,-0.57,0.000,-0.079,-0.000,0.015,3.140,-0.001,0.117,0.000,0.281,-0.20,0.00,-0.14
0.516,takeoff,1,326,274,0.50,0.00,0.00,-0.80,0.00,0.66,-0.00,-0.57,0.000,-0.079,-0.000,0.015,3.140,-0.001,0.117,0.000,0.281,-0.20,0.00,-0.14
0.516,takeoff,1,326,274,0.50,0.00,0.00,-0.80,0.00,0.66,-0.00,-0.58,0.000,-0.079,-0.000,0.015,3.140,-0.001,0.117,0.000,0.280,-0.21,0.00,-0.15
0.516,takeoff,1,326,274,0.50,0.00,0.00,-0.80,0.00,0.66,-0.00,-0.58,0.000,-0.079,-0.000,0.015,3.140,-0.001,0.117,0.000,0.280,-0.21,0.00,-0.15
0.532,takeoff,1,326,274,0.50,0.00,0.00,-0.80,0.00,0.66,-0.00,-0.58,0.000,-0.079,-0.000,0.013,3.140,-0.001,0.115,0.000,0.280,-0.21,0.00,-0.15
0.532,takeoff,1,326,274,0.50,0.00,0.00,-0.80,0.00,0.66,-0.00,-0.58,0.000,-0.079,-0.000,0.013,3.140,-0.001,0.115,0.000,0.280,-0.21,0.00,-0.15
0.532,takeoff,1,326,278,0.51,0.00,0.00,-0.80,0.00,0.66,-0.00,-0.58,0.000,-0.079,-0.000,0.013,3.140,-0.001,0.115,0.000,0.280,-0.22,0.00,-0.15
0.532,takeoff,1,326,278,0.51,0.00,0.00,-0.80,0.00,0.66,-0.00,-0.58,0.000,-0.079,0.000,0.008,3.140,-0.001,0.110,0.000,0.280,-0.22,0.00,-0.15
0.532,takeoff,1,326,278,0.51,0.00,0.00,-0.80,0.00,0.66,-0.00,-0.58,0.000,-0.079,0.000,0.008,3.140,-0.001,0.110,0.000,0.280,-0.22,0.00,-0.15
0.547,takeoff,1,326,278,0.51,0.00,0.00,-0.80,0.00,0.66,-0.00,-0.58,0.000,-0.080,0.000,0.008,3.140,-0.001,0.110,0.000,0.280,-0.22,0.00,-0.15
0.547,takeoff,1,326,278,0.51,0.00,0.00,-0.80,0.00,0.66,-0.00,-0.59,0.000,-0.080,0.000,0.006,3.140,-0.001,0.108,0.000,0.280,-0.23,0.00,-0.16
0.547,takeoff,1,326,278,0.51,0.00,0.00,-0.80,0.00,0.66,-0.00,-0.59,0.000,-0.080,0.000,0.006,3.140,-0.001,0.108,0.000,0.280,-0.23,0.00,-0.16
0.547,takeoff,1,326,278,0.51,0.00,0.00,-0.80,0.00,0.66,-0.00,-0.59,0.000,-0.080,0.000,0.006,3.140,-0.001,0.108,0.000,0.280,-0.23,0.00,-0.16
0.547,takeoff,1,326,278,0.51,0.00,0.00,-0.80,0.00,0.66,-0.00,-0.59,0.000,-0.080,0.000,0.006,3.140,-0.001,0.108,0.000,0.280,-0.23,0.00,-0.16
0.547,takeoff,1,326,278,0.51,0.00,0.00,-0.80,0.00,0.66,-0.00,-0.59,0.000,-0.080,0.000,0.004,3.140,-0.001,0.105,0.000,0.280,-0.23,0.00,-0.17
0.563,takeoff,1,326,278,0.51,0.00,0.00,-0.80,0.00,0.67,-0.00,-0.59,0.000,-0.080,0.000,0.004,3.140,-0.001,0.105,0.000,0.280,-0.23,0.00,-0.17
0.563,takeoff,1,326,278,0.51,0.00,0.00,-0.80,0.00,0.67,-0.00,-0.59,0.000,-0.080,0.000,0.004,3.140,-0.001,0.105,0.000,0.280,-0.23,0.00,-0.17
0.563,takeoff,1,326,278,0.51,0.00,0.00,-0.80,0.00,0.67,-0.00,-0.59,0.000,-0.080,0.000,0.002,3.140,-0.000,0.103,0.000,0.280,-0.23,0.00,-0.17
0.563,takeoff,1,325,280,0.50,0.00,0.00,-0.80,0.00,0.67,-0.00,-0.59,0.000,-0.080,0.000,0.002,3.140,-0.000,0.103,0.000,0.280,-0.23,0.00,-0.17
0.563,takeoff,1,325,280,0.50,0.00,0.00,-0.80,0.00,0.67,-0.00,-0.60,0.000,-0.080,0.000,0.002,3.140,-0.000,0.103,0.000,0.280,-0.24,0.00,-0.18
0.563,takeoff,1,325,280,0.50,0.00,0.00,-0.80,0.00,0.67,-0.00,-0.60,0.000,-0.080,0.000,0.002,3.140,-0.000,0.103,0.000,0.280,-0.24,0.00,-0.18
0.563,takeoff,1,325,280,0.50,0.00,0.00,-0.80,0.00,0.67,-0.00,-0.60,0.000,-0.080,0.000,-0.002,3.140,-0.000,0.098,0.000,0.280,-0.24,0.00,-0.18
0.578,takeoff,1,325,280,0.50,0.00,0.00,-0.80,0.00,0.67,-0.00,-0.60,0.000,-0.080,0.000,-0.002,3.140,-0.000,0.098,0.000,0.280,-0.24,0.00,-0.18
0.578,takeoff,1,325,280,0.50,0.00,0.00,-0.80,0.00,0.67,-0.00,-0.60,0.000,-0.080,0.000,-0.002,3.140,-0.000,0.098,0.000,0.280,-0.25,0.00,-0.18
0.578,takeoff,1,325,280,0.50,0.00,0.00,-0.80,0.00,0.67,-0.00,-0.60,0.000,-0.080,0.000,-0.004,3.140,-0.000,0.095,0.000,0.280,-0.25,0.00,-0.18
0.578,takeoff,1,325,280,0.50,0.00,0.00,-0.80,0.00,0.67,-0.00,-0.60,0.000,-0.080,0.000,-0.004,3.140,-0.000,0.095,0.000,0.280,-0.25,0.00,-0.18
0.578,takeoff,1,325,280,0.50,0.00,0.00,-0.80,0.00,0.67,-0.00,-0.60,0.000,-0.080,0.000,-0.004,3.140,-0.000,0.095,0.000,0.280,-0.25,0.00,-0.18
0.578,takeoff,1,325,280,0.50,0.00,0.00,-0.80,0.00,0.67,-0.00,-0.61,0.000,-0.080,0.000,-0.004,3.140,-0.000,0.095,0.000,0.280,-0.26,0.00,-0.19
0.594,takeoff,1,325,280,0.50,0.00,0.00,-0.80,0.00,0.67,-0.00,-0.61,0.000,-0.080,0.000,-0.006,3.140,-0.000,0.093,0.000,0.280,-0.26,0.00,-0.19
0.594,takeoff,1,325,280,0.50,0.00,0.00,-0.80,0.00,0.67,-0.00,-0.61,0.000,-0.080,0.000,-0.006,3.140,-0.000,0.093,0.000,0.280,-0.26,0.00,-0.19
0.594,takeoff,1,325,280,0.50,0.00,0.00,-0.80,0.00,0.67,-0.00,-0.61,0.000,-0.080,0.000,-0.006,3.140,-0.000,0.093,0.000,0.280,-0.26,0.00,-0.19
0.594,takeoff,1,326,285,0.49,0.00,0.00,-0.80,0.00,0.67,-0.00,-0.61,0.000,-0.081,0.000,-0.008,3.140,-0.000,0.091,0.000,0.280,-0.26,0.00,-0.19
0.594,takeoff,1,326,285,0.49,0.00,0.00,-0.80,0.00,0.67,-0.00,-0.61,0.000,-0.081,0.000,-0.008,3.140,-0.000,0.091,0.000,0.280,-0.26,0.00,-0.19
0.594,takeoff,1,326,285,0.49,0.00,0.00,-0.80,0.00,0.67,-0.00,-0.61,0.000,-0.081,0.000,-0.008,3.140,-0.000,0.091,0.000,0.280,-0.26,0.00,-0.19
0.610,takeoff,1,326,285,0.49,0.00,0.00,-0.80,0.00,0.67,-0.00,-0.61,0.000,-0.081,0.000,-0.011,3.140,-0.000,0.087,0.000,0.280,-0.26,0.00,-0.19
0.610,takeoff,1,326,285,0.49,0.00,0.00,-0.80,0.00,0.67,-0.00,-0.62,0.000,-0.081,0.000,-0.011,3.140,-0.000,0.087,0.000,0.280,-0.27,0.00,-0.20
0.610,takeoff,1,326,285,0.49,0.00,0.00,-0.80,0.00,0.67,-0.00,-0.62,0.000,-0.081,0.000,-0.011,3.140,-0.000,0.087,0.000,0.280,-0.27,0.00,-0.20
0.610,takeoff,1,326,285,0.49,0.00,0.00,-0.80,0.00,0.67,-0.00,-0.62,0.000,-0.081,0.000,-0.011,3.140,-0.000,0.087,0.000,0.280,-0.27,0.00,-0.20
0.610,takeoff,1,326,285,0.49,0.00,0.00,-0.80,0.00,0.67,-0.00,-0.62,0.000,-0.081,0.000,-0.013,3.140,-0.000,0.085,0.000,0.280,-0.27,0.00,-0.20
0.610,takeoff,1,326,285,0.49,0.00,0.00,-0.80,0.00,0.67,-0.00,-0.63,0.000,-0.081,0.000,-0.013,3.140,-0.000,0.085,0.000,0.280,-0.27,0.00,-0.21
0.625,takeoff,1,326,285,0.49,0.00,0.00,-0.80,0.00,0.67,-0.00,-0.63,0.000,-0.081,0.000,-0.013,3.140,-0.000,0.085,0.000,0.280,-0.27,0.00,-0.21
0.625,takeoff,1,326,285,0.49,0.00,0.00,-0.80,0.00,0.67,-0.00,-0.63,0.000,-0.081,0.000,-0.015,3.140,-0.000,0.083,0.000,0.280,-0.27,0.00,-0.21
0.625,takeoff,1,326,285,0.49,0.00,0.00,-0.80,0.00,0.67,-0.00,-0.63,0.000,-0.081,0.000,-0.015,3.140,-0.000,0.083,0.000,0.280,-0.27,0.00,-0.21
0.625,takeoff,1,326,285,0.49,0.00,0.00,-0.80,0.00,0.67,-0.00,-0.63,0.000,-0.081,0.000,-0.015,3.140,-0.000,0.083,0.000,0.280,-0.28,0.00,-0.21
0.625,takeoff,1,324,288,0.50,0.00,0.00,-0.80,0.00,0.67,-0.00,-0.63,0.000,-0.081,0.000,-0.015,3.140,-0.000,0.083,0.000,0.280,-0.28,0.00,-0.21
0.625,takeoff,1,324,288,0.50,0.00,0.00,-0.80,0.00,0.67,-0.00,-0.63,0.000,-0.081,0.000,-0.018,3.140,-0.000,0.079,0.000,0.280,-0.28,0.00,-0.21
0.641,takeoff,1,324,288,0.50,0.00,0.00,-0.80,0.00,0.67,-0.00,-0.63,0.000,-0.081,0.000,-0.018,3.140,-0.000,0.079,0.000,0.280,-0.28,0.00,-0.21
0.641,takeoff,1,324,288,0.50,0.00,0.00,-0.80,0.00,0.67,-0.00,-0.64,0.000,-0.081,0.000,-0.018,3.140,-0.000,0.078,0.000,0.280,-0.29,0.00,-0.22
0.641,takeoff,1,324,288,0.50,0.00,0.00,-0.80,0.00,0.67,-0.00,-0.64,0.000,-0.081,0.000,-0.018,3.140,-0.000,0.078,0.000,0.280,-0.29,0.00,-0.22
0.641,takeoff,1,324,288,0.50,0.00,0.00,-0.80,0.00,0.67,-0.00,-0.64,0.000,-0.081,0.000,-0.019,3.140,-0.000,0.077,0.000,0.280,-0.29,0.00,-0.22
0.641,takeoff,1,324,288,0.50,0.00,0.00,-0.80,0.00,0.67,-0.00,-0.64,0.000,-0.081,0.000,-0.019,3.140,-0.000,0.077,0.000,0.280,-0.29,0.00,-0.22
0.641,takeoff,1,324,288,0.50,0.00,0.00,-0.80,0.00,0.67,-0.00,-0.65,0.000,-0.081,0.000,-0.019,3.140,-0.000,0.077,0.000,0.280,-0.30,0.00,-0.23
0.641,takeoff,1,324,288,0.50,0.00,0.00,-0.80,0.00,0.67,-0.00,-0.65,0.000,-0.081,0.000,-0.021,3.140,-0.000,0.075,0.000,0.280,-0.30,0.00,-0.23
0.657,takeoff,1,324,288,0.50,0.00,0.00,-0.80,0.00,0.67,-0.00,-0.65,0.000,-0.081,0.000,-0.021,3.140,-0.000,0.075,0.000,0.280,-0.30,0.00,-0.23
0.657,takeoff,1,324,288,0.50,0.00,0.00,-0.80,0.00,0.67,-0.00,-0.65,0.000,-0.081,0.000,-0.021,3.140,-0.000,0.075,0.000,0.280,-0.30,0.00,-0.23
0.657,takeoff,1,324,288,0.50,0.00,0.00,-0.80,0.00,0.67,-0.00,-0.65,0.000,-0.081,0.000,-0.021,3.140,-0.000,0.075,0.000,0.280,-0.30,0.00,-0.23
0.657,takeoff,1,324,288,0.50,0.00,0.00,-0.80,0.00,0.67,-0.00,-0.65,0.000,-0.081,0.000,-0.022,3.140,-0.000,0.073,0.000,0.280,-0.30,0.00,-0.23
0.657,takeoff,1,324,288,0.50,0.00,0.00,-0.80,0.00,0.67,-0.00,-0.65,0.000,-0.081,0.000,-0.022,3.140,-0.000,0.073,0.000,0.280,-0.30,0.00,-0.23
0.657,takeoff,1,324,291,0.50,0.00,0.00,-0.80,0.00,0.67,-0.00,-0.65,0.000,-0.080,0.000,-0.022,3.140,-0.000,0.072,0.000,0.280,-0.30,0.00,-0.23
0.672,takeoff,1,324,291,0.50,0.00,0.00,-0.80,0.00,0.67,-0.00,-0.65,0.000,-0.080,0.000,-0.025,3.140,-0.000,0.069,0.000,0.280,-0.30,0.00,-0.23
0.672,takeoff,1,324,291,0.50,0.00,0.00,-0.80,0.00,0.67,-0.00,-0.66,0.000,-0.080,0.000,-0.025,3.140,-0.000,0.069,0.000,0.280,-0.31,0.00,-0.24
0.672,takeoff,1,324,291,0.50,0.00,0.00,-0.80,0.00,0.67,-0.00,-0.66,0.000,-0.080,0.000,-0.025,3.140,-0.000,0.069,0.000,0.280,-0.31,0.00,-0.24
0.672,takeoff,1,324,291,0.50,0.00,0.00,-0.80,0.00,0.67,-0.00,-0.66,0.000,-0.080,0.000,-0.025,3.140,-0.000,0.069,0.000,0.280,-0.31,0.00,-0.24
0.672,takeoff,1,324,291,0.50,0.00,0.00,-0.80,0.00,0.67,-0.00,-0.66,0.000,-0.080,0.000,-0.027,3.140,-0.000,0.067,0.000,0.280,-0.31,0.00,-0.24
0.672,takeoff,1,324,291,0.50,0.00,0.00,-0.80,0.00,0.67,-0.00,-0.66,0.000,-0.080,0.000,-0.027,3.140,-0.000,0.067,0.000,0.280,-0.32,0.00,-0.25
0.672,takeoff,1,324,291,0.50,0.00,0.00,-0.80,0.00,0.67,-0.00,-0.66,0.000,-0.080,0.000,-0.027,3.140,-0.000,0.067,0.000,0.280,-0.32,0.00,-0.25
0.688,takeoff,1,324,291,0.50,0.00,0.00,-0.80,0.00,0.67,-0.00,-0.66,0.000,-0.080,0.000,-0.027,3.140,-0.000,0.067,0.000,0.280,-0.32,0.00,-0.25
0.688,takeoff,1,324,291,0.50,0.00,0.00,-0.80,0.00,0.67,-0.00,-0.66,0.000,-0.080,0.000,-0.028,3.140,-0.000,0.065,0.000,0.280,-0.32,0.00,-0.25
0.688,takeoff,1,324,291,0.50,0.00,0.00,-0.80,0.00,0.67,-0.00,-0.66,0.000,-0.080,0.000,-0.028,3.140,-0.000,0.065,0.000,0.280,-0.32,0.00,-0.25
0.688,takeoff,1,324,291,0.50,0.00,0.00,-0.80,0.00,0.67,-0.00,-0.67,0.000,-0.080,0.000,-0.028,3.140,-0.000,0.065,0.000,0.280,-0.32,0.00,-0.25
0.688,takeoff,1,324,291,0.50,0.00,0.00,-0.80,0.00,0.67,-0.00,-0.67,0.000,-0.080,0.000,-0.028,3.140,-0.000,0.065,0.000,0.280,-0.32,0.00,-0.25
0.688,takeoff,1,324,291,0.50,0.00,0.00,-0.80,0.00,0.67,-0.00,-0.67,0.000,-0.080,0.000,-0.031,3.140,-0.000,0.062,0.000,0.280,-0.32,0.00,-0.25
0.703,takeoff,1,324,291,0.50,0.00,0.00,-0.80,0.00,0.67,-0.00,-0.67,0.000,-0.080,0.000,-0.031,3.140,-0.000,0.062,0.000,0.280,-0.32,0.00,-0.25
0.703,takeoff,1,324,294,0.52,0.00,0.00,-0.80,0.00,0.67,-0.00,-0.67,0.000,-0.080,0.000,-0.031,3.140,-0.000,0.062,0.000,0.280,-0.32,0.00,-0.25
0.703,takeoff,1,324,294,0.52,0.00,0.00,-0.80,0.00,0.67,-0.00,-0.68,0.000,-0.080,0.000,-0.031,3.140,-0.000,0.062,0.000,0.280,-0.33,0.00,-0.26
0.703,takeoff,1,324,294,0.52,0.00,0.00,-0.80,0.00,0.67,-0.00,-0.68,0.000,-0.080,0.000,-0.032,3.140,-0.000,0.060,0.000,0.280,-0.33,0.00,-0.26
0.703,takeoff,1,324,294,0.52,0.00,0.00,-0.80,0.00,0.66,-0.00,-0.68,0.000,-0.080,0.000,-0.032,3.140,-0.000,0.060,0.000,0.280,-0.33,0.00,-0.26
0.703,takeoff,1,324,294,0.52,0.00,0.00,-0.80,0.00,0.66,-0.00,-0.69,0.000,-0.080,0.000,-0.032,3.140,-0.000,0.060,0.000,0.280,-0.34,0.00,-0.27
0.719,takeoff,1,324,294,0.52,0.00,0.00,-0.80,0.00,0.66,-0.00,-0.69,0.000,-0.080,0.000,-0.033,3.140,-0.000,0.058,0.000,0.280,-0.34,0.00,-0.27
0.719,takeoff,1,324,294,0.52,0.00,0.00,-0.80,0.00,0.66,-0.00,-0.69,0.000,-0.080,0.000,-0.033,3.140,-0.000,0.058,0.000,0.280,-0.34,0.00,-0.27
0.719,takeoff,1,324,294,0.52,0.00,0.00,-0.80,0.00,0.66,-0.00,-0.70,0.000,-0.079,0.000,-0.035,3.140,-0.000,0.055,0.000,0.280,-0.35,0.00,-0.28
0.719,takeoff,1,324,294,0.52,0.00,0.00,-0.80,0.00,0.66,-0.00,-0.70,0.000,-0.079,0.000,-0.035,3.140,-0.000,0.055,0.000,0.280,-0.35,0.00,-0.28
0.735,takeoff,1,324,294,0.52,0.00,0.00,-0.80,0.00,0.66,-0.00,-0.70,0.000,-0.079,0.000,-0.035,3.140,-0.000,0.055,0.000,0.280,-0.35,0.00,-0.28
0.735,takeoff,1,324,296,0.50,0.00,0.00,-0.80,0.00,0.66,-0.00,-0.70,0.000,-0.079,0.000,-0.036,3.140,-0.000,0.053,0.000,0.280,-0.35,0.00,-0.28
0.735,takeoff,1,324,296,0.50,0.00,0.00,-0.80,0.00,0.66,-0.00,-0.70,0.000,-0.079,0.000,-0.036,3.140,-0.000,0.053,0.000,0.280,-0.35,0.00,-0.28
0.735,takeoff,1,324,296,0.50,0.00,0.00,-0.80,0.00,0.66,-0.00,-0.70,0.000,-0.079,0.000,-0.036,3.140,-0.000,0.053,0.000,0.280,-0.35,0.00,-0.28
0.735,takeoff,1,324,296,0.50,0.00,0.00,-0.80,0.00,0.66,-0.00,-0.70,0.000,-0.079,0.000,-0.037,3.140,-0.000,0.052,0.000,0.280,-0.35,0.00,-0.28
0.735,takeoff,1,324,296,0.50,0.00,0.00,-0.80,0.00,0.66,-0.00,-0.71,0.000,-0.079,0.000,-0.037,3.140,-0.000,0.052,0.000,0.280,-0.36,0.00,-0.29
0.750,takeoff,1,324,296,0.50,0.00,0.00,-0.80,0.00,0.65,-0.00,-0.71,0.000,-0.078,0.000,-0.037,3.140,-0.000,0.051,0.000,0.280,-0.36,0.00,-0.29
0.750,takeoff,1,324,296,0.50,0.00,0.00,-0.80,0.00,0.65,-0.00,-0.71,0.000,-0.078,0.000,-0.039,3.140,-0.000,0.050,0.000,0.280,-0.36,0.00,-0.29
0.750,takeoff,1,324,296,0.50,0.00,0.00,-0.80,0.00,0.65,-0.00,-0.71,0.000,-0.078,0.000,-0.039,3.140,-0.000,0.050,0.000,0.280,-0.36,0.00,-0.29
0.750,takeoff,1,324,296,0.50,0.00,0.00,-0.80,0.00,0.65,-0.00,-0.71,0.000,-0.078,0.000,-0.041,3.140,-0.000,0.047,0.000,0.280,-0.36,0.00,-0.30
0.766,takeoff,1,324,296,0.50,0.00,0.00,-0.80,0.00,0.65,-0.00,-0.71,0.000,-0.078,0.000,-0.041,3.140,-0.000,0.047,0.000,0.280,-0.36,0.00,-0.30
0.766,takeoff,1,324,298,0.49,0.00,0.00,-0.80,0.00,0.65,-0.00,-0.71,0.000,-0.078,0.000,-0.041,3.140,-0.000,0.047,0.000,0.280,-0.36,0.00,-0.30
0.766,takeoff,1,324,298,0.49,0.00,0.00,-0.80,0.00,0.65,-0.00,-0.72,0.000,-0.078,0.000,-0.041,3.140,-0.000,0.045,0.000,0.280,-0.37,0.00,-0.31
0.766,takeoff,1,324,298,0.49,0.00,0.00,-0.80,0.00,0.65,-0.00,-0.72,0.000,-0.078,0.000,-0.041,3.140,-0.000,0.045,0.000,0.280,-0.37,0.00,-0.31
0.766,takeoff,1,324,298,0.49,0.00,0.00,-0.80,0.00,0.65,-0.00,-0.72,0.000,-0.078,0.000,-0.041,3.140,-0.000,0.045,0.000,0.280,-0.37,0.00,-0.31
0.766,takeoff,1,324,298,0.49,0.00,0.00,-0.80,0.00,0.64,-0.00,-0.72,0.000,-0.077,0.000,-0.042,3.140,-0.000,0.043,0.000,0.280,-0.37,0.00,-0.31
0.782,takeoff,1,324,298,0.49,0.00,0.00,-0.80,0.00,0.64,-0.00,-0.73,0.000,-0.077,0.000,-0.042,3.140,-0.000,0.043,0.000,0.280,-0.38,0.00,-0.31
0.782,takeoff,1,324,298,0.49,0.00,0.00,-0.80,0.00,0.64,-0.00,-0.73,0.000,-0.077,0.000,-0.042,3.140,-0.000,0.043,0.000,0.280,-0.38,0.00,-0.31
0.782,takeoff,1,324,298,0.49,0.00,0.00,-0.80,0.00,0.64,-0.00,-0.73,0.000,-0.077,0.000,-0.042,3.140,-0.000,0.043,0.000,0.280,-0.38,0.00,-0.31
0.782,takeoff,1,324,298,0.49,0.00,0.00,-0.80,0.00,0.64,-0.00,-0.73,0.000,-0.077,0.000,-0.043,3.140,-0.000,0.042,0.000,0.280,-0.38,0.00,-0.31
0.782,takeoff,1,324,298,0.49,0.00,0.00,-0.80,0.00,0.64,-0.00,-0.74,0.000,-0.077,0.000,-0.043,3.140,-0.000,0.042,0.000,0.280,-0.39,0.00,-0.32
0.782,takeoff,1,324,298,0.49,0.00,0.00,-0.80,0.00,0.64,-0.00,-0.74,0.000,-0.077,0.000,-0.043,3.140,-0.000,0.042,0.000,0.280,-0.39,0.00,-0.32
0.797,takeoff,1,324,298,0.49,0.00,0.00,-0.80,0.00,0.64,-0.00,-0.74,0.000,-0.077,0.000,-0.045,3.140,-0.000,0.039,0.000,0.280,-0.39,0.00,-0.32
0.797,takeoff,1,324,298,0.49,0.00,0.00,-0.80,0.00,0.64,-0.00,-0.74,0.000,-0.077,0.000,-0.045,3.140,-0.000,0.039,0.000,0.280,-0.39,0.00,-0.32
0.797,takeoff,1,325,301,0.50,0.00,0.00,-0.80,0.00,0.64,-0.00,-0.74,0.000,-0.077,0.000,-0.045,3.140,-0.000,0.039,0.000,0.280,-0.39,0.00,-0.33
0.797,takeoff,1,325,301,0.50,0.00,0.00,-0.80,0.00,0.63,-0.00,-0.74,0.000,-0.076,0.000,-0.046,3.140,-0.000,0.038,0.000,0.280,-0.39,0.00,-0.33
0.797,takeoff,1,325,301,0.50,0.00,0.00,-0.80,0.00,0.63,-0.00,-0.74,0.000,-0.076,0.000,-0.046,3.140,-0.000,0.038,0.000,0.280,-0.39,0.00,-0.33
0.813,takeoff,1,325,301,0.50,0.00,0.00,-0.80,0.00,0.63,-0.00,-0.74,0.000,-0.076,0.000,-0.046,3.140,-0.000,0.038,0.000,0.280,-0.39,0.00,-0.33
0.813,takeoff,1,325,301,0.50,0.00,0.00,-0.80,0.00,0.63,-0.00,-0.75,0.000,-0.076,0.000,-0.046,3.140,-0.000,0.038,0.000,0.280,-0.40,0.00,-0.34
0.813,takeoff,1,325,301,0.50,0.00,0.00,-0.80,0.00,0.63,-0.00,-0.75,0.000,-0.076,0.000,-0.047,3.140,-0.000,0.037,0.000,0.280,-0.40,0.00,-0.34
0.813,takeoff,1,325,301,0.50,0.00,0.00,-0.80,0.00,0.63,-0.00,-0.75,0.000,-0.076,0.000,-0.047,3.140,-0.000,0.037,0.000,0.280,-0.40,0.00,-0.34
0.813,takeoff,1,325,301,0.50,0.00,0.00,-0.80,0.00,0.63,-0.00,-0.75,0.000,-0.075,0.000,-0.047,3.140,-0.000,0.036,0.000,0.280,-0.40,0.00,-0.34
0.813,takeoff,1,325,301,0.50,0.00,0.00,-0.80,0.00,0.63,-0.00,-0.76,0.000,-0.075,0.000,-0.047,3.140,-0.000,0.036,0.000,0.280,-0.40,0.00,-0.34
0.813,takeoff,1,325,301,0.50,0.00,0.00,-0.80,0.00,0.63,-0.00,-0.76,0.000,-0.075,0.000,-0.048,3.140,-0.000,0.034,0.000,0.280,-0.40,0.00,-0.34
0.828,takeoff,1,325,301,0.50,0.00,0.00,-0.80,0.00,0.63,-0.00,-0.76,0.000,-0.075,0.000,-0.048,3.140,-0.000,0.034,0.000,0.280,-0.40,0.00,-0.34
0.828,takeoff,1,325,301,0.50,0.00,0.00,-0.80,0.00,0.63,-0.00,-0.76,0.000,-0.075,0.000,-0.048,3.140,-0.000,0.034,0.000,0.280,-0.40,0.00,-0.34
0.828,takeoff,1,325,301,0.50,0.00,0.00,-0.80,0.00,0.63,-0.00,-0.76,0.000,-0.075,0.000,-0.048,3.140,-0.000,0.034,0.000,0.280,-0.40,0.00,-0.34
0.828,takeoff,1,325,301,0.50,0.00,0.00,-0.80,0.00,0.62,-0.00,-0.76,0.000,-0.075,0.000,-0.049,3.140,-0.000,0.032,0.000,0.280,-0.41,0.00,-0.36
0.828,takeoff,1,325,303,0.50,0.00,0.00,-0.80,0.00,0.62,-0.00,-0.76,0.000,-0.075,0.000,-0.049,3.140,-0.000,0.032,0.000,0.280,-0.41,0.00,-0.36
0.828,takeoff,1,325,303,0.50,0.00,0.00,-0.80,0.00,0.62,-0.00,-0.76,0.000,-0.075,0.000,-0.049,3.140,-0.000,0.032,0.000,0.280,-0.41,0.00,-0.36
0.844,takeoff,1,325,303,0.50,0.00,0.00,-0.80,0.00,0.62,-0.00,-0.76,0.000,-0.075,0.000,-0.050,3.140,-0.000,0.031,0.000,0.280,-0.41,0.00,-0.36
0.844,takeoff,1,325,303,0.50,0.00,0.00,-0.80,0.00,0.62,-0.00,-0.77,0.000,-0.075,0.000,-0.050,3.140,-0.000,0.031,0.000,0.280,-0.41,0.00,-0.36
0.844,takeoff,1,325,303,0.50,0.00,0.00,-0.80,0.00,0.62,-0.00,-0.77,0.000,-0.074,0.000,-0.050,3.140,-0.000,0.030,0.000,0.280,-0.41,0.00,-0.36
0.844,takeoff,1,325,303,0.50,0.00,0.00,-0.80,0.00,0.62,-0.00,-0.77,0.000,-0.074,0.000,-0.050,3.140,-0.000,0.030,0.000,0.280,-0.41,0.00,-0.36
0.844,takeoff,1,325,303,0.50,0.00,0.00,-0.80,0.00,0.62,-0.00,-0.77,0.000,-0.074,0.000,-0.050,3.140,-0.000,0.030,0.000,0.280,-0.41,0.00,-0.36
0.844,takeoff,1,325,303,0.50,0.00,0.00,-0.80,0.00,0.62,-0.00,-0.78,0.000,-0.074,0.000,-0.050,3.140,-0.000,0.030,0.000,0.280,-0.42,0.00,-0.37
0.844,takeoff,1,325,303,0.50,0.00,0.00,-0.80,0.00,0.62,-0.00,-0.78,0.000,-0.074,0.000,-0.050,3.140,-0.000,0.030,0.000,0.280,-0.42,0.00,-0.37
0.860,takeoff,1,325,303,0.50,0.00,0.00,-0.80,0.00,0.62,-0.00,-0.78,0.000,-0.074,0.000,-0.052,3.140,-0.000,0.028,0.000,0.280,-0.42,0.00,-0.37
0.860,takeoff,1,325,303,0.50,0.00,0.00,-0.80,0.00,0.61,-0.00,-0.78,0.000,-0.073,0.000,-0.052,3.140,-0.000,0.027,0.000,0.280,-0.42,0.00,-0.37
0.860,takeoff,1,325,303,0.50,0.00,0.00,-0.80,0.00,0.61,-0.00,-0.78,0.000,-0.073,0.000,-0.052,3.140,-0.000,0.027,0.000,0.280,-0.42,0.00,-0.37
0.860,takeoff,1,325,303,0.50,0.00,0.00,-0.80,0.00,0.61,-0.00,-0.78,0.000,-0.073,0.000,-0.052,3.140,-0.000,0.027,0.000,0.280,-0.43,0.00,-0.38
0.860,takeoff,1,325,303,0.50,0.00,0.00,-0.80,0.00,0.61,-0.00,-0.78,0.000,-0.073,0.000,-0.052,3.140,-0.000,0.026,0.000,0.280,-0.43,0.00,-0.38
0.860,takeoff,1,325,304,0.49,0.00,0.00,-0.80,0.00,0.61,-0.00,-0.78,0.000,-0.073,0.000,-0.052,3.140,-0.000,0.026,0.000,0.280,-0.43,0.00,-0.38
0.875,takeoff,1,325,304,0.49,0.00,0.00,-0.80,0.00,0.60,-0.00,-0.78,0.000,-0.072,0.000,-0.052,3.140,-0.000,0.025,0.000,0.280,-0.43,0.00,-0.38
0.875,takeoff,1,325,304,0.49,0.00,0.00,-0.80,0.00,0.60,-0.00,-0.79,0.000,-0.072,0.000,-0.052,3.140,-0.000,0.025,0.000,0.280,-0.43,0.00,-0.39
0.875,takeoff,1,325,304,0.49,0.00,0.00,-0.80,0.00,0.60,-0.00,-0.79,0.000,-0.072,0.000,-0.053,3.140,-0.000,0.025,0.000,0.280,-0.43,0.00,-0.39
0.875,takeoff,1,325,304,0.49,0.00,0.00,-0.80,0.00,0.60,-0.00,-0.79,0.000,-0.072,0.000,-0.053,3.140,-0.000,0.025,0.000,0.280,-0.43,0.00,-0.39
0.875,takeoff,1,325,304,0.49,0.00,0.00,-0.80,0.00,0.60,-0.00,-0.79,0.000,-0.072,0.000,-0.053,3.140,-0.000,0.025,0.000,0.280,-0.43,0.00,-0.39
0.875,takeoff,1,325,304,0.49,0.00,0.00,-0.80,0.00,0.60,-0.00,-0.79,0.000,-0.072,0.000,-0.053,3.140,-0.000,0.025,0.000,0.280,-0.43,0.00,-0.39
0.875,takeoff,1,325,304,0.49,0.00,0.00,-0.80,0.00,0.60,-0.00,-0.80,0.000,-0.072,0.000,-0.053,3.140,-0.000,0.023,0.000,0.280,-0.44,0.00,-0.39
0.875,takeoff,1,325,304,0.49,0.00,0.00,-0.80,0.00,0.60,-0.00,-0.80,0.000,-0.072,0.000,-0.053,3.140,-0.000,0.023,0.000,0.280,-0.44,0.00,-0.39
0.891,takeoff,1,325,304,0.49,0.00,0.00,-0.80,0.00,0.60,-0.00,-0.80,0.000,-0.072,0.000,-0.053,3.140,-0.000,0.023,0.000,0.280,-0.44,0.00,-0.39
0.891,takeoff,1,325,304,0.49,0.00,0.00,-0.80,0.00,0.60,-0.00,-0.80,0.000,-0.072,0.000,-0.054,3.140,-0.000,0.022,0.000,0.280,-0.44,0.00,-0.39
0.891,takeoff,1,325,304,0.49,0.00,0.00,-0.80,0.00,0.60,-0.00,-0.80,0.000,-0.072,0.000,-0.054,3.140,-0.000,0.022,0.000,0.280,-0.44,0.00,-0.40
0.891,takeoff,1,325,304,0.49,0.00,0.00,-0.80,0.00,0.60,-0.00,-0.80,0.000,-0.072,0.000,-0.054,3.140,-0.000,0.022,0.000,0.280,-0.44,0.00,-0.40
0.891,takeoff,1,325,306,0.50,0.00,0.00,-0.80,0.00,0.59,-0.00,-0.80,0.000,-0.071,0.000,-0.054,3.140,-0.000,0.021,0.000,0.280,-0.44,0.00,-0.40
0.891,takeoff,1,325,306,0.50,0.00,0.00,-0.80,0.00,0.59,-0.00,-0.80,0.000,-0.071,0.000,-0.055,3.140,-0.000,0.020,0.000,0.280,-0.44,0.00,-0.40
0.907,takeoff,1,325,306,0.50,0.00,0.00,-0.80,0.00,0.59,-0.00,-0.80,0.000,-0.071,0.000,-0.055,3.140,-0.000,0.020,0.000,0.280,-0.44,0.00,-0.40
0.907,takeoff,1,325,306,0.50,0.00,0.00,-0.80,0.00,0.59,-0.00,-0.81,0.000,-0.071,0.000,-0.055,3.140,-0.000,0.020,0.000,0.280,-0.45,0.00,-0.41
0.907,takeoff,1,325,306,0.50,0.00,0.00,-0.80,0.00,0.59,-0.00,-0.81,0.000,-0.071,0.000,-0.055,3.140,-0.000,0.020,0.000,0.280,-0.45,0.00,-0.41
0.907,takeoff,1,325,306,0.50,0.00,0.00,-0.80,0.00,0.59,-0.00,-0.81,0.000,-0.070,0.000,-0.055,3.140,-0.000,0.018,0.000,0.280,-0.45,0.00,-0.41
0.907,takeoff,1,325,306,0.50,0.00,0.00,-0.80,0.00,0.59,-0.00,-0.81,0.000,-0.070,0.000,-0.055,3.140,-0.000,0.018,0.000,0.280,-0.45,0.00,-0.41
0.907,takeoff,1,325,306,0.50,0.00,0.00,-0.80,0.00,0.59,-0.00,-0.81,0.000,-0.070,0.000,-0.055,3.140,-0.000,0.018,0.000,0.280,-0.45,0.00,-0.42
0.922,takeoff,1,325,306,0.50,0.00,0.00,-0.80,0.00,0.59,-0.00,-0.81,0.000,-0.070,0.000,-0.056,3.140,-0.000,0.018,0.000,0.280,-0.45,0.00,-0.42
0.922,takeoff,1,325,306,0.50,0.00,0.00,-0.80,0.00,0.59,-0.00,-0.81,0.000,-0.070,0.000,-0.056,3.140,-0.000,0.018,0.000,0.280,-0.45,0.00,-0.42
0.922,takeoff,1,325,306,0.50,0.00,0.00,-0.80,0.00,0.58,-0.00,-0.82,0.000,-0.069,0.000,-0.056,3.140,-0.000,0.017,0.000,0.280,-0.46,0.00,-0.43
0.922,takeoff,1,325,306,0.50,0.00,0.00,-0.80,0.00,0.58,-0.00,-0.82,0.000,-0.069,0.000,-0.056,3.140,-0.000,0.016,0.000,0.280,-0.46,0.00,-0.43
0.922,takeoff,1,325,306,0.50,0.00,0.00,-0.80,0.00,0.58,-0.00,-0.82,0.000,-0.069,0.000,-0.056,3.140,-0.000,0.016,0.000,0.280,-0.46,0.00,-0.43
0.922,takeoff,1,325,306,0.50,0.00,0.00,-0.80,0.00,0.58,-0.00,-0.82,0.000,-0.069,0.000,-0.056,3.140,-0.000,0.016,0.000,0.280,-0.46,0.00,-0.43
0.938,takeoff,1,325,306,0.50,0.00,0.00,-0.80,0.00,0.58,-0.00,-0.83,0.000,-0.069,0.000,-0.056,3.140,-0.000,0.016,0.000,0.280,-0.47,0.00,-0.44
0.938,takeoff,1,325,308,0.50,0.00,0.00,-0.80,0.00,0.58,-0.00,-0.83,0.000,-0.069,0.000,-0.057,3.140,-0.000,0.015,0.000,0.280,-0.47,0.00,-0.44
0.938,takeoff,1,325,308,0.50,0.00,0.00,-0.80,0.00,0.57,-0.00,-0.83,0.000,-0.068,0.000,-0.057,3.140,-0.000,0.014,0.000,0.280,-0.47,0.00,-0.44
0.938,takeoff,1,325,308,0.50,0.00,0.00,-0.80,0.00,0.57,-0.00,-0.83,0.000,-0.068,0.000,-0.057,3.140,-0.000,0.014,0.000,0.280,-0.47,0.00,-0.44
0.938,takeoff,1,325,308,0.50,0.00,0.00,-0.80,0.00,0.57,-0.00,-0.84,0.000,-0.068,0.000,-0.058,3.140,-0.000,0.014,0.000,0.280,-0.47,0.00,-0.45
0.953,takeoff,1,325,308,0.50,0.00,0.00,-0.80,0.00,0.57,-0.00,-0.84,0.000,-0.068,0.000,-0.058,3.140,-0.000,0.014,0.000,0.280,-0.47,0.00,-0.45
0.953,takeoff,1,325,308,0.50,0.00,0.00,-0.80,0.00,0.57,-0.00,-0.84,0.000,-0.068,0.000,-0.058,3.140,-0.000,0.014,0.000,0.280,-0.47,0.00,-0.45
0.953,takeoff,1,325,308,0.50,0.00,0.00,-0.80,0.00,0.56,-0.00,-0.84,0.000,-0.067,0.000,-0.058,3.140,-0.000,0.012,0.000,0.280,-0.47,0.00,-0.45
0.953,takeoff,1,325,308,0.50,0.00,0.00,-0.80,0.00,0.56,-0.00,-0.84,0.000,-0.067,0.000,-0.058,3.140,-0.000,0.012,0.000,0.280,-0.48,0.00,-0.45
0.953,takeoff,1,325,308,0.50,0.00,0.00,-0.80,0.00,0.56,-0.00,-0.84,0.000,-0.067,0.000,-0.058,3.140,-0.000,0.012,0.000,0.280,-0.48,0.00,-0.45
0.953,takeoff,1,325,308,0.50,0.00,0.00,-0.80,0.00,0.56,-0.00,-0.84,0.000,-0.067,0.000,-0.058,3.140,-0.000,0.012,0.000,0.280,-0.48,0.00,-0.45
0.969,takeoff,1,326,308,0.50,0.00,0.00,-0.80,0.00,0.55,-0.00,-0.85,0.000,-0.067,0.000,-0.058,3.140,-0.000,0.011,0.000,0.280,-0.48,0.00,-0.47
0.969,takeoff,1,326,308,0.50,0.00,0.00,-0.80,0.00,0.55,-0.00,-0.85,0.000,-0.067,0.000,-0.058,3.140,-0.000,0.011,0.000,0.280,-0.48,0.00,-0.47
0.969,takeoff,1,326,308,0.50,0.00,0.00,-0.80,0.00,0.55,-0.00,-0.85,0.000,-0.067,0.000,-0.059,3.140,-0.000,0.010,0.000,0.280,-0.48,0.00,-0.47
0.969,takeoff,1,326,308,0.50,0.00,0.00,-0.80,0.00,0.55,-0.00,-0.85,0.000,-0.067,0.000,-0.059,3.140,-0.000,0.010,0.000,0.280,-0.48,0.00,-0.47
0.969,takeoff,1,326,308,0.50,0.00,0.00,-0.80,0.00,0.55,-0.00,-0.85,0.000,-0.066,0.000,-0.059,3.140,-0.000,0.009,0.000,0.280,-0.49,0.00,-0.47
0.985,takeoff,1,326,308,0.50,0.00,0.00,-0.80,0.00,0.55,-0.00,-0.85,0.000,-0.066,0.000,-0.059,3.140,-0.000,0.008,0.000,0.280,-0.49,0.00,-0.47
0.985,takeoff,1,326,308,0.50,0.00,0.00,-0.80,0.00,0.55,-0.00,-0.85,0.000,-0.066,0.000,-0.059,3.140,-0.000,0.008,0.000,0.280,-0.49,0.00,-0.47
0.985,takeoff,1,326,308,0.50,0.00,0.00,-0.80,0.00,0.55,-0.00,-0.86,0.000,-0.066,0.000,-0.059,3.140,-0.000,0.008,0.000,0.280,-0.49,0.00,-0.48
0.985,takeoff,1,326,308,0.50,0.00,0.00,-0.80,0.00,0.55,-0.00,-0.86,0.000,-0.066,0.000,-0.059,3.140,-0.000,0.008,0.000,0.280,-0.49,0.00,-0.48
0.985,takeoff,1,326,308,0.50,0.00,0.00,-0.80,0.00,0.54,-0.00,-0.86,0.000,-0.065,0.000,-0.059,3.140,-0.000,0.007,0.000,0.280,-0.49,0.00,-0.48
1.000,takeoff,1,326,308,0.50,0.00,0.00,-0.80,0.00,0.54,-0.00,-0.87,0.000,-0.065,0.000,-0.059,3.140,-0.000,0.006,0.000,0.280,-0.50,0.00,-0.49
1.000,takeoff,1,326,309,0.51,0.00,0.00,-0.80,0.00,0.54,-0.00,-0.87,0.000,-0.065,0.000,-0.059,3.140,-0.000,0.006,0.000,0.280,-0.50,0.00,-0.49
1.000,takeoff,1,326,309,0.51,0.00,0.00,-0.80,0.00,0.54,-0.00,-0.87,0.000,-0.065,0.000,-0.059,3.140,-0.000,0.006,0.000,0.280,-0.50,0.00,-0.49
1.000,takeoff,1,326,309,0.51,0.00,0.00,-0.80,0.00,0.54,-0.00,-0.87,0.000,-0.065,0.000,-0.059,3.140,-0.000,0.006,0.000,0.280,-0.50,0.00,-0.49
1.000,takeoff,1,326,309,0.51,0.00,0.00,-0.80,0.00,0.53,-0.00,-0.88,0.000,-0.064,0.000,-0.060,3.140,-0.000,0.005,0.000,0.280,-0.50,0.00,-0.50
1.016,takeoff,1,326,309,0.51,0.00,0.00,-0.80,0.00,0.53,-0.00,-0.88,0.000,-0.064,0.000,-0.060,3.140,-0.000,0.005,0.000,0.280,-0.50,0.00,-0.50
1.016,takeoff,1,326,309,0.51,0.00,0.00,-0.80,0.00,0.53,-0.00,-0.88,0.000,-0.064,0.000,-0.060,3.140,-0.000,0.005,0.000,0.280,-0.50,0.00,-0.50
1.016,takeoff,1,326,309,0.51,0.00,0.00,-0.80,0.00,0.53,-0.00,-0.88,0.000,-0.064,0.000,-0.060,3.140,-0.000,0.005,0.000,0.280,-0.50,0.00,-0.50
1.016,takeoff,1,326,309,0.51,0.00,0.00,-0.80,0.00,0.53,-0.00,-0.88,0.000,-0.064,0.000,-0.060,3.140,-0.000,0.005,0.000,0.280,-0.51,0.00,-0.51
1.016,takeoff,1,326,309,0.51,0.00,0.00,-0.80,0.00,0.52,-0.00,-0.88,0.000,-0.063,0.000,-0.060,3.140,-0.000,0.003,0.000,0.280,-0.51,0.00,-0.51
1.016,takeoff,1,326,309,0.51,0.00,0.00,-0.80,0.00,0.52,-0.00,-0.88,0.000,-0.063,0.000,-0.060,3.140,-0.000,0.003,0.000,0.280,-0.51,0.00,-0.51
1.016,takeoff,1,326,309,0.51,0.00,0.00,-0.80,0.00,0.52,-0.00,-0.88,0.000,-0.063,0.000,-0.060,3.140,-0.000,0.003,0.000,0.280,-0.51,0.00,-0.51
1.032,takeoff,1,326,309,0.51,0.00,0.00,-0.80,0.00,0.52,-0.00,-0.88,0.000,-0.063,0.000,-0.060,3.140,-0.000,0.003,0.000,0.280,-0.51,0.00,-0.51
1.032,takeoff,1,326,309,0.51,0.00,0.00,-0.80,0.00,0.52,-0.00,-0.89,0.000,-0.063,0.000,-0.060,3.140,-0.000,0.003,0.000,0.280,-0.51,0.00,-0.52
1.032,takeoff,1,326,309,0.51,0.00,0.00,-0.80,0.00,0.52,-0.00,-0.89,0.000,-0.063,0.000,-0.060,3.140,-0.000,0.003,0.000,0.280,-0.51,0.00,-0.52
1.032,takeoff,1,326,310,0.51,0.00,0.00,-0.80,0.00,0.52,-0.00,-0.89,0.000,-0.063,0.000,-0.060,3.140,-0.000,0.003,0.000,0.280,-0.51,0.00,-0.52
1.032,takeoff,1,326,310,0.51,0.00,0.00,-0.80,0.00,0.51,-0.00,-0.89,0.000,-0.062,0.000,-0.061,3.140,-0.000,0.002,0.000,0.280,-0.51,0.00,-0.52
1.032,takeoff,1,326,310,0.51,0.00,0.00,-0.80,0.00,0.51,-0.00,-0.89,0.000,-0.062,0.000,-0.061,3.140,-0.000,0.002,0.000,0.280,-0.51,0.00,-0.52
1.032,takeoff,1,326,310,0.51,0.00,0.00,-0.80,0.00,0.51,-0.00,-0.89,0.000,-0.062,0.000,-0.061,3.140,-0.000,0.002,0.000,0.280,-0.52,0.00,-0.53
1.047,takeoff,1,326,310,0.51,0.00,0.00,-0.80,0.00,0.51,-0.00,-0.89,0.000,-0.062,0.000,-0.061,3.140,-0.000,0.001,0.000,0.280,-0.52,0.00,-0.53
1.047,takeoff,1,326,310,0.51,0.00,0.00,-0.80,0.00,0.51,-0.00,-0.89,0.000,-0.062,0.000,-0.061,3.140,-0.000,0.001,0.000,0.280,-0.52,0.00,-0.53
1.047,takeoff,1,326,310,0.51,0.00,0.00,-0.80,0.00,0.51,-0.00,-0.89,0.000,-0.061,0.000,-0.061,3.140,-0.000,0.001,0.000,0.280,-0.52,0.00,-0.53
1.047,takeoff,1,326,310,0.51,0.00,0.00,-0.80,0.00,0.51,-0.00,-0.90,0.000,-0.061,0.000,-0.061,3.140,-0.000,0.001,0.000,0.280,-0.52,0.00,-0.54
1.047,takeoff,1,326,310,0.51,0.00,0.00,-0.80,0.00,0.51,-0.00,-0.90,0.000,-0.061,0.000,-0.061,3.140,-0.000,0.001,0.000,0.280,-0.52,0.00,-0.54
1.047,takeoff,1,326,310,0.51,0.00,0.00,-0.80,0.00,0.51,-0.00,-0.90,0.000,-0.061,0.000,-0.061,3.140,-0.000,0.001,0.000,0.280,-0.52,0.00,-0.54
1.047,takeoff,1,326,310,0.51,0.00,0.00,-0.80,0.00,0.51,-0.00,-0.90,0.000,-0.061,0.000,-0.061,3.140,-0.000,0.001,0.000,0.280,-0.52,0.00,-0.54
1.047,takeoff,1,326,310,0.51,0.00,0.00,-0.80,0.00,0.51,-0.00,-0.90,0.000,-0.061,0.000,-0.061,3.140,-0.000,0.001,0.000,0.280,-0.52,0.00,-0.54
1.063,takeoff,1,326,310,0.51,0.00,0.00,-0.80,0.00,0.51,-0.00,-0.90,0.000,-0.061,0.000,-0.061,3.140,-0.000,0.001,0.000,0.280,-0.52,0.00,-0.54
1.063,takeoff,1,326,310,0.51,0.00,0.00,-0.80,0.00,0.50,-0.00,-0.91,0.000,-0.060,0.000,-0.061,3.140,-0.000,-0.001,0.000,0.280,-0.53,0.00,-0.55
1.063,takeoff,1,326,310,0.51,0.00,0.00,-0.80,0.00,0.50,-0.00,-0.91,0.000,-0.060,0.000,-0.061,3.140,-0.000,-0.001,0.000,0.280,-0.53,0.00,-0.55
1.063,takeoff,1,326,310,0.51,0.00,0.00,-0.80,0.00,0.50,-0.00,-0.91,0.000,-0.060,0.000,-0.061,3.140,-0.000,-0.001,0.000,0.280,-0.53,0.00,-0.55
1.063,takeoff,1,326,310,0.51,0.00,0.00,-0.80,0.00,0.50,-0.00,-0.91,0.000,-0.060,0.000,-0.061,3.140,-0.000,-0.001,0.000,0.280,-0.53,0.00,-0.55
1.063,takeoff,1,326,311,0.51,0.00,0.00,-0.80,0.00,0.50,-0.00,-0.91,0.000,-0.060,0.000,-0.061,3.140,-0.000,-0.001,0.000,0.280,-0.53,0.00,-0.55
1.063,takeoff,1,326,311,0.51,0.00,0.00,-0.80,0.00,0.50,-0.00,-0.91,0.000,-0.060,0.000,-0.061,3.140,-0.000,-0.001,0.000,0.280,-0.53,0.00,-0.55
1.078,takeoff,1,326,311,0.51,0.00,0.00,-0.80,0.00,0.49,-0.00,-0.91,0.000,-0.059,0.000,-0.061,3.140,-0.000,-0.002,0.000,0.280,-0.53,0.00,-0.55
1.078,takeoff,1,326,311,0.51,0.00,0.00,-0.80,0.00,0.49,-0.00,-0.91,0.000,-0.059,0.000,-0.061,3.140,-0.000,-0.002,0.000,0.280,-0.53,0.00,-0.55
1.078,takeoff,1,326,311,0.51,0.00,0.00,-0.80,0.00,0.49,-0.00,-0.91,0.000,-0.059,0.000,-0.061,3.140,-0.000,-0.002,0.000,0.280,-0.53,0.00,-0.55
1.078,takeoff,1,326,311,0.51,0.00,0.00,-0.80,0.00,0.49,-0.00,-0.91,0.000,-0.059,0.000,-0.061,3.140,-0.000,-0.002,0.000,0.280,-0.53,0.00,-0.55
1.078,takeoff,1,326,311,0.51,0.00,0.00,-0.80,0.00,0.49,-0.00,-0.92,0.000,-0.059,0.000,-0.061,3.140,-0.000,-0.002,0.000,0.280,-0.54,0.00,-0.57
1.078,takeoff,1,326,311,0.51,0.00,0.00,-0.80,0.00,0.49,-0.00,-0.92,0.000,-0.059,0.000,-0.061,3.140,-0.000,-0.002,0.000,0.280,-0.54,0.00,-0.57
1.078,takeoff,1,326,311,0.51,0.00,0.00,-0.80,0.00,0.49,-0.00,-0.92,0.000,-0.059,0.000,-0.061,3.140,-0.000,-0.003,0.000,0.280,-0.54,0.00,-0.57
1.078,takeoff,1,326,311,0.51,0.00,0.00,-0.80,0.00,0.48,-0.00,-0.92,0.000,-0.058,0.000,-0.061,3.140,-0.000,-0.004,0.000,0.280,-0.54,0.00,-0.57
1.078,takeoff,1,326,311,0.51,0.00,0.00,-0.80,0.00,0.48,-0.00,-0.92,0.000,-0.058,0.000,-0.061,3.140,-0.000,-0.004,0.000,0.280,-0.54,0.00,-0.57
1.094,takeoff,1,326,311,0.51,0.00,0.00,-0.80,0.00,0.48,-0.00,-0.92,0.000,-0.058,0.000,-0.061,3.140,-0.000,-0.004,0.000,0.280,-0.54,0.00,-0.57
1.094,takeoff,1,326,311,0.51,0.00,0.00,-0.80,0.00,0.48,-0.00,-0.92,0.000,-0.058,0.000,-0.061,3.140,-0.000,-0.004,0.000,0.280,-0.54,0.00,-0.57
1.094,takeoff,1,326,311,0.51,0.00,0.00,-0.80,0.00,0.48,-0.00,-0.92,0.000,-0.058,0.000,-0.061,3.140,-0.000,-0.004,0.000,0.280,-0.54,0.00,-0.57
1.094,takeoff,1,326,311,0.50,0.00,0.00,-0.80,0.00,0.48,-0.00,-0.92,0.000,-0.058,0.000,-0.061,3.140,-0.000,-0.004,0.000,0.280,-0.54,0.00,-0.57
1.094,takeoff,1,326,311,0.50,0.00,0.00,-0.80,0.00,0.48,-0.00,-0.92,0.000,-0.057,0.000,-0.061,3.140,-0.000,-0.005,0.000,0.280,-0.54,0.00,-0.57
1.094,takeoff,1,326,311,0.50,0.00,0.00,-0.80,0.00,0.48,-0.00,-0.92,0.000,-0.057,0.000,-0.061,3.140,-0.000,-0.005,0.000,0.280,-0.54,0.00,-0.57
1.110,takeoff,1,326,311,0.50,0.00,0.00,-0.80,0.00,0.48,-0.00,-0.93,0.000,-0.057,0.000,-0.061,3.140,-0.000,-0.005,0.000,0.280,-0.55,0.00,-0.59
1.110,takeoff,1,326,311,0.50,0.00,0.00,-0.80,0.00,0.48,-0.00,-0.93,0.000,-0.057,0.000,-0.061,3.140,-0.000,-0.005,0.000,0.280,-0.55,0.00,-0.59
1.110,takeoff,1,326,311,0.50,0.00,0.00,-0.80,0.00,0.48,-0.00,-0.93,0.000,-0.057,0.000,-0.061,3.140,-0.000,-0.005,0.000,0.280,-0.55,0.00,-0.59
1.110,takeoff,1,326,311,0.50,0.00,0.00,-0.80,0.00,0.48,-0.00,-0.93,0.000,-0.057,0.000,-0.061,3.140,-0.000,-0.005,0.000,0.280,-0.55,0.00,-0.59
1.110,takeoff,1,326,311,0.50,0.00,0.00,-0.80,0.00,0.48,-0.00,-0.93,0.000,-0.057,0.000,-0.061,3.140,-0.000,-0.005,0.000,0.280,-0.55,0.00,-0.59
1.110,takeoff,1,326,311,0.50,0.00,0.00,-0.80,0.00,0.47,-0.00,-0.94,0.000,-0.056,0.000,-0.061,3.140,-0.000,-0.006,0.000,0.280,-0.55,0.00,-0.60
