t,phase,found,cx,cy,conf,cmd_vx,cmd_vy,cmd_vz,cmd_yawrate,vbx,vby,vd,roll_des,pitch_des,roll,pitch,yaw,roll_q,pitch_q,yaw_q,thrust,x,y,z
0.015,takeoff,1,326,176,0.48,0.00,0.00,-0.80,0.00,0.00,0.00,0.00,-0.000,-0.000,0.000,0.311,-3.141,0.000,0.388,0.000,0.315,0.00,0.00,0.00
0.015,takeoff,1,326,176,0.48,0.00,0.00,-0.80,0.00,0.00,0.00,-0.00,-0.000,-0.000,0.000,0.311,-3.141,0.000,0.388,0.000,0.315,-0.00,0.00,0.02
0.015,takeoff,1,326,176,0.48,0.00,0.00,-0.80,0.00,0.00,0.00,-0.00,-0.000,-0.000,0.000,0.311,-3.141,0.000,0.388,0.000,0.315,-0.00,0.00,0.02
0.031,takeoff,1,326,176,0.48,0.00,0.00,-0.80,0.00,0.00,0.00,-0.00,-0.000,-0.000,0.000,0.311,-3.141,0.000,0.388,0.000,0.315,-0.00,0.00,0.02
0.031,takeoff,1,326,176,0.48,0.00,0.00,-0.80,0.00,0.00,0.00,-0.00,-0.000,-0.000,0.000,0.311,-3.141,0.000,0.388,0.000,0.315,-0.00,0.00,0.02
0.031,takeoff,1,326,176,0.48,0.00,0.00,-0.80,0.00,0.00,0.00,-0.00,-0.000,-0.000,0.000,0.311,-3.141,0.000,0.388,0.000,0.315,-0.00,0.00,0.02
0.031,takeoff,1,326,176,0.48,0.00,0.00,-0.80,0.00,0.00,0.00,0.01,0.000,0.000,0.000,0.311,-3.141,0.000,0.388,0.000,0.316,-0.00,0.00,0.02
0.031,takeoff,1,326,176,0.48,0.00,0.00,-0.80,0.00,-0.00,0.00,0.01,0.000,0.000,0.000,0.311,-3.141,0.000,0.388,0.000,0.316,-0.00,0.00,0.02
0.047,takeoff,1,326,176,0.48,0.00,0.00,-0.80,0.00,-0.00,0.00,0.01,0.000,0.000,0.000,0.311,-3.141,0.000,0.388,0.000,0.317,-0.00,0.00,0.02
0.047,takeoff,1,326,176,0.48,0.00,0.00,-0.80,0.00,-0.00,0.00,0.00,0.000,-0.000,0.000,0.311,-3.141,0.000,0.388,0.000,0.316,-0.00,0.00,0.02
0.047,takeoff,1,326,176,0.48,0.00,0.00,-0.80,0.00,0.00,0.00,0.00,0.000,-0.000,0.000,0.311,-3.141,0.000,0.388,0.000,0.316,-0.00,0.00,0.02
0.047,takeoff,1,326,176,0.48,0.00,0.00,-0.80,0.00,0.00,0.00,0.00,0.000,-0.000,0.000,0.310,-3.141,0.000,0.388,0.000,0.316,-0.00,0.00,0.02
0.062,takeoff,1,325,176,0.50,0.00,0.00,-0.80,0.00,0.00,0.00,-0.00,0.000,-0.001,0.000,0.310,-3.141,0.000,0.389,0.000,0.316,-0.00,0.00,0.02
0.062,takeoff,1,325,176,0.50,0.00,0.00,-0.80,0.00,0.00,0.00,-0.00,0.000,-0.001,0.000,0.310,-3.141,0.000,0.389,0.000,0.316,-0.00,0.00,0.02
0.062,takeoff,1,325,176,0.50,0.00,0.00,-0.80,0.00,0.00,0.00,-0.00,0.000,-0.001,0.000,0.309,-3.141,0.000,0.387,0.000,0.316,-0.00,0.00,0.02
0.062,takeoff,1,325,176,0.50,0.00,0.00,-0.80,0.00,0.01,0.00,-0.00,0.000,-0.001,0.000,0.309,-3.141,0.000,0.387,0.000,0.316,-0.00,0.00,0.02
0.062,takeoff,1,325,176,0.50,0.00,0.00,-0.80,0.00,0.01,0.00,-0.03,0.000,-0.003,0.000,0.309,-3.141,0.000,0.390,0.000,0.314,-0.00,0.00,0.02
0.062,takeoff,1,325,176,0.50,0.00,0.00,-0.80,0.00,0.01,0.00,-0.03,0.000,-0.003,0.000,0.301,-3.141,0.000,0.380,0.000,0.314,-0.00,0.00,0.02
0.078,takeoff,1,325,176,0.50,0.00,0.00,-0.80,0.00,0.01,0.00,-0.03,0.000,-0.003,0.000,0.301,-3.141,0.000,0.380,0.000,0.315,-0.00,0.00,0.02
0.078,takeoff,1,325,176,0.50,0.00,0.00,-0.80,0.00,0.01,0.00,-0.03,0.000,-0.003,0.000,0.301,-3.141,0.000,0.380,0.000,0.315,-0.00,0.00,0.02
0.078,takeoff,1,325,176,0.50,0.00,0.00,-0.80,0.00,0.03,0.00,-0.07,0.000,-0.006,0.000,0.295,-3.141,0.000,0.377,0.000,0.312,-0.00,0.00,0.02
0.078,takeoff,1,325,176,0.50,0.00,0.00,-0.80,0.00,0.03,0.00,-0.07,0.000,-0.006,0.000,0.295,-3.141,0.000,0.377,0.000,0.312,-0.00,0.00,0.02
0.078,takeoff,1,325,176,0.50,0.00,0.00,-0.80,0.00,0.03,0.00,-0.07,0.000,-0.006,0.000,0.295,-3.141,0.000,0.377,0.000,0.312,-0.00,0.00,0.02
0.078,takeoff,1,325,176,0.50,0.00,0.00,-0.80,0.00,0.03,0.00,-0.07,0.000,-0.006,0.000,0.295,-3.141,0.000,0.377,0.000,0.312,-0.00,0.00,0.02
0.093,takeoff,1,325,176,0.50,0.00,0.00,-0.80,0.00,0.03,0.00,-0.08,0.000,-0.008,0.000,0.288,-3.141,0.000,0.370,0.000,0.311,-0.00,0.00,0.02
0.093,takeoff,1,325,184,0.49,0.00,0.00,-0.80,0.00,0.03,0.00,-0.08,0.000,-0.008,0.000,0.288,-3.141,0.000,0.370,0.000,0.311,-0.00,0.00,0.02
0.093,takeoff,1,325,184,0.49,0.00,0.00,-0.80,0.00,0.06,0.00,-0.08,0.000,-0.008,0.000,0.288,-3.141,0.000,0.370,0.000,0.311,-0.00,0.00,0.02
0.093,takeoff,1,325,184,0.49,0.00,0.00,-0.80,0.00,0.06,0.00,-0.08,0.000,-0.008,0.000,0.288,-3.141,0.000,0.370,0.000,0.311,-0.00,0.00,0.02
0.093,takeoff,1,325,184,0.49,0.00,0.00,-0.80,0.00,0.06,0.00,-0.08,0.000,-0.008,0.000,0.279,-3.141,0.000,0.359,0.000,0.311,-0.00,0.00,0.02
0.093,takeoff,1,325,184,0.49,0.00,0.00,-0.80,0.00,0.06,0.00,-0.10,0.001,-0.013,0.000,0.279,-3.141,-0.000,0.365,0.000,0.309,-0.00,0.00,0.02
0.093,takeoff,1,325,184,0.49,0.00,0.00,-0.80,0.00,0.06,0.00,-0.10,0.001,-0.013,0.000,0.279,-3.141,-0.000,0.365,0.000,0.309,-0.00,0.00,0.02
0.109,takeoff,1,325,184,0.49,0.00,0.00,-0.80,0.00,0.06,0.00,-0.10,0.001,-0.013,0.000,0.260,-3.141,-0.000,0.341,0.000,0.310,-0.00,0.00,0.02
0.109,takeoff,1,325,184,0.49,0.00,0.00,-0.80,0.00,0.09,0.00,-0.10,0.001,-0.013,0.000,0.260,-3.141,-0.000,0.341,0.000,0.310,-0.00,0.00,0.02
0.109,takeoff,1,325,184,0.49,0.00,0.00,-0.80,0.00,0.09,0.00,-0.11,0.001,-0.015,0.000,0.260,-3.141,-0.000,0.344,0.000,0.310,-0.00,-0.00,0.02
0.109,takeoff,1,325,184,0.49,0.00,0.00,-0.80,0.00,0.09,0.00,-0.11,0.001,-0.015,0.000,0.260,-3.141,-0.000,0.344,0.000,0.310,-0.00,-0.00,0.02
0.109,takeoff,1,325,184,0.49,0.00,0.00,-0.80,0.00,0.09,0.00,-0.11,0.001,-0.015,0.000,0.250,-3.141,-0.000,0.332,0.000,0.310,-0.00,-0.00,0.02
0.125,takeoff,1,325,184,0.49,0.00,0.00,-0.80,0.00,0.13,0.00,-0.12,0.001,-0.020,0.000,0.250,-3.141,-0.000,0.338,0.000,0.309,-0.01,-0.00,0.02
0.125,takeoff,1,325,184,0.49,0.00,0.00,-0.80,0.00,0.13,0.00,-0.12,0.001,-0.020,0.000,0.242,-3.141,-0.000,0.327,0.000,0.309,-0.01,-0.00,0.02
0.125,takeoff,1,325,198,0.52,0.00,0.00,-0.80,0.00,0.13,0.00,-0.12,0.001,-0.020,0.000,0.242,-3.141,-0.000,0.327,0.000,0.309,-0.01,-0.00,0.02
0.125,takeoff,1,325,198,0.52,0.00,0.00,-0.80,0.00,0.13,0.00,-0.12,0.001,-0.020,0.000,0.242,-3.141,-0.000,0.327,0.000,0.309,-0.01,-0.00,0.02
0.125,takeoff,1,325,198,0.52,0.00,0.00,-0.80,0.00,0.13,0.00,-0.13,0.001,-0.022,0.000,0.228,-3.141,-0.000,0.313,0.000,0.308,-0.01,-0.00,0.01
0.140,takeoff,1,325,198,0.52,0.00,0.00,-0.80,0.00,0.17,0.00,-0.13,0.001,-0.022,0.000,0.228,-3.141,-0.000,0.313,0.000,0.309,-0.01,-0.00,0.01
0.140,takeoff,1,325,198,0.52,0.00,0.00,-0.80,0.00,0.17,0.00,-0.13,0.001,-0.022,0.000,0.228,-3.141,-0.000,0.313,0.000,0.309,-0.01,-0.00,0.01
0.140,takeoff,1,325,198,0.52,0.00,0.00,-0.80,0.00,0.17,0.00,-0.13,0.001,-0.022,0.000,0.228,-3.141,-0.000,0.313,0.000,0.309,-0.01,-0.00,0.01
0.140,takeoff,1,325,198,0.52,0.00,0.00,-0.80,0.00,0.17,0.00,-0.15,0.001,-0.027,0.000,0.222,-3.141,-0.000,0.311,0.000,0.307,-0.01,-0.00,0.01
0.140,takeoff,1,325,198,0.52,0.00,0.00,-0.80,0.00,0.17,0.00,-0.15,0.001,-0.027,0.000,0.222,-3.141,-0.000,0.311,0.000,0.307,-0.01,-0.00,0.01
0.140,takeoff,1,325,198,0.52,0.00,0.00,-0.80,0.00,0.17,0.00,-0.15,0.001,-0.027,0.000,0.222,-3.141,-0.000,0.311,0.000,0.307,-0.01,-0.00,0.01
0.140,takeoff,1,325,198,0.52,0.00,0.00,-0.80,0.00,0.20,0.00,-0.15,0.001,-0.027,0.000,0.217,-3.141,-0.000,0.304,0.000,0.307,-0.01,-0.00,0.01
0.156,takeoff,1,325,198,0.52,0.00,0.00,-0.80,0.00,0.20,0.00,-0.15,0.001,-0.027,0.000,0.217,-3.141,-0.000,0.304,0.000,0.307,-0.01,-0.00,0.01
0.156,takeoff,1,325,198,0.52,0.00,0.00,-0.80,0.00,0.20,0.00,-0.17,0.001,-0.029,0.000,0.217,-3.141,-0.000,0.307,0.000,0.306,-0.01,-0.00,0.01
0.156,takeoff,1,325,198,0.52,0.00,0.00,-0.80,0.00,0.20,0.00,-0.17,0.001,-0.029,0.000,0.217,-3.141,-0.000,0.307,0.000,0.306,-0.01,-0.00,0.01
0.156,takeoff,1,325,209,0.50,0.00,0.00,-0.80,0.00,0.20,0.00,-0.17,0.001,-0.029,0.000,0.212,-3.141,-0.000,0.300,0.000,0.306,-0.01,-0.00,0.01
0.156,takeoff,1,325,209,0.50,0.00,0.00,-0.80,0.00,0.20,0.00,-0.17,0.001,-0.029,0.000,0.212,-3.141,-0.000,0.300,0.000,0.306,-0.01,-0.00,0.01
0.156,takeoff,1,325,209,0.50,0.00,0.00,-0.80,0.00,0.23,0.00,-0.19,0.001,-0.033,0.000,0.212,-3.141,-0.000,0.306,0.000,0.304,-0.02,-0.00,0.01
0.156,takeoff,1,325,209,0.50,0.00,0.00,-0.80,0.00,0.23,0.00,-0.19,0.001,-0.033,0.000,0.212,-3.141,-0.000,0.306,0.000,0.304,-0.02,-0.00,0.01
0.172,takeoff,1,325,209,0.50,0.00,0.00,-0.80,0.00,0.23,0.00,-0.19,0.001,-0.033,0.000,0.201,-3.141,-0.000,0.293,0.000,0.305,-0.02,-0.00,0.01
0.172,takeoff,1,325,209,0.50,0.00,0.00,-0.80,0.00,0.23,0.00,-0.19,0.001,-0.033,0.000,0.201,-3.141,-0.000,0.293,0.000,0.305,-0.02,-0.00,0.01
0.172,takeoff,1,325,209,0.50,0.00,0.00,-0.80,0.00,0.23,0.00,-0.19,0.001,-0.033,0.000,0.201,-3.141,-0.000,0.293,0.000,0.305,-0.02,-0.00,0.01
0.172,takeoff,1,325,209,0.50,0.00,0.00,-0.80,0.00,0.23,0.00,-0.22,0.001,-0.037,0.000,0.201,-3.141,-0.000,0.298,0.000,0.303,-0.02,-0.00,0.01
0.172,takeoff,1,325,209,0.50,0.00,0.00,-0.80,0.00,0.26,0.00,-0.22,0.001,-0.037,0.000,0.196,-3.141,-0.000,0.291,0.000,0.303,-0.02,-0.00,0.01
0.172,takeoff,1,325,209,0.50,0.00,0.00,-0.80,0.00,0.26,0.00,-0.22,0.001,-0.037,0.000,0.196,-3.141,-0.000,0.291,0.000,0.303,-0.02,-0.00,0.01
0.187,takeoff,1,325,209,0.50,0.00,0.00,-0.80,0.00,0.26,0.00,-0.22,0.001,-0.037,0.000,0.196,-3.141,-0.000,0.291,0.000,0.303,-0.02,-0.00,0.01
0.187,takeoff,1,325,209,0.50,0.00,0.00,-0.80,0.00,0.26,0.00,-0.22,0.001,-0.037,0.000,0.196,-3.141,-0.000,0.291,0.000,0.303,-0.02,-0.00,0.01
0.187,takeoff,1,326,216,0.53,0.00,0.00,-0.80,0.00,0.26,0.00,-0.23,0.001,-0.039,0.000,0.190,-3.141,-0.000,0.287,0.000,0.302,-0.02,-0.00,0.00
0.187,takeoff,1,326,216,0.53,0.00,0.00,-0.80,0.00,0.26,0.00,-0.23,0.001,-0.039,0.000,0.190,-3.141,-0.000,0.287,0.000,0.302,-0.02,-0.00,0.00
0.187,takeoff,1,326,216,0.53,0.00,0.00,-0.80,0.00,0.29,0.00,-0.23,0.001,-0.039,0.000,0.190,-3.141,-0.000,0.287,0.000,0.302,-0.02,-0.00,0.00
0.187,takeoff,1,326,216,0.53,0.00,0.00,-0.80,0.00,0.29,0.00,-0.23,0.001,-0.039,0.000,0.185,-3.141,-0.000,0.280,0.000,0.302,-0.02,-0.00,0.00
0.187,takeoff,1,326,216,0.53,0.00,0.00,-0.80,0.00,0.29,0.00,-0.23,0.001,-0.039,0.000,0.185,-3.141,-0.000,0.280,0.000,0.302,-0.02,-0.00,0.00
0.203,takeoff,1,326,216,0.53,0.00,0.00,-0.80,0.00,0.29,0.00,-0.26,0.001,-0.043,0.000,0.185,-3.141,-0.000,0.285,0.000,0.300,-0.03,-0.00,0.00
0.203,takeoff,1,326,216,0.53,0.00,0.00,-0.80,0.00,0.29,0.00,-0.26,0.001,-0.043,0.000,0.185,-3.141,-0.000,0.285,0.000,0.300,-0.03,-0.00,0.00
0.203,takeoff,1,326,216,0.53,0.00,0.00,-0.80,0.00,0.29,0.00,-0.26,0.001,-0.043,0.000,0.174,-3.141,-0.000,0.271,0.000,0.300,-0.03,-0.00,0.00
0.203,takeoff,1,326,216,0.53,0.00,0.00,-0.80,0.00,0.32,0.00,-0.26,0.001,-0.043,0.000,0.174,-3.141,-0.000,0.271,0.000,0.300,-0.03,-0.00,0.00
0.203,takeoff,1,326,216,0.53,0.00,0.00,-0.80,0.00,0.32,0.00,-0.27,0.001,-0.044,0.000,0.174,-3.141,-0.000,0.274,0.000,0.299,-0.03,-0.00,-0.00
0.203,takeoff,1,326,216,0.53,0.00,0.00,-0.80,0.00,0.32,0.00,-0.27,0.001,-0.044,0.000,0.169,-3.141,-0.000,0.267,0.000,0.299,-0.03,-0.00,-0.00
0.218,takeoff,1,326,216,0.53,0.00,0.00,-0.80,0.00,0.32,0.00,-0.27,0.001,-0.044,0.000,0.169,-3.141,-0.000,0.267,0.000,0.300,-0.03,-0.00,-0.00
0.218,takeoff,1,326,216,0.53,0.00,0.00,-0.80,0.00,0.34,0.00,-0.30,0.001,-0.048,0.000,0.164,-3.141,-0.000,0.265,0.000,0.297,-0.04,-0.00,-0.01
0.218,takeoff,1,326,224,0.52,0.00,0.00,-0.80,0.00,0.34,0.00,-0.30,0.001,-0.048,0.000,0.164,-3.141,-0.000,0.265,0.000,0.297,-0.04,-0.00,-0.01
0.218,takeoff,1,326,224,0.52,0.00,0.00,-0.80,0.00,0.34,0.00,-0.30,0.001,-0.048,0.000,0.164,-3.141,-0.000,0.265,0.000,0.297,-0.04,-0.00,-0.01
0.218,takeoff,1,326,224,0.52,0.00,0.00,-0.80,0.00,0.34,0.00,-0.30,0.001,-0.048,0.000,0.164,-3.141,-0.000,0.265,0.000,0.297,-0.04,-0.00,-0.01
0.234,takeoff,1,326,224,0.52,0.00,0.00,-0.80,0.00,0.34,0.00,-0.31,0.001,-0.049,0.000,0.159,-3.141,-0.000,0.260,0.000,0.297,-0.04,-0.00,-0.01
0.234,takeoff,1,326,224,0.52,0.00,0.00,-0.80,0.00,0.37,0.00,-0.31,0.001,-0.049,0.000,0.159,-3.141,-0.000,0.260,0.000,0.297,-0.04,-0.00,-0.01
0.234,takeoff,1,326,224,0.52,0.00,0.00,-0.80,0.00,0.37,0.00,-0.31,0.001,-0.049,0.000,0.159,-3.141,-0.000,0.260,0.000,0.297,-0.04,-0.00,-0.01
0.234,takeoff,1,326,224,0.52,0.00,0.00,-0.80,0.00,0.37,0.00,-0.31,0.001,-0.049,0.000,0.154,-3.141,-0.000,0.254,0.000,0.297,-0.04,-0.00,-0.01
0.234,takeoff,1,326,224,0.52,0.00,0.00,-0.80,0.00,0.37,0.00,-0.34,0.001,-0.053,0.000,0.154,-3.141,-0.000,0.258,0.000,0.295,-0.04,-0.00,-0.01
0.234,takeoff,1,326,224,0.52,0.00,0.00,-0.80,0.00,0.37,0.00,-0.34,0.001,-0.053,0.000,0.154,-3.141,-0.000,0.258,0.000,0.295,-0.04,-0.00,-0.01
0.250,takeoff,1,326,224,0.52,0.00,0.00,-0.80,0.00,0.39,0.00,-0.34,0.001,-0.053,0.000,0.144,-3.141,-0.000,0.246,0.000,0.295,-0.04,-0.00,-0.01
0.250,takeoff,1,326,224,0.52,0.00,0.00,-0.80,0.00,0.39,0.00,-0.34,0.001,-0.053,0.000,0.144,-3.141,-0.000,0.246,0.000,0.295,-0.04,-0.00,-0.01
0.250,takeoff,1,326,224,0.52,0.00,0.00,-0.80,0.00,0.39,0.00,-0.36,0.001,-0.055,0.000,0.144,-3.141,-0.000,0.250,0.000,0.293,-0.05,-0.00,-0.02
0.250,takeoff,1,326,224,0.52,0.00,0.00,-0.80,0.00,0.39,0.00,-0.36,0.001,-0.055,0.000,0.144,-3.141,-0.000,0.250,0.000,0.293,-0.05,-0.00,-0.02
0.250,takeoff,1,326,224,0.52,0.00,0.00,-0.80,0.00,0.39,0.00,-0.36,0.001,-0.055,0.000,0.140,-3.141,-0.000,0.244,0.000,0.293,-0.05,-0.00,-0.02
0.250,takeoff,1,326,232,0.53,0.00,0.00,-0.80,0.00,0.39,0.00,-0.36,0.001,-0.055,0.000,0.140,-3.141,-0.000,0.244,0.000,0.293,-0.05,-0.00,-0.02
0.265,takeoff,1,326,232,0.53,0.00,0.00,-0.80,0.00,0.42,0.00,-0.36,0.001,-0.055,0.000,0.140,-3.141,-0.000,0.244,0.000,0.294,-0.05,-0.00,-0.02
0.265,takeoff,1,326,232,0.53,0.00,0.00,-0.80,0.00,0.42,0.00,-0.37,0.001,-0.057,0.000,0.140,-3.141,-0.000,0.246,0.000,0.293,-0.05,-0.00,-0.02
0.265,takeoff,1,326,232,0.53,0.00,0.00,-0.80,0.00,0.42,0.00,-0.37,0.001,-0.057,0.000,0.135,-3.141,-0.000,0.240,0.000,0.293,-0.05,-0.00,-0.02
0.265,takeoff,1,326,232,0.53,0.00,0.00,-0.80,0.00,0.42,0.00,-0.37,0.001,-0.057,0.000,0.135,-3.141,-0.000,0.240,0.000,0.293,-0.05,-0.00,-0.02
0.265,takeoff,1,326,232,0.53,0.00,0.00,-0.80,0.00,0.42,0.00,-0.37,0.001,-0.057,0.000,0.135,-3.141,-0.000,0.240,0.000,0.293,-0.05,-0.00,-0.02
0.265,takeoff,1,326,232,0.53,0.00,0.00,-0.80,0.00,0.42,0.00,-0.37,0.001,-0.057,0.000,0.135,-3.141,-0.000,0.240,0.000,0.293,-0.05,-0.00,-0.02
0.265,takeoff,1,326,232,0.53,0.00,0.00,-0.80,0.00,0.44,0.00,-0.39,0.001,-0.059,0.000,0.126,-3.141,-0.000,0.232,0.000,0.291,-0.06,-0.00,-0.03
0.281,takeoff,1,326,232,0.53,0.00,0.00,-0.80,0.00,0.44,0.00,-0.39,0.001,-0.059,0.000,0.126,-3.141,-0.000,0.232,0.000,0.292,-0.06,-0.00,-0.03
0.281,takeoff,1,326,232,0.53,0.00,0.00,-0.80,0.00,0.44,0.00,-0.39,0.001,-0.059,0.000,0.126,-3.141,-0.000,0.232,0.000,0.292,-0.06,-0.00,-0.03
0.281,takeoff,1,326,232,0.53,0.00,0.00,-0.80,0.00,0.44,0.00,-0.39,0.001,-0.059,0.000,0.122,-3.141,-0.000,0.226,0.000,0.292,-0.06,-0.00,-0.03
0.281,takeoff,1,326,232,0.53,0.00,0.00,-0.80,0.00,0.44,0.00,-0.40,0.001,-0.060,0.000,0.122,-3.141,-0.000,0.228,0.000,0.291,-0.06,-0.00,-0.03
0.281,takeoff,1,326,232,0.53,0.00,0.00,-0.80,0.00,0.46,0.00,-0.40,0.001,-0.060,0.000,0.122,-3.141,-0.000,0.228,0.000,0.291,-0.06,-0.00,-0.03
0.281,takeoff,1,326,232,0.53,0.00,0.00,-0.80,0.00,0.46,0.00,-0.40,0.001,-0.060,0.000,0.122,-3.141,-0.000,0.228,0.000,0.291,-0.06,-0.00,-0.03
0.281,takeoff,1,326,239,0.52,0.00,0.00,-0.80,0.00,0.46,0.00,-0.40,0.001,-0.060,0.000,0.118,-3.141,-0.000,0.222,0.000,0.291,-0.06,-0.00,-0.03
0.297,takeoff,1,326,239,0.52,0.00,0.00,-0.80,0.00,0.46,0.00,-0.42,0.001,-0.062,0.000,0.118,-3.141,-0.000,0.225,0.000,0.290,-0.07,-0.00,-0.03
0.297,takeoff,1,326,239,0.52,0.00,0.00,-0.80,0.00,0.46,0.00,-0.42,0.001,-0.062,0.000,0.118,-3.141,-0.000,0.225,0.000,0.290,-0.07,-0.00,-0.03
0.297,takeoff,1,326,239,0.52,0.00,0.00,-0.80,0.00,0.46,0.00,-0.42,0.001,-0.062,0.000,0.113,-3.141,-0.000,0.220,0.000,0.290,-0.07,-0.00,-0.03
0.297,takeoff,1,326,239,0.52,0.00,0.00,-0.80,0.00,0.48,0.00,-0.42,0.001,-0.062,0.000,0.113,-3.141,-0.000,0.220,0.000,0.290,-0.07,-0.00,-0.03
0.297,takeoff,1,326,239,0.52,0.00,0.00,-0.80,0.00,0.48,0.00,-0.42,0.001,-0.062,0.000,0.113,-3.141,-0.000,0.220,0.000,0.290,-0.07,-0.00,-0.03
0.297,takeoff,1,326,239,0.52,0.00,0.00,-0.80,0.00,0.48,0.00,-0.42,0.001,-0.063,0.000,0.105,-3.141,-0.000,0.211,0.000,0.289,-0.07,-0.00,-0.04
0.312,takeoff,1,326,239,0.52,0.00,0.00,-0.80,0.00,0.48,0.00,-0.42,0.001,-0.063,0.000,0.105,-3.141,-0.000,0.211,0.000,0.290,-0.07,-0.00,-0.04
0.312,takeoff,1,326,239,0.52,0.00,0.00,-0.80,0.00,0.48,0.00,-0.42,0.001,-0.063,0.000,0.105,-3.141,-0.000,0.211,0.000,0.290,-0.07,-0.00,-0.04
0.312,takeoff,1,326,239,0.52,0.00,0.00,-0.80,0.00,0.50,0.00,-0.42,0.001,-0.063,0.000,0.105,-3.141,-0.000,0.211,0.000,0.290,-0.07,-0.00,-0.04
0.312,takeoff,1,326,239,0.52,0.00,0.00,-0.80,0.00,0.50,0.00,-0.43,0.001,-0.065,0.000,0.101,-3.141,-0.000,0.208,0.000,0.289,-0.08,-0.00,-0.04
0.312,takeoff,1,326,239,0.52,0.00,0.00,-0.80,0.00,0.50,0.00,-0.43,0.001,-0.065,0.000,0.101,-3.141,-0.000,0.208,0.000,0.289,-0.08,-0.00,-0.04
0.312,takeoff,1,326,239,0.52,0.00,0.00,-0.80,0.00,0.50,0.00,-0.43,0.001,-0.065,0.000,0.101,-3.141,-0.000,0.208,0.000,0.289,-0.08,-0.00,-0.04
0.328,takeoff,1,326,239,0.52,0.00,0.00,-0.80,0.00,0.50,0.00,-0.43,0.001,-0.065,0.000,0.097,-3.141,-0.000,0.203,0.000,0.289,-0.08,-0.00,-0.04
0.328,takeoff,1,326,248,0.53,0.00,0.00,-0.80,0.00,0.50,0.00,-0.44,0.001,-0.066,0.000,0.097,-3.141,-0.000,0.204,0.000,0.289,-0.09,-0.00,-0.05
0.328,takeoff,1,326,248,0.53,0.00,0.00,-0.80,0.00,0.52,0.00,-0.44,0.001,-0.066,0.000,0.097,-3.141,-0.000,0.204,0.000,0.289,-0.09,-0.00,-0.05
0.328,takeoff,1,326,248,0.53,0.00,0.00,-0.80,0.00,0.52,0.00,-0.44,0.001,-0.066,0.000,0.097,-3.141,-0.000,0.204,0.000,0.289,-0.09,-0.00,-0.05
0.328,takeoff,1,326,248,0.53,0.00,0.00,-0.80,0.00,0.52,0.00,-0.44,0.001,-0.066,0.000,0.093,-3.141,-0.000,0.199,0.000,0.289,-0.09,-0.00,-0.05
0.328,takeoff,1,326,248,0.53,0.00,0.00,-0.80,0.00,0.52,0.00,-0.44,0.001,-0.066,0.000,0.093,-3.141,-0.000,0.199,0.000,0.289,-0.09,-0.00,-0.05
0.343,takeoff,1,326,248,0.53,0.00,0.00,-0.80,0.00,0.52,0.00,-0.45,0.001,-0.068,0.000,0.093,-3.141,-0.000,0.202,0.000,0.288,-0.09,-0.00,-0.05
0.343,takeoff,1,326,248,0.53,0.00,0.00,-0.80,0.00,0.52,0.00,-0.45,0.001,-0.068,0.000,0.093,-3.141,-0.000,0.202,0.000,0.288,-0.09,-0.00,-0.05
0.343,takeoff,1,326,248,0.53,0.00,0.00,-0.80,0.00,0.52,0.00,-0.45,0.001,-0.068,0.000,0.090,-3.141,-0.000,0.197,0.000,0.288,-0.09,-0.00,-0.05
0.343,takeoff,1,326,248,0.53,0.00,0.00,-0.80,0.00,0.52,0.00,-0.45,0.001,-0.068,0.000,0.090,-3.141,-0.000,0.197,0.000,0.288,-0.09,-0.00,-0.05
0.343,takeoff,1,326,248,0.53,0.00,0.00,-0.80,0.00,0.52,0.00,-0.46,0.001,-0.069,0.000,0.090,-3.141,-0.000,0.199,0.000,0.287,-0.10,-0.00,-0.06
0.343,takeoff,1,326,248,0.53,0.00,0.00,-0.80,0.00,0.52,0.00,-0.46,0.001,-0.069,0.000,0.090,-3.141,-0.000,0.199,0.000,0.287,-0.10,-0.00,-0.06
0.343,takeoff,1,326,248,0.53,0.00,0.00,-0.80,0.00,0.52,0.00,-0.46,0.001,-0.069,0.000,0.086,-3.141,-0.000,0.194,0.000,0.287,-0.10,-0.00,-0.06
0.359,takeoff,1,326,248,0.53,0.00,0.00,-0.80,0.00,0.54,0.00,-0.46,0.001,-0.069,0.000,0.086,-3.141,-0.000,0.194,0.000,0.287,-0.10,-0.00,-0.06
0.359,takeoff,1,326,248,0.53,0.00,0.00,-0.80,0.00,0.54,0.00,-0.46,0.001,-0.069,0.000,0.086,-3.141,-0.000,0.194,0.000,0.287,-0.10,-0.00,-0.06
0.359,takeoff,1,326,253,0.52,0.00,0.00,-0.80,0.00,0.54,0.00,-0.47,0.001,-0.070,0.000,0.080,-3.141,-0.000,0.187,0.000,0.287,-0.10,-0.00,-0.06
0.359,takeoff,1,326,253,0.52,0.00,0.00,-0.80,0.00,0.54,0.00,-0.47,0.001,-0.070,0.000,0.080,-3.141,-0.000,0.187,0.000,0.287,-0.10,-0.00,-0.06
0.359,takeoff,1,326,253,0.52,0.00,0.00,-0.80,0.00,0.54,0.00,-0.47,0.001,-0.070,0.000,0.080,-3.141,-0.000,0.187,0.000,0.287,-0.10,-0.00,-0.06
0.359,takeoff,1,326,253,0.52,0.00,0.00,-0.80,0.00,0.56,0.00,-0.47,0.001,-0.070,0.000,0.073,-3.141,-0.000,0.178,0.000,0.287,-0.10,-0.00,-0.06
0.359,takeoff,1,326,253,0.52,0.00,0.00,-0.80,0.00,0.56,0.00,-0.48,0.001,-0.071,0.000,0.073,-3.141,-0.000,0.180,0.000,0.286,-0.11,-0.00,-0.07
0.375,takeoff,1,326,253,0.52,0.00,0.00,-0.80,0.00,0.56,0.00,-0.48,0.001,-0.071,0.000,0.073,-3.141,-0.000,0.180,0.000,0.287,-0.11,-0.00,-0.07
0.375,takeoff,1,326,253,0.52,0.00,0.00,-0.80,0.00,0.56,0.00,-0.48,0.001,-0.071,0.000,0.073,-3.141,-0.000,0.180,0.000,0.287,-0.11,-0.00,-0.07
0.375,takeoff,1,326,253,0.52,0.00,0.00,-0.80,0.00,0.56,0.00,-0.48,0.001,-0.071,0.000,0.069,-3.141,-0.000,0.175,0.000,0.287,-0.11,-0.00,-0.07
0.375,takeoff,1,326,253,0.52,0.00,0.00,-0.80,0.00,0.56,0.00,-0.48,0.001,-0.072,0.000,0.069,-3.141,-0.000,0.176,0.000,0.286,-0.12,-0.00,-0.07
0.375,takeoff,1,326,253,0.52,0.00,0.00,-0.80,0.00,0.57,0.00,-0.48,0.001,-0.072,0.000,0.069,-3.141,-0.000,0.176,0.000,0.286,-0.12,-0.00,-0.07
0.375,takeoff,1,326,253,0.52,0.00,0.00,-0.80,0.00,0.57,0.00,-0.48,0.001,-0.072,0.000,0.069,-3.141,-0.000,0.176,0.000,0.286,-0.12,-0.00,-0.07
0.390,takeoff,1,326,258,0.52,0.00,0.00,-0.80,0.00,0.57,0.00,-0.48,0.001,-0.072,0.000,0.066,-3.141,-0.000,0.172,0.000,0.286,-0.12,-0.00,-0.07
0.390,takeoff,1,326,258,0.52,0.00,0.00,-0.80,0.00,0.57,0.00,-0.48,0.001,-0.072,0.000,0.066,-3.141,-0.000,0.172,0.000,0.286,-0.12,-0.00,-0.07
0.390,takeoff,1,326,258,0.52,0.00,0.00,-0.80,0.00,0.57,0.00,-0.49,0.001,-0.073,0.000,0.066,-3.141,-0.000,0.173,0.000,0.285,-0.13,-0.00,-0.08
0.390,takeoff,1,326,258,0.52,0.00,0.00,-0.80,0.00,0.57,0.00,-0.49,0.001,-0.073,0.000,0.066,-3.141,-0.000,0.173,0.000,0.285,-0.13,-0.00,-0.08
0.390,takeoff,1,326,258,0.52,0.00,0.00,-0.80,0.00,0.58,0.00,-0.49,0.001,-0.073,0.000,0.062,-3.141,-0.000,0.169,0.000,0.285,-0.13,-0.00,-0.08
0.390,takeoff,1,326,258,0.52,0.00,0.00,-0.80,0.00,0.58,0.00,-0.49,0.001,-0.073,0.000,0.062,-3.141,-0.000,0.169,0.000,0.285,-0.13,-0.00,-0.08
0.390,takeoff,1,326,258,0.52,0.00,0.00,-0.80,0.00,0.58,0.00,-0.50,0.001,-0.074,0.000,0.062,-3.141,-0.000,0.170,0.000,0.285,-0.13,-0.00,-0.08
0.406,takeoff,1,326,258,0.52,0.00,0.00,-0.80,0.00,0.58,0.00,-0.50,0.001,-0.074,0.000,0.056,-3.141,-0.000,0.162,0.000,0.285,-0.13,-0.00,-0.08
0.406,takeoff,1,326,258,0.52,0.00,0.00,-0.80,0.00,0.59,0.00,-0.51,0.001,-0.075,0.000,0.056,-3.141,-0.000,0.163,0.000,0.285,-0.14,-0.00,-0.09
0.406,takeoff,1,326,258,0.52,0.00,0.00,-0.80,0.00,0.59,0.00,-0.51,0.001,-0.075,0.000,0.053,-3.141,-0.000,0.159,0.000,0.285,-0.14,-0.00,-0.09
0.406,takeoff,1,326,258,0.52,0.00,0.00,-0.80,0.00,0.59,0.00,-0.51,0.001,-0.075,0.000,0.053,-3.141,-0.000,0.159,0.000,0.285,-0.14,-0.00,-0.09
0.422,takeoff,1,326,258,0.52,0.00,0.00,-0.80,0.00,0.59,0.00,-0.51,0.001,-0.075,0.000,0.053,-3.141,-0.000,0.159,0.000,0.285,-0.14,-0.00,-0.09
0.422,takeoff,1,326,264,0.51,0.00,0.00,-0.80,0.00,0.60,0.00,-0.51,0.001,-0.075,0.000,0.050,-3.141,-0.000,0.156,0.000,0.284,-0.14,-0.00,-0.09
0.422,takeoff,1,326,264,0.51,0.00,0.00,-0.80,0.00,0.60,0.00,-0.51,0.001,-0.075,0.000,0.050,-3.141,-0.000,0.156,0.000,0.284,-0.14,-0.00,-0.09
0.422,takeoff,1,326,264,0.51,0.00,0.00,-0.80,0.00,0.60,0.00,-0.51,0.001,-0.075,0.000,0.044,-3.141,-0.000,0.148,0.000,0.284,-0.14,-0.00,-0.09
0.437,takeoff,1,326,264,0.51,0.00,0.00,-0.80,0.00,0.60,0.00,-0.52,0.001,-0.076,0.000,0.044,-3.141,-0.000,0.149,0.000,0.284,-0.15,-0.00,-0.10
0.437,takeoff,1,326,264,0.51,0.00,0.00,-0.80,0.00,0.61,0.00,-0.52,0.001,-0.076,0.000,0.041,-3.141,-0.000,0.146,0.000,0.284,-0.15,-0.00,-0.10
0.437,takeoff,1,326,264,0.51,0.00,0.00,-0.80,0.00,0.61,0.00,-0.52,0.001,-0.076,0.000,0.041,-3.141,-0.000,0.146,0.000,0.284,-0.15,-0.00,-0.10
0.437,takeoff,1,326,264,0.51,0.00,0.00,-0.80,0.00,0.61,0.00,-0.53,0.001,-0.077,0.000,0.041,-3.141,-0.000,0.147,0.000,0.283,-0.16,-0.00,-0.11
0.453,takeoff,1,326,264,0.51,0.00,0.00,-0.80,0.00,0.61,0.00,-0.53,0.001,-0.077,0.000,0.038,-3.141,-0.000,0.143,0.000,0.283,-0.16,-0.00,-0.11
0.453,takeoff,1,326,264,0.51,0.00,0.00,-0.80,0.00,0.62,0.00,-0.53,0.001,-0.077,0.000,0.038,-3.141,-0.000,0.143,0.000,0.283,-0.16,-0.00,-0.11
0.453,takeoff,1,326,264,0.51,0.00,0.00,-0.80,0.00,0.62,0.00,-0.54,0.001,-0.077,0.000,0.038,-3.141,-0.000,0.144,0.000,0.283,-0.16,-0.00,-0.11
0.453,takeoff,1,325,269,0.51,0.00,0.00,-0.80,0.00,0.62,0.00,-0.54,0.001,-0.077,0.000,0.033,-3.141,-0.000,0.137,0.000,0.283,-0.16,-0.00,-0.11
0.453,takeoff,1,325,269,0.51,0.00,0.00,-0.80,0.00,0.62,0.00,-0.54,0.001,-0.077,0.000,0.033,-3.141,-0.000,0.137,0.000,0.283,-0.16,-0.00,-0.11
0.468,takeoff,1,325,269,0.51,0.00,0.00,-0.80,0.00,0.63,0.00,-0.54,0.001,-0.077,0.000,0.030,-3.141,-0.000,0.134,0.000,0.282,-0.17,-0.00,-0.12
0.468,takeoff,1,325,269,0.51,0.00,0.00,-0.80,0.00,0.63,0.00,-0.54,0.001,-0.077,0.000,0.030,-3.141,-0.000,0.134,0.000,0.282,-0.17,-0.00,-0.12
0.468,takeoff,1,325,269,0.51,0.00,0.00,-0.80,0.00,0.63,0.00,-0.54,0.001,-0.077,0.000,0.030,-3.141,-0.000,0.134,0.000,0.282,-0.17,-0.00,-0.12
0.468,takeoff,1,325,269,0.51,0.00,0.00,-0.80,0.00,0.63,0.00,-0.55,0.001,-0.078,0.000,0.027,-3.141,-0.000,0.131,0.000,0.282,-0.18,-0.00,-0.12
0.484,takeoff,1,325,269,0.51,0.00,0.00,-0.80,0.00,0.63,0.00,-0.55,0.001,-0.078,0.000,0.027,-3.141,-0.000,0.131,0.000,0.282,-0.18,-0.00,-0.12
0.484,takeoff,1,325,269,0.51,0.00,0.00,-0.80,0.00,0.63,0.00,-0.55,0.001,-0.078,0.000,0.027,-3.141,-0.000,0.131,0.000,0.282,-0.18,-0.00,-0.12
0.484,takeoff,1,325,269,0.51,0.00,0.00,-0.80,0.00,0.63,0.00,-0.55,0.001,-0.078,0.000,0.022,-3.141,-0.000,0.125,0.000,0.282,-0.18,-0.00,-0.12
0.484,takeoff,1,325,269,0.51,0.00,0.00,-0.80,0.00,0.63,0.00,-0.56,0.001,-0.078,0.000,0.022,-3.141,-0.000,0.126,0.000,0.282,-0.19,-0.00,-0.13
0.484,takeoff,1,326,273,0.52,0.00,0.00,-0.80,0.00,0.64,0.00,-0.56,0.001,-0.078,0.000,0.022,-3.141,-0.000,0.126,0.000,0.282,-0.19,-0.00,-0.13
0.484,takeoff,1,326,273,0.52,0.00,0.00,-0.80,0.00,0.64,0.00,-0.56,0.001,-0.078,0.000,0.020,-3.141,-0.000,0.123,0.000,0.282,-0.19,-0.00,-0.13
0.500,takeoff,1,326,273,0.52,0.00,0.00,-0.80,0.00,0.64,0.00,-0.56,0.001,-0.078,0.000,0.020,-3.141,-0.000,0.123,0.000,0.281,-0.19,-0.00,-0.13
0.500,takeoff,1,326,273,0.52,0.00,0.00,-0.80,0.00,0.64,0.00,-0.56,0.001,-0.078,0.000,0.020,-3.141,-0.000,0.123,0.000,0.281,-0.19,-0.00,-0.13
0.500,takeoff,1,326,273,0.52,0.00,0.00,-0.80,0.00,0.64,0.00,-0.56,0.001,-0.078,0.000,0.020,-3.141,-0.000,0.123,0.000,0.281,-0.19,-0.00,-0.13
0.500,takeoff,1,326,273,0.52,0.00,0.00,-0.80,0.00,0.64,0.00,-0.56,0.001,-0.078,0.000,0.018,-3.141,-0.000,0.120,0.000,0.281,-0.19,-0.00,-0.13
0.500,takeoff,1,326,273,0.52,0.00,0.00,-0.80,0.00,0.64,0.00,-0.57,0.001,-0.079,0.000,0.018,-3.141,-0.000,0.120,0.000,0.281,-0.20,-0.00,-0.14
0.515,takeoff,1,326,273,0.52,0.00,0.00,-0.80,0.00,0.64,0.00,-0.57,0.001,-0.079,0.000,0.018,-3.141,-0.000,0.120,0.000,0.281,-0.20,-0.00,-0.14
0.515,takeoff,1,326,273,0.52,0.00,0.00,-0.80,0.00,0.64,0.00,-0.57,0.001,-0.079,0.000,0.013,-3.141,-0.000,0.114,0.000,0.281,-0.20,-0.00,-0.14
0.515,takeoff,1,326,273,0.52,0.00,0.00,-0.80,0.00,0.64,0.00,-0.57,0.001,-0.079,0.000,0.013,-3.141,-0.000,0.114,0.000,0.281,-0.20,-0.00,-0.14
0.515,takeoff,1,326,273,0.52,0.00,0.00,-0.80,0.00,0.64,0.00,-0.57,0.001,-0.079,0.000,0.013,-3.141,-0.000,0.114,0.000,0.281,-0.20,-0.00,-0.14
0.515,takeoff,1,326,273,0.52,0.00,0.00,-0.80,0.00,0.65,0.00,-0.57,0.001,-0.079,0.000,0.013,-3.141,-0.000,0.115,0.000,0.281,-0.21,-0.00,-0.14
0.515,takeoff,1,326,273,0.52,0.00,0.00,-0.80,0.00,0.65,0.00,-0.57,0.001,-0.079,0.000,0.011,-3.141,-0.000,0.112,0.000,0.281,-0.21,-0.00,-0.14
0.531,takeoff,1,326,278,0.51,0.00,0.00,-0.80,0.00,0.65,0.00,-0.57,0.001,-0.079,0.000,0.011,-3.141,-0.000,0.112,0.000,0.281,-0.21,-0.00,-0.14
0.531,takeoff,1,326,278,0.51,0.00,0.00,-0.80,0.00,0.65,0.00,-0.58,0.001,-0.079,0.000,0.011,-3.141,-0.000,0.112,0.000,0.281,-0.21,-0.00,-0.15
0.531,takeoff,1,326,278,0.51,0.00,0.00,-0.80,0.00,0.65,0.00,-0.58,0.001,-0.079,0.000,0.011,-3.141,-0.000,0.112,0.000,0.281,-0.21,-0.00,-0.15
0.531,takeoff,1,326,278,0.51,0.00,0.00,-0.80,0.00,0.65,0.00,-0.58,0.001,-0.079,0.000,0.011,-3.141,-0.000,0.112,0.000,0.281,-0.21,-0.00,-0.15
0.531,takeoff,1,326,278,0.51,0.00,0.00,-0.80,0.00,0.65,0.00,-0.58,0.001,-0.079,0.000,0.009,-3.141,-0.000,0.109,0.000,0.280,-0.21,-0.00,-0.15
0.547,takeoff,1,326,278,0.51,0.00,0.00,-0.80,0.00,0.65,0.00,-0.58,0.001,-0.079,0.000,0.009,-3.141,-0.000,0.109,0.000,0.280,-0.21,-0.00,-0.15
0.547,takeoff,1,326,278,0.51,0.00,0.00,-0.80,0.00,0.65,0.00,-0.58,0.001,-0.079,0.000,0.009,-3.141,-0.000,0.109,0.000,0.280,-0.21,-0.00,-0.15
0.547,takeoff,1,326,278,0.51,0.00,0.00,-0.80,0.00,0.66,0.00,-0.58,0.001,-0.079,0.000,0.002,-3.141,-0.000,0.102,0.000,0.280,-0.21,-0.00,-0.15
0.547,takeoff,1,326,278,0.51,0.00,0.00,-0.80,0.00,0.66,0.00,-0.59,0.001,-0.079,0.000,0.002,-3.141,-0.000,0.102,0.000,0.280,-0.23,-0.00,-0.16
0.547,takeoff,1,326,281,0.51,0.00,0.00,-0.80,0.00,0.66,0.00,-0.59,0.001,-0.079,0.000,0.002,-3.141,-0.000,0.102,0.000,0.280,-0.23,-0.00,-0.16
0.547,takeoff,1,326,281,0.51,0.00,0.00,-0.80,0.00,0.66,0.00,-0.59,0.001,-0.079,0.000,0.002,-3.141,-0.000,0.102,0.000,0.280,-0.23,-0.00,-0.16
0.562,takeoff,1,326,281,0.51,0.00,0.00,-0.80,0.00,0.66,0.00,-0.59,0.001,-0.079,0.000,0.000,-3.141,-0.000,0.099,0.000,0.280,-0.23,-0.00,-0.16
0.562,takeoff,1,326,281,0.51,0.00,0.00,-0.80,0.00,0.66,0.00,-0.59,0.001,-0.079,0.000,0.000,-3.141,-0.000,0.099,0.000,0.280,-0.23,-0.00,-0.17
0.562,takeoff,1,326,281,0.51,0.00,0.00,-0.80,0.00,0.66,0.00,-0.59,0.001,-0.079,0.000,0.000,-3.141,-0.000,0.099,0.000,0.280,-0.23,-0.00,-0.17
0.562,takeoff,1,326,281,0.51,0.00,0.00,-0.80,0.00,0.66,0.00,-0.59,0.001,-0.079,0.000,0.000,-3.141,-0.000,0.099,0.000,0.280,-0.23,-0.00,-0.17
0.562,takeoff,1,326,281,0.51,0.00,0.00,-0.80,0.00,0.66,0.00,-0.59,0.001,-0.079,0.000,-0.002,-3.141,-0.000,0.097,0.000,0.280,-0.23,-0.00,-0.17
0.562,takeoff,1,326,281,0.51,0.00,0.00,-0.80,0.00,0.66,0.00,-0.59,0.001,-0.079,0.000,-0.002,-3.141,-0.000,0.097,0.000,0.280,-0.23,-0.00,-0.17
0.562,takeoff,1,326,281,0.51,0.00,0.00,-0.80,0.00,0.66,0.00,-0.60,0.001,-0.079,0.000,-0.002,-3.141,-0.000,0.097,0.000,0.280,-0.24,-0.00,-0.18
0.578,takeoff,1,326,281,0.51,0.00,0.00,-0.80,0.00,0.66,0.00,-0.60,0.001,-0.079,0.000,-0.002,-3.141,-0.000,0.097,0.000,0.280,-0.24,-0.00,-0.18
0.578,takeoff,1,326,281,0.51,0.00,0.00,-0.80,0.00,0.66,0.00,-0.60,0.001,-0.079,0.000,-0.005,-3.141,-0.000,0.092,0.000,0.280,-0.24,-0.00,-0.18
0.578,takeoff,1,326,281,0.51,0.00,0.00,-0.80,0.00,0.66,0.00,-0.60,0.001,-0.079,0.000,-0.005,-3.141,-0.000,0.092,0.000,0.280,-0.24,-0.00,-0.18
0.578,takeoff,1,326,281,0.51,0.00,0.00,-0.80,0.00,0.66,0.00,-0.60,0.001,-0.079,0.000,-0.005,-3.141,-0.000,0.092,0.000,0.280,-0.24,-0.00,-0.18
0.578,takeoff,1,326,281,0.51,0.00,0.00,-0.80,0.00,0.66,0.00,-0.61,0.001,-0.079,0.000,-0.007,-3.141,-0.000,0.090,0.000,0.280,-0.25,-0.00,-0.19
0.578,takeoff,1,326,281,0.51,0.00,0.00,-0.80,0.00,0.66,0.00,-0.61,0.001,-0.079,0.000,-0.007,-3.141,-0.000,0.090,0.000,0.280,-0.25,-0.00,-0.19
0.593,takeoff,1,326,284,0.50,0.00,0.00,-0.80,0.00,0.66,0.00,-0.61,0.001,-0.079,0.000,-0.007,-3.141,-0.000,0.090,0.000,0.280,-0.25,-0.00,-0.19
0.593,takeoff,1,326,284,0.50,0.00,0.00,-0.80,0.00,0.66,0.00,-0.61,0.001,-0.079,0.000,-0.007,-3.141,-0.000,0.090,0.000,0.280,-0.25,-0.00,-0.19
0.593,takeoff,1,326,284,0.50,0.00,0.00,-0.80,0.00,0.66,0.00,-0.61,0.001,-0.079,0.000,-0.009,-3.141,-0.000,0.087,0.000,0.280,-0.26,-0.00,-0.19
0.593,takeoff,1,326,284,0.50,0.00,0.00,-0.80,0.00,0.66,0.00,-0.61,0.001,-0.079,0.000,-0.009,-3.141,-0.000,0.087,0.000,0.280,-0.26,-0.00,-0.19
0.593,takeoff,1,326,284,0.50,0.00,0.00,-0.80,0.00,0.66,0.00,-0.61,0.001,-0.079,0.000,-0.009,-3.141,-0.000,0.087,0.000,0.280,-0.26,-0.00,-0.19
0.593,takeoff,1,326,284,0.50,0.00,0.00,-0.80,0.00,0.66,0.00,-0.61,0.001,-0.079,0.000,-0.009,-3.141,-0.000,0.087,0.000,0.280,-0.26,-0.00,-0.19
0.593,takeoff,1,326,284,0.50,0.00,0.00,-0.80,0.00,0.66,0.00,-0.62,0.001,-0.079,0.000,-0.011,-3.141,-0.000,0.085,0.000,0.280,-0.26,-0.00,-0.20
0.609,takeoff,1,326,284,0.50,0.00,0.00,-0.80,0.00,0.66,0.00,-0.62,0.001,-0.079,0.000,-0.011,-3.141,-0.000,0.085,0.000,0.280,-0.26,-0.00,-0.20
0.609,takeoff,1,326,284,0.50,0.00,0.00,-0.80,0.00,0.66,0.00,-0.62,0.001,-0.079,0.000,-0.011,-3.141,-0.000,0.085,0.000,0.280,-0.26,-0.00,-0.20
0.609,takeoff,1,326,284,0.50,0.00,0.00,-0.80,0.00,0.66,0.00,-0.62,0.001,-0.079,0.000,-0.014,-3.141,-0.000,0.081,0.000,0.280,-0.26,-0.00,-0.20
0.609,takeoff,1,326,284,0.50,0.00,0.00,-0.80,0.00,0.66,0.00,-0.62,0.001,-0.079,0.000,-0.014,-3.141,-0.000,0.081,0.000,0.280,-0.26,-0.00,-0.20
0.609,takeoff,1,326,284,0.50,0.00,0.00,-0.80,0.00,0.66,0.00,-0.62,0.001,-0.078,0.000,-0.014,-3.141,-0.000,0.081,0.000,0.280,-0.27,-0.00,-0.20
0.609,takeoff,1,326,284,0.50,0.00,0.00,-0.80,0.00,0.66,0.00,-0.62,0.001,-0.078,0.000,-0.016,-3.141,-0.000,0.079,0.000,0.280,-0.27,-0.00,-0.20
0.625,takeoff,1,326,284,0.50,0.00,0.00,-0.80,0.00,0.66,0.00,-0.62,0.001,-0.078,0.000,-0.016,-3.141,-0.000,0.079,0.000,0.280,-0.27,-0.00,-0.20
0.625,takeoff,1,326,288,0.49,0.00,0.00,-0.80,0.00,0.66,0.00,-0.62,0.001,-0.078,0.000,-0.016,-3.141,-0.000,0.079,0.000,0.280,-0.27,-0.00,-0.20
0.625,takeoff,1,326,288,0.49,0.00,0.00,-0.80,0.00,0.66,0.00,-0.63,0.001,-0.078,0.000,-0.016,-3.141,-0.000,0.078,0.000,0.280,-0.28,-0.00,-0.21
0.625,takeoff,1,326,288,0.49,0.00,0.00,-0.80,0.00,0.66,0.00,-0.63,0.001,-0.078,0.000,-0.017,-3.141,-0.000,0.076,0.000,0.280,-0.28,-0.00,-0.21
0.625,takeoff,1,326,288,0.49,0.00,0.00,-0.80,0.00,0.66,0.00,-0.63,0.001,-0.078,0.000,-0.017,-3.141,-0.000,0.076,0.000,0.280,-0.28,-0.00,-0.21
0.625,takeoff,1,326,288,0.49,0.00,0.00,-0.80,0.00,0.66,0.00,-0.63,0.001,-0.078,0.000,-0.017,-3.141,-0.000,0.076,0.000,0.280,-0.28,-0.00,-0.21
0.640,takeoff,1,326,288,0.49,0.00,0.00,-0.80,0.00,0.66,0.00,-0.64,0.001,-0.078,0.000,-0.017,-3.141,-0.000,0.076,0.000,0.280,-0.28,-0.00,-0.22
0.640,takeoff,1,326,288,0.49,0.00,0.00,-0.80,0.00,0.66,0.00,-0.64,0.001,-0.078,0.000,-0.019,-3.141,-0.000,0.074,0.000,0.280,-0.28,-0.00,-0.22
0.640,takeoff,1,326,288,0.49,0.00,0.00,-0.80,0.00,0.66,0.00,-0.64,0.001,-0.078,0.000,-0.019,-3.141,-0.000,0.074,0.000,0.280,-0.28,-0.00,-0.22
0.640,takeoff,1,326,288,0.49,0.00,0.00,-0.80,0.00,0.66,0.01,-0.64,0.001,-0.078,0.000,-0.019,-3.141,-0.000,0.074,0.000,0.280,-0.28,-0.00,-0.22
0.640,takeoff,1,326,288,0.49,0.00,0.00,-0.80,0.00,0.66,0.01,-0.64,0.001,-0.078,0.000,-0.019,-3.141,-0.000,0.074,0.000,0.280,-0.28,-0.00,-0.22
0.640,takeoff,1,326,288,0.49,0.00,0.00,-0.80,0.00,0.66,0.01,-0.65,0.001,-0.078,0.000,-0.022,-3.141,-0.000,0.070,0.000,0.280,-0.29,-0.00,-0.23
0.640,takeoff,1,326,288,0.49,0.00,0.00,-0.80,0.00,0.66,0.01,-0.65,0.001,-0.078,0.000,-0.022,-3.141,-0.000,0.070,0.000,0.280,-0.29,-0.00,-0.23
0.640,takeoff,1,326,288,0.49,0.00,0.00,-0.80,0.00,0.66,0.01,-0.65,0.001,-0.078,0.000,-0.022,-3.141,-0.000,0.070,0.000,0.280,-0.29,-0.00,-0.23
0.656,takeoff,1,326,288,0.49,0.00,0.00,-0.80,0.00,0.66,0.01,-0.65,0.001,-0.078,0.000,-0.023,-3.141,-0.000,0.068,0.000,0.280,-0.29,-0.00,-0.23
0.656,takeoff,1,326,288,0.49,0.00,0.00,-0.80,0.00,0.66,0.01,-0.65,0.001,-0.078,0.000,-0.023,-3.141,-0.000,0.068,0.000,0.280,-0.29,-0.00,-0.23
0.656,takeoff,1,326,291,0.50,0.00,0.00,-0.80,0.00,0.66,0.01,-0.65,0.001,-0.077,0.000,-0.023,-3.141,-0.000,0.068,0.000,0.280,-0.30,-0.00,-0.23
0.656,takeoff,1,326,291,0.50,0.00,0.00,-0.80,0.00,0.66,0.01,-0.65,0.001,-0.077,0.000,-0.023,-3.141,-0.000,0.068,0.000,0.280,-0.30,-0.00,-0.23
0.656,takeoff,1,326,291,0.50,0.00,0.00,-0.80,0.00,0.66,0.01,-0.65,0.001,-0.077,0.000,-0.024,-3.141,-0.000,0.066,0.000,0.280,-0.30,-0.00,-0.23
0.656,takeoff,1,326,291,0.50,0.00,0.00,-0.80,0.00,0.66,0.01,-0.65,0.001,-0.077,0.000,-0.024,-3.141,-0.000,0.066,0.000,0.280,-0.30,-0.00,-0.23
0.672,takeoff,1,326,291,0.50,0.00,0.00,-0.80,0.00,0.66,0.01,-0.65,0.001,-0.077,0.000,-0.024,-3.141,-0.000,0.066,0.000,0.280,-0.30,-0.00,-0.23
0.672,takeoff,1,326,291,0.50,0.00,0.00,-0.80,0.00,0.66,0.01,-0.66,0.001,-0.077,0.000,-0.024,-3.141,-0.000,0.066,0.000,0.280,-0.31,-0.00,-0.24
0.672,takeoff,1,326,291,0.50,0.00,0.00,-0.80,0.00,0.66,0.01,-0.66,0.001,-0.077,0.000,-0.026,-3.141,-0.000,0.064,0.000,0.280,-0.31,-0.00,-0.24
0.672,takeoff,1,326,291,0.50,0.00,0.00,-0.80,0.00,0.66,0.01,-0.66,0.001,-0.077,0.000,-0.026,-3.141,-0.000,0.064,0.000,0.280,-0.31,-0.00,-0.24
0.672,takeoff,1,326,291,0.50,0.00,0.00,-0.80,0.00,0.66,0.01,-0.66,0.001,-0.077,0.000,-0.026,-3.141,-0.000,0.064,0.000,0.280,-0.31,-0.00,-0.24
0.672,takeoff,1,326,291,0.50,0.00,0.00,-0.80,0.00,0.66,0.01,-0.66,0.001,-0.077,0.000,-0.026,-3.141,-0.000,0.064,0.000,0.280,-0.31,-0.00,-0.24
0.672,takeoff,1,326,291,0.50,0.00,0.00,-0.80,0.00,0.66,0.01,-0.66,0.001,-0.077,0.000,-0.026,-3.141,-0.000,0.064,0.000,0.280,-0.31,-0.00,-0.24
0.687,takeoff,1,326,291,0.50,0.00,0.00,-0.80,0.00,0.66,0.01,-0.67,0.001,-0.076,0.000,-0.028,-3.141,-0.000,0.060,0.000,0.280,-0.31,-0.00,-0.25
0.687,takeoff,1,326,291,0.50,0.00,0.00,-0.80,0.00,0.66,0.01,-0.67,0.001,-0.076,0.000,-0.028,-3.141,-0.000,0.060,0.000,0.280,-0.31,-0.00,-0.25
0.687,takeoff,1,326,291,0.50,0.00,0.00,-0.80,0.00,0.66,0.01,-0.67,0.001,-0.076,0.000,-0.028,-3.141,-0.000,0.060,0.000,0.280,-0.31,-0.00,-0.25
0.687,takeoff,1,326,291,0.50,0.00,0.00,-0.80,0.00,0.66,0.01,-0.67,0.001,-0.076,0.000,-0.028,-3.141,-0.000,0.060,0.000,0.280,-0.31,-0.00,-0.25
0.687,takeoff,1,326,291,0.50,0.00,0.00,-0.80,0.00,0.66,0.01,-0.67,0.001,-0.076,0.000,-0.029,-3.141,-0.000,0.058,0.000,0.280,-0.32,-0.00,-0.25
0.687,takeoff,1,326,294,0.50,0.00,0.00,-0.80,0.00,0.66,0.01,-0.67,0.001,-0.076,0.000,-0.029,-3.141,-0.000,0.058,0.000,0.280,-0.32,-0.00,-0.25
0.687,takeoff,1,326,294,0.50,0.00,0.00,-0.80,0.00,0.66,0.01,-0.67,0.001,-0.076,0.000,-0.031,-3.141,-0.000,0.057,0.000,0.280,-0.32,-0.00,-0.25
0.703,takeoff,1,326,294,0.50,0.00,0.00,-0.80,0.00,0.65,0.01,-0.67,0.001,-0.076,0.000,-0.031,-3.141,-0.000,0.057,0.000,0.280,-0.32,-0.00,-0.25
0.703,takeoff,1,326,294,0.50,0.00,0.00,-0.80,0.00,0.65,0.01,-0.68,0.001,-0.076,0.000,-0.031,-3.141,-0.000,0.056,0.000,0.280,-0.33,-0.00,-0.26
0.703,takeoff,1,326,294,0.50,0.00,0.00,-0.80,0.00,0.65,0.01,-0.68,0.001,-0.076,0.000,-0.031,-3.141,-0.000,0.056,0.000,0.280,-0.33,-0.00,-0.26
0.703,takeoff,1,326,294,0.50,0.00,0.00,-0.80,0.00,0.65,0.01,-0.68,0.001,-0.076,0.000,-0.032,-3.141,-0.000,0.055,0.000,0.280,-0.33,-0.00,-0.26
0.703,takeoff,1,326,294,0.50,0.00,0.00,-0.80,0.00,0.65,0.01,-0.68,0.001,-0.076,0.000,-0.032,-3.141,-0.000,0.055,0.000,0.280,-0.33,-0.00,-0.26
0.703,takeoff,1,326,294,0.50,0.00,0.00,-0.80,0.00,0.65,0.01,-0.69,0.001,-0.075,0.000,-0.032,-3.141,-0.000,0.054,0.000,0.280,-0.33,-0.00,-0.27
0.718,takeoff,1,326,294,0.50,0.00,0.00,-0.80,0.00,0.65,0.01,-0.69,0.001,-0.075,0.000,-0.034,-3.141,-0.000,0.052,0.000,0.280,-0.33,-0.00,-0.27
0.718,takeoff,1,326,294,0.50,0.00,0.00,-0.80,0.00,0.65,0.01,-0.69,0.001,-0.075,0.000,-0.034,-3.141,-0.000,0.052,0.000,0.280,-0.33,-0.00,-0.27
0.718,takeoff,1,326,296,0.49,0.00,0.00,-0.80,0.00,0.65,0.01,-0.69,0.001,-0.075,0.000,-0.034,-3.141,-0.000,0.052,0.000,0.280,-0.33,-0.00,-0.27
0.718,takeoff,1,326,296,0.49,0.00,0.00,-0.80,0.00,0.65,0.01,-0.69,0.001,-0.075,0.000,-0.034,-3.141,-0.000,0.051,0.000,0.280,-0.34,-0.00,-0.28
0.718,takeoff,1,326,296,0.49,0.00,0.00,-0.80,0.00,0.65,0.01,-0.69,0.001,-0.075,0.000,-0.035,-3.141,-0.000,0.049,0.000,0.280,-0.34,-0.00,-0.28
0.718,takeoff,1,326,296,0.49,0.00,0.00,-0.80,0.00,0.65,0.01,-0.69,0.001,-0.075,0.000,-0.035,-3.141,-0.000,0.049,0.000,0.280,-0.34,-0.00,-0.28
0.718,takeoff,1,326,296,0.49,0.00,0.00,-0.80,0.00,0.65,0.01,-0.69,0.001,-0.075,0.000,-0.035,-3.141,-0.000,0.049,0.000,0.280,-0.34,-0.00,-0.28
0.734,takeoff,1,326,296,0.49,0.00,0.00,-0.80,0.00,0.65,0.01,-0.69,0.001,-0.075,0.000,-0.035,-3.141,-0.000,0.049,0.000,0.280,-0.34,-0.00,-0.28
0.734,takeoff,1,326,296,0.49,0.00,0.00,-0.80,0.00,0.65,0.01,-0.70,0.001,-0.074,0.000,-0.036,-3.141,-0.000,0.048,0.000,0.280,-0.34,-0.00,-0.28
0.734,takeoff,1,326,296,0.49,0.00,0.00,-0.80,0.00,0.65,0.01,-0.70,0.001,-0.074,0.000,-0.036,-3.141,-0.000,0.048,0.000,0.280,-0.34,-0.00,-0.28
0.734,takeoff,1,326,296,0.49,0.00,0.00,-0.80,0.00,0.65,0.01,-0.70,0.001,-0.074,0.000,-0.036,-3.141,-0.000,0.048,0.000,0.280,-0.34,-0.00,-0.28
0.734,takeoff,1,326,296,0.49,0.00,0.00,-0.80,0.00,0.65,0.01,-0.70,0.001,-0.074,0.000,-0.036,-3.141,-0.000,0.048,0.000,0.280,-0.34,-0.00,-0.28
0.734,takeoff,1,326,296,0.49,0.00,0.00,-0.80,0.00,0.64,0.01,-0.70,0.001,-0.074,0.000,-0.037,-3.141,-0.000,0.047,0.000,0.280,-0.34,-0.00,-0.28
0.734,takeoff,1,326,296,0.49,0.00,0.00,-0.80,0.00,0.64,0.01,-0.71,0.001,-0.074,0.000,-0.037,-3.141,-0.000,0.046,0.000,0.280,-0.35,-0.00,-0.29
0.750,takeoff,1,326,296,0.49,0.00,0.00,-0.80,0.00,0.64,0.01,-0.71,0.001,-0.074,0.000,-0.037,-3.141,-0.000,0.046,0.000,0.280,-0.35,-0.00,-0.29
0.750,takeoff,1,326,296,0.49,0.00,0.00,-0.80,0.00,0.64,0.01,-0.71,0.001,-0.074,0.000,-0.037,-3.141,-0.000,0.046,0.000,0.280,-0.35,-0.00,-0.29
0.750,takeoff,1,326,296,0.49,0.00,0.00,-0.80,0.00,0.64,0.01,-0.71,0.001,-0.074,0.000,-0.039,-3.141,-0.000,0.043,0.000,0.280,-0.35,-0.00,-0.29
0.750,takeoff,1,326,296,0.49,0.00,0.00,-0.80,0.00,0.64,0.01,-0.71,0.001,-0.074,0.000,-0.039,-3.141,-0.000,0.043,0.000,0.280,-0.35,-0.00,-0.29
0.750,takeoff,1,326,298,0.49,0.00,0.00,-0.80,0.00,0.64,0.01,-0.71,0.001,-0.073,0.000,-0.039,-3.141,-0.000,0.043,0.000,0.280,-0.36,-0.00,-0.30
0.750,takeoff,1,326,298,0.49,0.00,0.00,-0.80,0.00,0.64,0.01,-0.71,0.001,-0.073,0.000,-0.039,-3.141,-0.000,0.043,0.000,0.280,-0.36,-0.00,-0.30
0.750,takeoff,1,326,298,0.49,0.00,0.00,-0.80,0.00,0.64,0.01,-0.71,0.001,-0.073,0.000,-0.040,-3.141,-0.000,0.042,0.000,0.280,-0.36,-0.00,-0.30
0.765,takeoff,1,326,298,0.49,0.00,0.00,-0.80,0.00,0.64,0.01,-0.71,0.001,-0.073,0.000,-0.040,-3.141,-0.000,0.042,0.000,0.280,-0.36,-0.00,-0.30
0.765,takeoff,1,326,298,0.49,0.00,0.00,-0.80,0.00,0.64,0.01,-0.72,0.001,-0.073,0.000,-0.040,-3.141,-0.000,0.041,0.000,0.280,-0.37,-0.00,-0.31
0.765,takeoff,1,326,298,0.49,0.00,0.00,-0.80,0.00,0.64,0.01,-0.72,0.001,-0.073,0.000,-0.040,-3.141,-0.000,0.041,0.000,0.280,-0.37,-0.00,-0.31
0.765,takeoff,1,326,298,0.49,0.00,0.00,-0.80,0.00,0.64,0.01,-0.72,0.001,-0.073,0.000,-0.041,-3.141,-0.000,0.040,0.000,0.280,-0.37,-0.00,-0.31
0.765,takeoff,1,326,298,0.49,0.00,0.00,-0.80,0.00,0.63,0.01,-0.72,0.001,-0.073,0.000,-0.041,-3.141,-0.000,0.040,0.000,0.280,-0.37,-0.00,-0.31
0.765,takeoff,1,326,298,0.49,0.00,0.00,-0.80,0.00,0.63,0.01,-0.72,0.001,-0.073,0.000,-0.041,-3.141,-0.000,0.040,0.000,0.280,-0.37,-0.00,-0.31
0.765,takeoff,1,326,298,0.49,0.00,0.00,-0.80,0.00,0.63,0.01,-0.72,0.001,-0.073,0.000,-0.041,-3.141,-0.000,0.040,0.000,0.280,-0.37,-0.00,-0.31
0.781,takeoff,1,326,298,0.49,0.00,0.00,-0.80,0.00,0.63,0.01,-0.73,0.001,-0.072,0.000,-0.042,-3.141,-0.000,0.038,0.000,0.280,-0.37,-0.00,-0.31
0.781,takeoff,1,326,298,0.49,0.00,0.00,-0.80,0.00,0.63,0.01,-0.73,0.001,-0.072,0.000,-0.042,-3.141,-0.000,0.038,0.000,0.280,-0.37,-0.00,-0.31
0.781,takeoff,1,326,298,0.49,0.00,0.00,-0.80,0.00,0.63,0.01,-0.73,0.001,-0.072,0.000,-0.042,-3.141,-0.000,0.038,0.000,0.280,-0.37,-0.00,-0.31
0.781,takeoff,1,326,298,0.49,0.00,0.00,-0.80,0.00,0.63,0.01,-0.74,0.001,-0.071,0.000,-0.043,-3.141,-0.000,0.035,0.000,0.280,-0.38,-0.00,-0.32
0.781,takeoff,1,326,298,0.49,0.00,0.00,-0.80,0.00,0.63,0.01,-0.74,0.001,-0.071,0.000,-0.043,-3.141,-0.000,0.035,0.000,0.280,-0.38,-0.00,-0.32
0.781,takeoff,1,326,300,0.49,0.00,0.00,-0.80,0.00,0.63,0.01,-0.74,0.001,-0.071,0.000,-0.043,-3.141,-0.000,0.035,0.000,0.280,-0.38,-0.00,-0.32
0.797,takeoff,1,326,300,0.49,0.00,0.00,-0.80,0.00,0.63,0.01,-0.74,0.001,-0.071,0.000,-0.044,-3.141,-0.000,0.034,0.000,0.280,-0.38,-0.00,-0.32
0.797,takeoff,1,326,300,0.49,0.00,0.00,-0.80,0.00,0.62,0.01,-0.74,0.001,-0.071,0.000,-0.044,-3.141,-0.000,0.034,0.000,0.280,-0.38,-0.00,-0.33
0.797,takeoff,1,326,300,0.49,0.00,0.00,-0.80,0.00,0.62,0.01,-0.74,0.001,-0.071,0.000,-0.044,-3.141,-0.000,0.034,0.000,0.280,-0.38,-0.00,-0.33
0.797,takeoff,1,326,300,0.49,0.00,0.00,-0.80,0.00,0.62,0.01,-0.74,0.001,-0.071,0.000,-0.044,-3.141,-0.000,0.034,0.000,0.280,-0.38,-0.00,-0.33
0.797,takeoff,1,326,300,0.49,0.00,0.00,-0.80,0.00,0.62,0.01,-0.74,0.001,-0.071,0.001,-0.045,-3.141,-0.000,0.033,0.000,0.280,-0.38,-0.00,-0.33
0.797,takeoff,1,326,300,0.49,0.00,0.00,-0.80,0.00,0.62,0.01,-0.75,0.001,-0.070,0.001,-0.045,-3.141,-0.000,0.032,0.000,0.280,-0.39,-0.00,-0.34
0.812,takeoff,1,326,300,0.49,0.00,0.00,-0.80,0.00,0.62,0.01,-0.75,0.001,-0.070,0.001,-0.045,-3.141,-0.000,0.032,0.000,0.280,-0.39,-0.00,-0.34
0.812,takeoff,1,326,300,0.49,0.00,0.00,-0.80,0.00,0.62,0.01,-0.75,0.001,-0.070,0.001,-0.045,-3.141,-0.000,0.032,0.000,0.280,-0.39,-0.00,-0.34
0.812,takeoff,1,326,300,0.49,0.00,0.00,-0.80,0.00,0.62,0.01,-0.75,0.001,-0.070,0.001,-0.045,-3.141,-0.000,0.032,0.000,0.280,-0.39,-0.00,-0.34
0.812,takeoff,1,326,300,0.49,0.00,0.00,-0.80,0.00,0.62,0.01,-0.75,0.001,-0.070,0.001,-0.046,-3.141,-0.000,0.030,0.000,0.280,-0.39,-0.00,-0.34
0.812,takeoff,1,326,300,0.49,0.00,0.00,-0.80,0.00,0.62,0.01,-0.75,0.001,-0.070,0.001,-0.046,-3.141,-0.000,0.030,0.000,0.280,-0.39,-0.00,-0.34
0.812,takeoff,1,326,300,0.49,0.00,0.00,-0.80,0.00,0.62,0.01,-0.75,0.001,-0.070,0.001,-0.046,-3.141,-0.000,0.030,0.000,0.280,-0.39,-0.00,-0.34
0.812,takeoff,1,326,300,0.49,0.00,0.00,-0.80,0.00,0.62,0.01,-0.75,0.001,-0.070,0.001,-0.047,-3.141,-0.000,0.029,0.000,0.280,-0.39,-0.00,-0.34
0.828,takeoff,1,326,300,0.49,0.00,0.00,-0.80,0.00,0.62,0.01,-0.75,0.001,-0.070,0.001,-0.047,-3.141,-0.000,0.029,0.000,0.280,-0.39,-0.00,-0.34
0.828,takeoff,1,326,302,0.48,0.00,0.00,-0.80,0.00,0.61,0.01,-0.75,0.001,-0.070,0.001,-0.047,-3.141,-0.000,0.029,0.000,0.280,-0.39,-0.00,-0.34
0.828,takeoff,1,326,302,0.48,0.00,0.00,-0.80,0.00,0.61,0.01,-0.76,0.001,-0.069,0.001,-0.047,-3.141,-0.000,0.028,0.000,0.280,-0.40,-0.00,-0.35
0.828,takeoff,1,326,302,0.48,0.00,0.00,-0.80,0.00,0.61,0.01,-0.76,0.001,-0.069,0.001,-0.047,-3.141,-0.000,0.027,0.000,0.280,-0.40,-0.00,-0.35
0.828,takeoff,1,326,302,0.48,0.00,0.00,-0.80,0.00,0.61,0.01,-0.76,0.001,-0.069,0.001,-0.047,-3.141,-0.000,0.027,0.000,0.280,-0.40,-0.00,-0.35
0.828,takeoff,1,326,302,0.48,0.00,0.00,-0.80,0.00,0.61,0.01,-0.76,0.001,-0.069,0.001,-0.047,-3.141,-0.000,0.027,0.000,0.280,-0.40,-0.00,-0.35
0.828,takeoff,1,326,302,0.48,0.00,0.00,-0.80,0.00,0.61,0.01,-0.76,0.001,-0.069,0.001,-0.047,-3.141,-0.000,0.027,0.000,0.280,-0.40,-0.00,-0.35
0.828,takeoff,1,326,302,0.48,0.00,0.00,-0.80,0.00,0.61,0.01,-0.76,0.001,-0.069,0.001,-0.047,-3.141,-0.000,0.027,0.000,0.280,-0.40,-0.00,-0.35
0.843,takeoff,1,326,302,0.48,0.00,0.00,-0.80,0.00,0.61,0.01,-0.77,0.001,-0.069,0.001,-0.048,-3.141,-0.000,0.026,0.000,0.280,-0.41,-0.00,-0.36
0.843,takeoff,1,326,302,0.48,0.00,0.00,-0.80,0.00,0.61,0.01,-0.77,0.001,-0.069,0.001,-0.048,-3.141,-0.000,0.026,0.000,0.280,-0.41,-0.00,-0.36
0.843,takeoff,1,326,302,0.48,0.00,0.00,-0.80,0.00,0.61,0.01,-0.77,0.001,-0.069,0.001,-0.048,-3.141,-0.000,0.026,0.000,0.280,-0.41,-0.00,-0.36
0.843,takeoff,1,326,302,0.48,0.00,0.00,-0.80,0.00,0.60,0.01,-0.78,0.001,-0.068,0.001,-0.049,-3.141,-0.000,0.023,0.000,0.280,-0.41,-0.00,-0.37
0.843,takeoff,1,326,302,0.48,0.00,0.00,-0.80,0.00,0.60,0.01,-0.78,0.001,-0.068,0.001,-0.049,-3.141,-0.000,0.023,0.000,0.280,-0.41,-0.00,-0.37
0.859,takeoff,1,326,302,0.48,0.00,0.00,-0.80,0.00,0.60,0.01,-0.78,0.001,-0.068,0.001,-0.049,-3.141,-0.000,0.023,0.000,0.280,-0.41,-0.00,-0.37
0.859,takeoff,1,326,302,0.48,0.00,0.00,-0.80,0.00,0.60,0.01,-0.78,0.001,-0.068,0.001,-0.050,-3.141,-0.000,0.023,0.000,0.280,-0.41,-0.00,-0.37
0.859,takeoff,1,326,303,0.47,0.00,0.00,-0.80,0.00,0.60,0.01,-0.78,0.001,-0.067,0.001,-0.050,-3.141,-0.000,0.022,0.000,0.280,-0.42,-0.00,-0.37
0.859,takeoff,1,326,303,0.47,0.00,0.00,-0.80,0.00,0.60,0.01,-0.78,0.001,-0.067,0.001,-0.050,-3.141,-0.000,0.022,0.000,0.280,-0.42,-0.00,-0.37
0.859,takeoff,1,326,303,0.47,0.00,0.00,-0.80,0.00,0.60,0.01,-0.78,0.001,-0.067,0.001,-0.050,-3.141,-0.000,0.021,0.000,0.280,-0.42,-0.00,-0.37
0.859,takeoff,1,326,303,0.47,0.00,0.00,-0.80,0.00,0.60,0.01,-0.78,0.001,-0.067,0.001,-0.050,-3.141,-0.000,0.021,0.000,0.280,-0.42,-0.00,-0.37
0.875,takeoff,1,326,303,0.47,0.00,0.00,-0.80,0.00,0.60,0.01,-0.79,0.001,-0.066,0.001,-0.050,-3.141,-0.000,0.020,0.000,0.280,-0.43,-0.00,-0.39
0.875,takeoff,1,326,303,0.47,0.00,0.00,-0.80,0.00,0.60,0.01,-0.79,0.001,-0.066,0.001,-0.050,-3.141,-0.000,0.020,0.000,0.280,-0.43,-0.00,-0.39
0.875,takeoff,1,326,303,0.47,0.00,0.00,-0.80,0.00,0.60,0.01,-0.79,0.001,-0.066,0.001,-0.051,-3.141,-0.000,0.019,0.000,0.280,-0.43,-0.00,-0.39
0.875,takeoff,1,326,303,0.47,0.00,0.00,-0.80,0.00,0.60,0.01,-0.79,0.001,-0.066,0.001,-0.051,-3.141,-0.000,0.019,0.000,0.280,-0.43,-0.00,-0.39
0.875,takeoff,1,326,303,0.47,0.00,0.00,-0.80,0.00,0.59,0.01,-0.79,0.001,-0.066,0.001,-0.051,-3.141,-0.000,0.019,0.000,0.280,-0.43,-0.00,-0.39
0.875,takeoff,1,326,303,0.47,0.00,0.00,-0.80,0.00,0.59,0.01,-0.79,0.001,-0.066,0.001,-0.051,-3.141,-0.000,0.019,0.000,0.280,-0.43,-0.00,-0.39
0.875,takeoff,1,326,303,0.47,0.00,0.00,-0.80,0.00,0.59,0.01,-0.79,0.001,-0.066,0.001,-0.051,-3.141,-0.000,0.018,0.000,0.280,-0.43,-0.00,-0.39
0.875,takeoff,1,326,303,0.47,0.00,0.00,-0.80,0.00,0.59,0.01,-0.79,0.001,-0.066,0.001,-0.052,-3.141,-0.000,0.018,0.000,0.280,-0.43,-0.00,-0.39
0.890,takeoff,1,326,314,0.33,0.00,0.00,-0.80,0.00,0.59,0.01,-0.79,0.001,-0.066,0.001,-0.052,-3.141,-0.000,0.018,0.000,0.280,-0.43,-0.00,-0.39
0.890,takeoff,1,326,314,0.33,0.00,0.00,-0.80,0.00,0.59,0.01,-0.79,0.001,-0.066,0.001,-0.052,-3.141,-0.000,0.018,0.000,0.280,-0.43,-0.00,-0.39
0.890,takeoff,1,326,314,0.33,0.00,0.00,-0.80,0.00,0.58,0.01,-0.79,0.001,-0.066,0.001,-0.052,-3.141,-0.000,0.018,0.000,0.280,-0.43,-0.00,-0.39
0.890,takeoff,1,326,314,0.33,0.00,0.00,-0.80,0.00,0.58,0.01,-0.80,0.001,-0.065,0.001,-0.052,-3.141,-0.000,0.016,0.000,0.280,-0.44,-0.00,-0.40
0.890,takeoff,1,326,314,0.33,0.00,0.00,-0.80,0.00,0.58,0.01,-0.80,0.001,-0.065,0.001,-0.052,-3.141,-0.000,0.016,0.000,0.280,-0.44,-0.00,-0.40
0.890,takeoff,1,326,314,0.33,0.00,0.00,-0.80,0.00,0.58,0.01,-0.80,0.001,-0.065,0.001,-0.052,-3.141,-0.000,0.016,0.000,0.280,-0.44,-0.00,-0.40
0.890,takeoff,1,326,314,0.33,0.00,0.00,-0.80,0.00,0.58,0.01,-0.80,0.001,-0.065,0.001,-0.052,-3.141,-0.000,0.016,0.000,0.280,-0.44,-0.00,-0.40
0.906,takeoff,1,326,314,0.33,0.00,0.00,-0.80,0.00,0.58,0.01,-0.81,0.001,-0.064,0.001,-0.052,-3.141,-0.000,0.014,0.000,0.280,-0.45,-0.00,-0.41
0.906,takeoff,1,326,314,0.33,0.00,0.00,-0.80,0.00,0.58,0.01,-0.81,0.001,-0.064,0.001,-0.052,-3.141,-0.000,0.014,0.000,0.280,-0.45,-0.00,-0.41
0.906,takeoff,1,326,314,0.33,0.00,0.00,-0.80,0.00,0.58,0.01,-0.81,0.001,-0.064,0.001,-0.052,-3.141,-0.000,0.014,0.000,0.280,-0.45,-0.00,-0.41
0.906,takeoff,1,326,314,0.33,0.00,0.00,-0.80,0.00,0.58,0.01,-0.81,0.001,-0.064,0.001,-0.053,-3.141,-0.000,0.013,0.000,0.280,-0.45,-0.00,-0.41
0.906,takeoff,1,326,314,0.33,0.00,0.00,-0.80,0.00,0.58,0.01,-0.81,0.001,-0.064,0.001,-0.053,-3.141,-0.000,0.013,0.000,0.280,-0.45,-0.00,-0.41
0.906,takeoff,1,326,314,0.33,0.00,0.00,-0.80,0.00,0.58,0.01,-0.82,0.001,-0.064,0.001,-0.053,-3.141,-0.000,0.013,0.000,0.280,-0.45,-0.00,-0.42
0.906,takeoff,1,326,314,0.33,0.00,0.00,-0.80,0.00,0.58,0.01,-0.82,0.001,-0.064,0.001,-0.053,-3.141,-0.000,0.013,0.000,0.280,-0.45,-0.00,-0.42
0.922,takeoff,1,326,314,0.33,0.00,0.00,-0.80,0.00,0.57,0.01,-0.82,0.001,-0.064,0.001,-0.054,-3.141,-0.000,0.012,0.000,0.280,-0.45,-0.00,-0.42
0.922,takeoff,1,326,314,0.33,0.00,0.00,-0.80,0.00,0.57,0.01,-0.82,0.001,-0.064,0.001,-0.054,-3.141,-0.000,0.012,0.000,0.280,-0.45,-0.00,-0.42
0.922,takeoff,1,326,314,0.33,0.00,0.00,-0.80,0.00,0.57,0.01,-0.82,0.001,-0.064,0.001,-0.054,-3.141,-0.000,0.012,0.000,0.280,-0.45,-0.00,-0.42
0.922,takeoff,1,326,316,0.27,0.00,0.00,-0.80,0.00,0.57,0.01,-0.82,0.001,-0.063,0.001,-0.054,-3.141,-0.000,0.011,0.000,0.280,-0.46,-0.00,-0.43
0.922,takeoff,1,326,316,0.27,0.00,0.00,-0.80,0.00,0.57,0.01,-0.82,0.001,-0.063,0.001,-0.054,-3.141,-0.000,0.011,0.000,0.280,-0.46,-0.00,-0.43
0.922,takeoff,1,326,316,0.27,0.00,0.00,-0.80,0.00,0.57,0.01,-0.82,0.001,-0.063,0.001,-0.054,-3.141,-0.000,0.011,0.000,0.280,-0.46,-0.00,-0.43
0.937,takeoff,1,326,316,0.27,0.00,0.00,-0.80,0.00,0.56,0.01,-0.82,0.001,-0.063,0.001,-0.054,-3.141,-0.000,0.011,0.000,0.280,-0.46,-0.00,-0.43
0.937,takeoff,1,326,316,0.27,0.00,0.00,-0.80,0.00,0.56,0.01,-0.83,0.001,-0.062,0.001,-0.054,-3.141,-0.000,0.010,0.000,0.280,-0.46,-0.00,-0.44
0.937,takeoff,1,326,316,0.27,0.00,0.00,-0.80,0.00,0.56,0.01,-0.83,0.001,-0.062,0.001,-0.054,-3.141,-0.000,0.010,0.000,0.280,-0.46,-0.00,-0.44
0.937,takeoff,1,326,316,0.27,0.00,0.00,-0.80,0.00,0.56,0.01,-0.83,0.001,-0.062,0.001,-0.054,-3.141,-0.000,0.010,0.000,0.280,-0.46,-0.00,-0.44
0.937,takeoff,1,326,316,0.27,0.00,0.00,-0.80,0.00,0.56,0.01,-0.83,0.001,-0.062,0.001,-0.054,-3.141,-0.000,0.010,0.000,0.280,-0.46,-0.00,-0.44
0.937,takeoff,1,326,316,0.27,0.00,0.00,-0.80,0.00,0.55,0.01,-0.84,0.001,-0.061,0.001,-0.055,-3.141,-0.000,0.008,0.000,0.280,-0.47,-0.00,-0.45
0.937,takeoff,1,326,316,0.27,0.00,0.00,-0.80,0.00,0.55,0.01,-0.84,0.001,-0.061,0.001,-0.055,-3.141,-0.000,0.008,0.000,0.280,-0.47,-0.00,-0.45
0.953,takeoff,1,326,316,0.27,0.00,0.00,-0.80,0.00,0.55,0.01,-0.84,0.001,-0.061,0.001,-0.055,-3.141,-0.000,0.008,0.000,0.280,-0.47,-0.00,-0.45
0.953,takeoff,1,326,316,0.27,0.00,0.00,-0.80,0.00,0.55,0.01,-0.84,0.001,-0.061,0.001,-0.055,-3.141,-0.000,0.008,0.000,0.280,-0.47,-0.00,-0.45
0.953,takeoff,1,326,316,0.27,0.00,0.00,-0.80,0.00,0.55,0.01,-0.84,0.001,-0.061,0.001,-0.055,-3.141,-0.000,0.007,0.000,0.280,-0.47,-0.00,-0.45
0.953,takeoff,1,326,318,0.24,0.00,0.00,-0.80,0.00,0.55,0.01,-0.84,0.001,-0.061,0.001,-0.055,-3.141,-0.000,0.007,0.000,0.280,-0.47,-0.00,-0.45
0.953,takeoff,1,326,318,0.24,0.00,0.00,-0.80,0.00,0.55,0.01,-0.84,0.001,-0.061,0.001,-0.055,-3.141,-0.000,0.007,0.000,0.280,-0.47,-0.00,-0.45
0.968,takeoff,1,326,318,0.24,0.00,0.00,-0.80,0.00,0.55,0.01,-0.84,0.001,-0.061,0.001,-0.055,-3.141,-0.000,0.007,0.000,0.280,-0.47,-0.00,-0.45
0.968,takeoff,1,326,318,0.24,0.00,0.00,-0.80,0.00,0.55,0.01,-0.85,0.001,-0.060,0.001,-0.055,-3.141,-0.000,0.006,0.000,0.280,-0.48,-0.00,-0.47
0.968,takeoff,1,326,318,0.24,0.00,0.00,-0.80,0.00,0.55,0.01,-0.85,0.001,-0.060,0.001,-0.055,-3.141,-0.000,0.006,0.000,0.280,-0.48,-0.00,-0.47
0.968,takeoff,1,326,318,0.24,0.00,0.00,-0.80,0.00,0.55,0.01,-0.85,0.001,-0.060,0.001,-0.055,-3.141,-0.000,0.005,0.000,0.280,-0.48,-0.00,-0.47
0.968,takeoff,1,326,318,0.24,0.00,0.00,-0.80,0.00,0.54,0.01,-0.85,0.001,-0.060,0.001,-0.055,-3.141,-0.000,0.005,0.000,0.280,-0.48,-0.00,-0.47
0.968,takeoff,1,326,318,0.24,0.00,0.00,-0.80,0.00,0.54,0.01,-0.85,0.001,-0.060,0.001,-0.055,-3.141,-0.000,0.005,0.000,0.280,-0.48,-0.00,-0.47
0.968,takeoff,1,326,318,0.24,0.00,0.00,-0.80,0.00,0.54,0.01,-0.85,0.001,-0.059,0.001,-0.055,-3.141,-0.000,0.005,0.000,0.280,-0.48,-0.00,-0.47
0.968,takeoff,1,326,318,0.24,0.00,0.00,-0.80,0.00,0.54,0.01,-0.85,0.001,-0.059,0.001,-0.055,-3.141,-0.000,0.005,0.000,0.280,-0.48,-0.00,-0.47
0.968,takeoff,1,326,318,0.24,0.00,0.00,-0.80,0.00,0.54,0.01,-0.85,0.001,-0.059,0.001,-0.056,-3.141,-0.000,0.004,0.000,0.280,-0.48,-0.00,-0.47
0.984,takeoff,1,326,318,0.24,0.00,0.00,-0.80,0.00,0.54,0.01,-0.85,0.001,-0.059,0.001,-0.056,-3.141,-0.000,0.004,0.000,0.280,-0.48,-0.00,-0.47
0.984,takeoff,1,326,318,0.24,0.00,0.00,-0.80,0.00,0.54,0.01,-0.85,0.001,-0.059,0.001,-0.056,-3.141,-0.000,0.004,0.000,0.280,-0.48,-0.00,-0.47
0.984,takeoff,1,326,318,0.24,0.00,0.00,-0.80,0.00,0.54,0.01,-0.85,0.001,-0.059,0.001,-0.056,-3.141,-0.000,0.004,0.000,0.280,-0.48,-0.00,-0.47
0.984,takeoff,1,326,318,0.24,0.00,0.00,-0.80,0.00,0.53,0.01,-0.86,0.001,-0.058,0.001,-0.056,-3.141,-0.000,0.003,0.000,0.280,-0.49,-0.00,-0.48
0.984,takeoff,1,326,318,0.24,0.00,0.00,-0.80,0.00,0.53,0.01,-0.86,0.001,-0.058,0.001,-0.056,-3.141,-0.000,0.003,0.000,0.280,-0.49,-0.00,-0.48
0.984,takeoff,1,326,294,0.21,0.00,0.00,-0.80,0.00,0.53,0.01,-0.86,0.001,-0.058,0.001,-0.056,-3.141,-0.000,0.003,0.000,0.280,-0.49,-0.00,-0.48
0.984,takeoff,1,326,294,0.21,0.00,0.00,-0.80,0.00,0.53,0.01,-0.86,0.001,-0.058,0.001,-0.056,-3.141,-0.000,0.003,0.000,0.280,-0.49,-0.00,-0.48
0.984,takeoff,1,326,294,0.21,0.00,0.00,-0.80,0.00,0.53,0.01,-0.86,0.001,-0.058,0.001,-0.056,-3.141,-0.000,0.003,0.000,0.280,-0.49,-0.00,-0.48
1.000,takeoff,1,326,294,0.21,0.00,0.00,-0.80,0.00,0.53,0.01,-0.87,0.001,-0.058,0.001,-0.056,-3.141,-0.000,0.002,0.000,0.280,-0.49,-0.00,-0.49
1.000,takeoff,1,326,294,0.21,0.00,0.00,-0.80,0.00,0.53,0.01,-0.87,0.001,-0.058,0.001,-0.056,-3.141,-0.000,0.002,0.000,0.280,-0.49,-0.00,-0.49
1.000,takeoff,1,326,294,0.21,0.00,0.00,-0.80,0.00,0.53,0.01,-0.87,0.001,-0.058,0.001,-0.056,-3.141,-0.000,0.002,0.000,0.280,-0.49,-0.00,-0.49
1.000,takeoff,1,326,294,0.21,0.00,0.00,-0.80,0.00,0.53,0.01,-0.87,0.001,-0.058,0.001,-0.056,-3.141,-0.000,0.002,0.000,0.280,-0.49,-0.00,-0.49
1.000,takeoff,1,326,294,0.21,0.00,0.00,-0.80,0.00,0.53,0.01,-0.87,0.001,-0.058,0.001,-0.056,-3.141,-0.000,0.002,0.000,0.280,-0.49,-0.00,-0.49
1.000,takeoff,1,326,294,0.21,0.00,0.00,-0.80,0.00,0.53,0.01,-0.87,0.001,-0.058,0.001,-0.056,-3.141,-0.000,0.002,0.000,0.280,-0.49,-0.00,-0.49
1.000,takeoff,1,326,294,0.21,0.00,0.00,-0.80,0.00,0.53,0.01,-0.88,0.001,-0.057,0.001,-0.056,-3.141,-0.000,0.001,0.000,0.280,-0.49,-0.00,-0.50
1.015,takeoff,1,326,294,0.21,0.00,0.00,-0.80,0.00,0.53,0.01,-0.88,0.001,-0.057,0.001,-0.056,-3.141,-0.000,0.001,0.000,0.280,-0.49,-0.00,-0.50
1.015,takeoff,1,326,294,0.21,0.00,0.00,-0.80,0.00,0.53,0.01,-0.88,0.001,-0.057,0.001,-0.056,-3.141,-0.000,0.001,0.000,0.280,-0.49,-0.00,-0.50
1.015,takeoff,1,326,294,0.21,0.00,0.00,-0.80,0.00,0.52,0.01,-0.88,0.001,-0.057,0.001,-0.056,-3.141,-0.000,0.000,0.000,0.280,-0.49,-0.00,-0.50
1.015,takeoff,1,326,294,0.21,0.00,0.00,-0.80,0.00,0.52,0.01,-0.88,0.001,-0.057,0.001,-0.056,-3.141,-0.000,0.000,0.000,0.280,-0.49,-0.00,-0.50
1.015,takeoff,1,326,294,0.21,0.00,0.00,-0.80,0.00,0.52,0.01,-0.88,0.001,-0.056,0.001,-0.056,-3.141,-0.000,-0.000,0.000,0.280,-0.50,-0.00,-0.51
1.015,takeoff,1,326,294,0.21,0.00,0.00,-0.80,0.00,0.52,0.01,-0.88,0.001,-0.056,0.001,-0.056,-3.141,-0.000,-0.000,0.000,0.280,-0.50,-0.00,-0.51
1.015,takeoff,1,326,294,0.21,0.00,0.00,-0.80,0.00,0.52,0.01,-0.88,0.001,-0.056,0.001,-0.056,-3.141,-0.000,-0.000,0.000,0.280,-0.50,-0.00,-0.51
1.015,takeoff,1,326,296,0.25,0.00,0.00,-0.80,0.00,0.52,0.01,-0.88,0.001,-0.056,0.001,-0.057,-3.141,-0.000,-0.000,0.000,0.280,-0.50,-0.00,-0.51
1.015,takeoff,1,326,296,0.25,0.00,0.00,-0.80,0.00,0.52,0.01,-0.88,0.001,-0.056,0.001,-0.057,-3.141,-0.000,-0.000,0.000,0.280,-0.50,-0.00,-0.51
1.031,takeoff,1,326,296,0.25,0.00,0.00,-0.80,0.00,0.51,0.01,-0.89,0.001,-0.055,0.001,-0.057,-3.141,-0.000,-0.002,0.000,0.280,-0.51,-0.00,-0.52
1.031,takeoff,1,326,296,0.25,0.00,0.00,-0.80,0.00,0.51,0.01,-0.89,0.001,-0.055,0.001,-0.057,-3.141,-0.000,-0.002,0.000,0.280,-0.51,-0.00,-0.52
1.031,takeoff,1,326,296,0.25,0.00,0.00,-0.80,0.00,0.51,0.01,-0.89,0.001,-0.055,0.001,-0.057,-3.141,-0.000,-0.002,0.000,0.280,-0.51,-0.00,-0.52
1.031,takeoff,1,326,296,0.25,0.00,0.00,-0.80,0.00,0.51,0.01,-0.89,0.001,-0.055,0.001,-0.057,-3.141,-0.000,-0.002,0.000,0.280,-0.51,-0.00,-0.52
1.031,takeoff,1,326,296,0.25,0.00,0.00,-0.80,0.00,0.51,0.01,-0.89,0.001,-0.055,0.001,-0.057,-3.141,-0.000,-0.002,0.000,0.280,-0.51,-0.00,-0.52
1.031,takeoff,1,326,296,0.25,0.00,0.00,-0.80,0.00,0.51,0.01,-0.89,0.001,-0.055,0.001,-0.057,-3.141,-0.000,-0.002,0.000,0.280,-0.51,-0.01,-0.53
1.047,takeoff,1,326,296,0.25,0.00,0.00,-0.80,0.00,0.51,0.01,-0.89,0.001,-0.055,0.001,-0.057,-3.141,-0.000,-0.003,0.000,0.280,-0.51,-0.01,-0.53
1.047,takeoff,1,326,296,0.25,0.00,0.00,-0.80,0.00,0.51,0.01,-0.89,0.001,-0.055,0.001,-0.057,-3.141,-0.000,-0.003,0.000,0.280,-0.51,-0.01,-0.53
1.047,takeoff,1,326,296,0.25,0.00,0.00,-0.80,0.00,0.51,0.01,-0.89,0.001,-0.055,0.001,-0.057,-3.141,-0.000,-0.003,0.000,0.280,-0.51,-0.01,-0.53
1.047,takeoff,1,326,296,0.25,0.00,0.00,-0.80,0.00,0.51,0.01,-0.89,0.001,-0.055,0.001,-0.057,-3.141,-0.000,-0.003,0.000,0.280,-0.51,-0.01,-0.53
1.047,takeoff,1,326,296,0.25,0.00,0.00,-0.80,0.00,0.51,0.01,-0.90,0.001,-0.054,0.001,-0.057,-3.141,-0.000,-0.004,0.000,0.280,-0.52,-0.01,-0.54
1.047,takeoff,1,326,296,0.25,0.00,0.00,-0.80,0.00,0.51,0.01,-0.90,0.001,-0.054,0.001,-0.057,-3.141,-0.000,-0.004,0.000,0.280,-0.52,-0.01,-0.54
1.047,takeoff,1,326,296,0.27,0.00,0.00,-0.80,0.00,0.51,0.01,-0.90,0.001,-0.054,0.001,-0.057,-3.141,-0.000,-0.004,0.000,0.280,-0.52,-0.01,-0.54
1.047,takeoff,1,326,296,0.27,0.00,0.00,-0.80,0.00,0.50,0.01,-0.90,0.001,-0.054,0.001,-0.057,-3.141,-0.000,-0.004,0.000,0.280,-0.52,-0.01,-0.54
1.047,takeoff,1,326,296,0.27,0.00,0.00,-0.80,0.00,0.50,0.01,-0.90,0.001,-0.054,0.001,-0.057,-3.141,-0.000,-0.004,0.000,0.280,-0.52,-0.01,-0.54
1.062,takeoff,1,326,296,0.27,0.00,0.00,-0.80,0.00,0.50,0.01,-0.90,0.001,-0.054,0.001,-0.057,-3.141,-0.000,-0.004,0.000,0.280,-0.52,-0.01,-0.54
1.062,takeoff,1,326,296,0.27,0.00,0.00,-0.80,0.00,0.50,0.01,-0.90,0.001,-0.054,0.001,-0.057,-3.141,-0.000,-0.004,0.000,0.280,-0.52,-0.01,-0.54
1.062,takeoff,1,326,296,0.27,0.00,0.00,-0.80,0.00,0.50,0.01,-0.91,0.001,-0.053,0.001,-0.057,-3.141,-0.000,-0.005,0.000,0.280,-0.52,-0.01,-0.54
1.062,takeoff,1,326,296,0.27,0.00,0.00,-0.80,0.00,0.50,0.01,-0.91,0.001,-0.053,0.001,-0.057,-3.141,-0.000,-0.005,0.000,0.280,-0.52,-0.01,-0.54
