t,phase,found,cx,cy,conf,cmd_vx,cmd_vy,cmd_vz,cmd_yawrate,vbx,vby,vd,roll_des,pitch_des,roll,pitch,yaw,roll_q,pitch_q,yaw_q,thrust,x,y,z
0.000,takeoff,1,326,180,0.41,0.00,0.00,-0.80,0.00,0.00,0.00,-0.00,0.000,0.000,-0.000,0.311,3.141,-0.000,0.388,0.000,0.314,-0.00,-0.00,0.02
0.000,takeoff,1,326,180,0.41,0.00,0.00,-0.80,0.00,0.00,0.00,-0.00,0.000,0.000,-0.000,0.311,3.141,-0.000,0.388,0.000,0.314,-0.00,-0.00,0.02
0.016,takeoff,1,326,180,0.41,0.00,0.00,-0.80,0.00,0.00,0.00,-0.00,0.000,0.000,-0.000,0.311,3.141,-0.000,0.388,0.000,0.315,-0.00,-0.00,0.02
0.016,takeoff,1,326,180,0.41,0.00,0.00,-0.80,0.00,0.00,0.00,-0.00,0.000,0.000,-0.000,0.311,3.141,-0.000,0.388,0.000,0.315,-0.00,-0.00,0.02
0.016,takeoff,1,326,180,0.41,0.00,0.00,-0.80,0.00,0.00,0.00,-0.00,0.000,0.000,-0.000,0.311,3.141,-0.000,0.388,0.000,0.315,-0.00,-0.00,0.02
0.016,takeoff,1,326,180,0.41,0.00,0.00,-0.80,0.00,0.00,0.00,-0.00,0.000,0.000,-0.000,0.311,3.141,-0.000,0.388,0.000,0.315,-0.00,-0.00,0.02
0.016,takeoff,1,326,180,0.41,0.00,0.00,-0.80,0.00,0.00,0.00,-0.00,0.000,0.000,-0.000,0.311,3.141,-0.000,0.388,0.000,0.315,-0.00,-0.00,0.02
0.016,takeoff,1,326,180,0.41,0.00,0.00,-0.80,0.00,0.00,0.00,-0.00,0.000,0.000,-0.000,0.311,3.141,-0.000,0.388,0.000,0.315,-0.00,-0.00,0.02
0.016,takeoff,1,326,180,0.41,0.00,0.00,-0.80,0.00,0.00,0.00,-0.00,0.000,0.000,-0.000,0.311,3.141,-0.000,0.388,0.000,0.315,-0.00,-0.00,0.02
0.031,takeoff,1,326,180,0.41,0.00,0.00,-0.80,0.00,0.00,0.00,-0.00,0.000,0.000,-0.000,0.311,3.141,-0.000,0.388,0.000,0.315,-0.00,-0.00,0.02
0.031,takeoff,1,326,180,0.41,0.00,0.00,-0.80,0.00,0.00,0.00,0.01,0.000,0.000,-0.000,0.311,3.141,-0.000,0.388,0.000,0.316,-0.00,-0.00,0.02
0.031,takeoff,1,326,180,0.41,0.00,0.00,-0.80,0.00,-0.00,-0.00,0.01,0.000,0.000,-0.000,0.311,3.141,-0.000,0.388,0.000,0.316,-0.00,-0.00,0.02
0.031,takeoff,1,326,180,0.41,0.00,0.00,-0.80,0.00,-0.00,-0.00,0.01,0.000,0.000,-0.000,0.311,3.141,-0.000,0.388,0.000,0.316,-0.00,-0.00,0.02
0.031,takeoff,1,326,180,0.41,0.00,0.00,-0.80,0.00,-0.00,-0.00,0.01,0.000,0.000,-0.000,0.311,3.141,-0.000,0.388,0.000,0.316,-0.00,-0.00,0.02
0.031,takeoff,1,326,180,0.41,0.00,0.00,-0.80,0.00,-0.00,-0.00,0.00,0.000,-0.000,-0.000,0.311,3.141,-0.000,0.388,0.000,0.315,-0.00,-0.00,0.02
0.031,takeoff,1,326,176,0.46,0.00,0.00,-0.80,0.00,-0.00,-0.00,0.00,0.000,-0.000,-0.000,0.311,3.141,-0.000,0.388,0.000,0.315,-0.00,-0.00,0.02
0.047,takeoff,1,326,176,0.46,0.00,0.00,-0.80,0.00,-0.00,-0.00,0.00,0.000,-0.000,-0.000,0.311,3.141,-0.000,0.388,0.000,0.316,-0.00,-0.00,0.02
0.047,takeoff,1,326,176,0.46,0.00,0.00,-0.80,0.00,0.00,-0.00,0.00,0.000,-0.000,-0.000,0.311,3.141,-0.000,0.388,0.000,0.316,-0.00,-0.00,0.02
0.047,takeoff,1,326,176,0.46,0.00,0.00,-0.80,0.00,0.00,-0.00,0.00,0.000,-0.000,-0.000,0.310,3.141,-0.000,0.388,0.000,0.316,-0.00,-0.00,0.02
0.047,takeoff,1,326,176,0.46,0.00,0.00,-0.80,0.00,0.00,-0.00,-0.00,0.000,-0.001,-0.000,0.310,3.141,-0.000,0.389,0.000,0.316,-0.00,-0.00,0.02
0.047,takeoff,1,326,176,0.46,0.00,0.00,-0.80,0.00,0.00,-0.00,-0.00,0.000,-0.001,-0.000,0.310,3.141,-0.000,0.389,0.000,0.316,-0.00,-0.00,0.02
0.047,takeoff,1,326,176,0.46,0.00,0.00,-0.80,0.00,0.00,-0.00,-0.00,0.000,-0.001,-0.000,0.310,3.141,-0.000,0.389,0.000,0.316,-0.00,-0.00,0.02
0.047,takeoff,1,326,176,0.46,0.00,0.00,-0.80,0.00,0.00,-0.00,-0.00,0.000,-0.001,-0.000,0.306,3.141,-0.000,0.383,0.000,0.316,-0.00,-0.00,0.02
0.063,takeoff,1,326,176,0.46,0.00,0.00,-0.80,0.00,0.01,-0.00,-0.03,0.000,-0.003,-0.000,0.306,3.141,-0.000,0.386,0.000,0.314,-0.00,-0.00,0.02
0.063,takeoff,1,326,176,0.46,0.00,0.00,-0.80,0.00,0.01,-0.00,-0.03,0.000,-0.003,-0.000,0.306,3.141,-0.000,0.386,0.000,0.314,-0.00,-0.00,0.02
0.063,takeoff,1,326,176,0.46,0.00,0.00,-0.80,0.00,0.01,-0.00,-0.03,0.000,-0.003,-0.000,0.301,3.141,-0.000,0.380,0.000,0.314,-0.00,-0.00,0.02
0.063,takeoff,1,326,176,0.46,0.00,0.00,-0.80,0.00,0.01,-0.00,-0.03,0.000,-0.003,-0.000,0.301,3.141,-0.000,0.380,0.000,0.314,-0.00,-0.00,0.02
0.063,takeoff,1,326,180,0.46,0.00,0.00,-0.80,0.00,0.01,-0.00,-0.03,0.000,-0.003,-0.000,0.301,3.141,-0.000,0.380,0.000,0.314,-0.00,-0.00,0.02
0.063,takeoff,1,326,180,0.46,0.00,0.00,-0.80,0.00,0.01,-0.00,-0.07,0.000,-0.006,-0.000,0.301,3.141,-0.000,0.384,0.000,0.311,-0.00,-0.00,0.02
0.078,takeoff,1,326,180,0.46,0.00,0.00,-0.80,0.00,0.03,-0.00,-0.07,0.000,-0.006,-0.000,0.295,3.141,-0.000,0.376,0.000,0.312,-0.00,-0.00,0.02
0.078,takeoff,1,326,180,0.46,0.00,0.00,-0.80,0.00,0.03,-0.00,-0.07,0.000,-0.006,-0.000,0.295,3.141,-0.000,0.376,0.000,0.312,-0.00,-0.00,0.02
0.078,takeoff,1,326,180,0.46,0.00,0.00,-0.80,0.00,0.03,-0.00,-0.07,0.000,-0.006,-0.000,0.295,3.141,-0.000,0.376,0.000,0.312,-0.00,-0.00,0.02
0.078,takeoff,1,326,180,0.46,0.00,0.00,-0.80,0.00,0.03,-0.00,-0.08,0.000,-0.008,-0.000,0.287,3.141,-0.000,0.369,0.000,0.310,-0.00,-0.00,0.02
0.078,takeoff,1,326,180,0.46,0.00,0.00,-0.80,0.00,0.03,-0.00,-0.08,0.000,-0.008,-0.000,0.287,3.141,-0.000,0.369,0.000,0.310,-0.00,-0.00,0.02
0.078,takeoff,1,326,180,0.46,0.00,0.00,-0.80,0.00,0.06,-0.00,-0.08,0.000,-0.008,-0.000,0.287,3.141,-0.000,0.369,0.000,0.310,-0.00,-0.00,0.02
0.094,takeoff,1,326,180,0.46,0.00,0.00,-0.80,0.00,0.06,-0.00,-0.10,0.000,-0.013,-0.000,0.269,3.141,-0.000,0.352,0.000,0.309,-0.00,0.00,0.02
0.094,takeoff,1,326,180,0.46,0.00,0.00,-0.80,0.00,0.06,-0.00,-0.10,0.000,-0.013,-0.000,0.269,3.141,-0.000,0.352,0.000,0.309,-0.00,0.00,0.02
0.094,takeoff,1,326,180,0.46,0.00,0.00,-0.80,0.00,0.09,-0.00,-0.11,0.000,-0.015,-0.000,0.259,3.141,-0.000,0.342,0.000,0.309,-0.00,0.00,0.02
0.109,takeoff,1,326,194,0.47,0.00,0.00,-0.80,0.00,0.09,-0.00,-0.11,0.000,-0.015,-0.000,0.259,3.141,-0.000,0.342,0.000,0.309,-0.00,0.00,0.02
0.109,takeoff,1,326,194,0.47,0.00,0.00,-0.80,0.00,0.09,-0.00,-0.11,0.000,-0.015,-0.000,0.250,3.141,-0.000,0.331,0.000,0.309,-0.00,0.00,0.02
0.109,takeoff,1,326,194,0.47,0.00,0.00,-0.80,0.00,0.09,-0.00,-0.12,0.000,-0.020,-0.000,0.250,3.141,-0.000,0.337,0.000,0.308,-0.01,0.00,0.02
0.109,takeoff,1,326,194,0.47,0.00,0.00,-0.80,0.00,0.13,-0.00,-0.12,0.000,-0.020,-0.000,0.250,3.141,-0.000,0.337,0.000,0.308,-0.01,0.00,0.02
0.109,takeoff,1,326,194,0.47,0.00,0.00,-0.80,0.00,0.13,-0.00,-0.12,0.000,-0.020,-0.000,0.241,3.141,-0.000,0.326,0.000,0.308,-0.01,0.00,0.02
0.125,takeoff,1,326,194,0.47,0.00,0.00,-0.80,0.00,0.13,-0.00,-0.12,0.000,-0.020,-0.000,0.241,3.141,-0.000,0.326,0.000,0.309,-0.01,0.00,0.02
0.125,takeoff,1,326,194,0.47,0.00,0.00,-0.80,0.00,0.13,-0.00,-0.13,0.000,-0.022,-0.000,0.241,3.141,-0.000,0.329,0.000,0.308,-0.01,0.00,0.01
0.125,takeoff,1,326,194,0.47,0.00,0.00,-0.80,0.00,0.16,-0.00,-0.13,0.000,-0.022,-0.000,0.227,3.141,-0.000,0.311,0.000,0.308,-0.01,0.00,0.01
0.125,takeoff,1,326,194,0.47,0.00,0.00,-0.80,0.00,0.16,-0.00,-0.13,0.000,-0.022,-0.000,0.227,3.141,-0.000,0.311,0.000,0.308,-0.01,0.00,0.01
0.125,takeoff,1,326,194,0.47,0.00,0.00,-0.80,0.00,0.16,-0.00,-0.15,0.000,-0.026,-0.000,0.221,3.141,-0.000,0.309,0.000,0.306,-0.01,0.00,0.01
0.141,takeoff,1,326,194,0.47,0.00,0.00,-0.80,0.00,0.16,-0.00,-0.15,0.000,-0.026,-0.000,0.221,3.141,-0.000,0.309,0.000,0.307,-0.01,0.00,0.01
0.141,takeoff,1,326,206,0.47,0.00,0.00,-0.80,0.00,0.16,-0.00,-0.15,0.000,-0.026,-0.000,0.221,3.141,-0.000,0.309,0.000,0.307,-0.01,0.00,0.01
0.141,takeoff,1,326,206,0.47,0.00,0.00,-0.80,0.00,0.20,-0.00,-0.17,0.000,-0.029,0.000,0.216,3.141,-0.000,0.305,0.000,0.306,-0.01,0.00,0.01
0.141,takeoff,1,326,206,0.47,0.00,0.00,-0.80,0.00,0.20,-0.00,-0.17,0.000,-0.029,0.000,0.216,3.141,-0.000,0.305,0.000,0.306,-0.01,0.00,0.01
0.141,takeoff,1,326,206,0.47,0.00,0.00,-0.80,0.00,0.20,-0.00,-0.17,0.000,-0.029,0.000,0.216,3.141,-0.000,0.305,0.000,0.306,-0.01,0.00,0.01
0.141,takeoff,1,326,206,0.47,0.00,0.00,-0.80,0.00,0.20,-0.00,-0.17,0.000,-0.029,0.000,0.216,3.141,-0.000,0.305,0.000,0.306,-0.01,0.00,0.01
0.156,takeoff,1,326,206,0.47,0.00,0.00,-0.80,0.00,0.20,-0.00,-0.17,0.000,-0.029,0.000,0.210,3.141,-0.000,0.299,0.000,0.306,-0.01,0.00,0.01
0.156,takeoff,1,326,206,0.47,0.00,0.00,-0.80,0.00,0.20,-0.00,-0.19,0.000,-0.033,0.000,0.210,3.141,-0.000,0.304,0.000,0.304,-0.02,0.00,0.01
0.156,takeoff,1,326,206,0.47,0.00,0.00,-0.80,0.00,0.23,-0.00,-0.19,0.000,-0.033,0.000,0.210,3.141,-0.000,0.304,0.000,0.304,-0.02,0.00,0.01
0.156,takeoff,1,326,206,0.47,0.00,0.00,-0.80,0.00,0.23,-0.00,-0.19,0.000,-0.033,0.000,0.210,3.141,-0.000,0.304,0.000,0.304,-0.02,0.00,0.01
0.156,takeoff,1,326,206,0.47,0.00,0.00,-0.80,0.00,0.23,-0.00,-0.19,0.000,-0.033,0.000,0.200,3.141,-0.000,0.291,0.000,0.304,-0.02,0.00,0.01
0.156,takeoff,1,326,206,0.47,0.00,0.00,-0.80,0.00,0.23,-0.00,-0.19,0.000,-0.033,0.000,0.200,3.141,-0.000,0.291,0.000,0.304,-0.02,0.00,0.01
0.172,takeoff,1,326,206,0.47,0.00,0.00,-0.80,0.00,0.23,-0.00,-0.20,0.000,-0.035,0.000,0.200,3.141,-0.000,0.293,0.000,0.304,-0.02,0.00,0.01
0.172,takeoff,1,326,206,0.47,0.00,0.00,-0.80,0.00,0.23,-0.00,-0.20,0.000,-0.035,0.000,0.195,3.141,-0.000,0.287,0.000,0.304,-0.02,0.00,0.01
0.172,takeoff,1,326,206,0.47,0.00,0.00,-0.80,0.00,0.26,-0.00,-0.20,0.000,-0.035,0.000,0.195,3.141,-0.000,0.287,0.000,0.304,-0.02,0.00,0.01
0.172,takeoff,1,326,214,0.50,0.00,0.00,-0.80,0.00,0.26,-0.00,-0.20,0.000,-0.035,0.000,0.195,3.141,-0.000,0.287,0.000,0.304,-0.02,0.00,0.01
0.172,takeoff,1,326,214,0.50,0.00,0.00,-0.80,0.00,0.26,-0.00,-0.22,0.000,-0.037,0.000,0.195,3.141,-0.000,0.289,0.000,0.303,-0.02,0.00,0.01
0.172,takeoff,1,326,214,0.50,0.00,0.00,-0.80,0.00,0.26,-0.00,-0.22,0.000,-0.037,0.000,0.195,3.141,-0.000,0.289,0.000,0.303,-0.02,0.00,0.01
0.172,takeoff,1,326,214,0.50,0.00,0.00,-0.80,0.00,0.26,-0.00,-0.22,0.000,-0.037,0.000,0.195,3.141,-0.000,0.289,0.000,0.303,-0.02,0.00,0.01
0.188,takeoff,1,326,214,0.50,0.00,0.00,-0.80,0.00,0.26,-0.00,-0.22,0.000,-0.037,0.000,0.195,3.141,-0.000,0.289,0.000,0.303,-0.02,0.00,0.01
0.188,takeoff,1,326,214,0.50,0.00,0.00,-0.80,0.00,0.28,-0.00,-0.22,0.000,-0.037,0.000,0.195,3.141,-0.000,0.289,0.000,0.303,-0.02,0.00,0.01
0.188,takeoff,1,326,214,0.50,0.00,0.00,-0.80,0.00,0.28,-0.00,-0.25,0.000,-0.042,0.000,0.180,3.141,-0.000,0.277,0.000,0.300,-0.03,0.00,0.00
0.188,takeoff,1,326,214,0.50,0.00,0.00,-0.80,0.00,0.28,-0.00,-0.25,0.000,-0.042,0.000,0.180,3.141,-0.000,0.277,0.000,0.300,-0.03,0.00,0.00
0.188,takeoff,1,326,214,0.50,0.00,0.00,-0.80,0.00,0.28,-0.00,-0.25,0.000,-0.042,0.000,0.180,3.141,-0.000,0.277,0.000,0.300,-0.03,0.00,0.00
0.188,takeoff,1,326,214,0.50,0.00,0.00,-0.80,0.00,0.28,-0.00,-0.25,0.000,-0.042,0.000,0.180,3.141,-0.000,0.277,0.000,0.300,-0.03,0.00,0.00
0.188,takeoff,1,326,214,0.50,0.00,0.00,-0.80,0.00,0.28,-0.00,-0.25,0.000,-0.042,0.000,0.175,3.141,-0.000,0.271,0.000,0.300,-0.03,0.00,0.00
0.188,takeoff,1,326,214,0.50,0.00,0.00,-0.80,0.00,0.31,-0.00,-0.27,0.000,-0.044,0.000,0.175,3.141,-0.000,0.273,0.000,0.299,-0.03,0.00,-0.00
0.203,takeoff,1,326,214,0.50,0.00,0.00,-0.80,0.00,0.31,-0.00,-0.27,0.000,-0.044,0.000,0.175,3.141,-0.000,0.273,0.000,0.300,-0.03,0.00,-0.00
0.203,takeoff,1,326,214,0.50,0.00,0.00,-0.80,0.00,0.31,-0.00,-0.27,0.000,-0.044,0.000,0.175,3.141,-0.000,0.273,0.000,0.300,-0.03,0.00,-0.00
0.203,takeoff,1,326,222,0.50,0.00,0.00,-0.80,0.00,0.31,-0.00,-0.27,0.000,-0.044,0.000,0.170,3.141,-0.000,0.266,0.000,0.300,-0.03,0.00,-0.00
0.203,takeoff,1,326,222,0.50,0.00,0.00,-0.80,0.00,0.31,-0.00,-0.27,0.000,-0.044,0.000,0.170,3.141,-0.000,0.266,0.000,0.300,-0.03,0.00,-0.00
0.203,takeoff,1,326,222,0.50,0.00,0.00,-0.80,0.00,0.31,-0.00,-0.29,0.000,-0.047,0.000,0.170,3.141,-0.000,0.271,0.000,0.297,-0.03,0.00,-0.00
0.203,takeoff,1,326,222,0.50,0.00,0.00,-0.80,0.00,0.34,-0.00,-0.29,0.000,-0.047,0.000,0.170,3.141,-0.000,0.271,0.000,0.297,-0.03,0.00,-0.00
0.219,takeoff,1,326,222,0.50,0.00,0.00,-0.80,0.00,0.34,-0.00,-0.29,0.000,-0.047,0.000,0.170,3.141,-0.000,0.271,0.000,0.298,-0.03,0.00,-0.00
0.219,takeoff,1,326,222,0.50,0.00,0.00,-0.80,0.00,0.34,-0.00,-0.29,0.000,-0.047,0.000,0.159,3.141,-0.000,0.258,0.000,0.298,-0.03,0.00,-0.00
0.219,takeoff,1,326,222,0.50,0.00,0.00,-0.80,0.00,0.34,-0.00,-0.29,0.000,-0.047,0.000,0.159,3.141,-0.000,0.258,0.000,0.298,-0.03,0.00,-0.00
0.219,takeoff,1,326,222,0.50,0.00,0.00,-0.80,0.00,0.34,-0.00,-0.31,0.000,-0.049,0.000,0.159,3.141,-0.000,0.260,0.000,0.297,-0.04,0.00,-0.01
0.219,takeoff,1,326,222,0.50,0.00,0.00,-0.80,0.00,0.34,-0.00,-0.31,0.000,-0.049,0.000,0.159,3.141,-0.000,0.260,0.000,0.297,-0.04,0.00,-0.01
0.219,takeoff,1,326,222,0.50,0.00,0.00,-0.80,0.00,0.36,-0.00,-0.31,0.000,-0.049,0.000,0.154,3.141,-0.000,0.254,0.000,0.297,-0.04,0.00,-0.01
0.219,takeoff,1,326,222,0.50,0.00,0.00,-0.80,0.00,0.36,-0.00,-0.31,0.000,-0.049,0.000,0.154,3.141,-0.000,0.254,0.000,0.297,-0.04,0.00,-0.01
0.234,takeoff,1,326,222,0.50,0.00,0.00,-0.80,0.00,0.36,-0.00,-0.33,0.000,-0.052,0.000,0.154,3.141,-0.000,0.258,0.000,0.295,-0.04,0.00,-0.01
0.234,takeoff,1,326,222,0.50,0.00,0.00,-0.80,0.00,0.36,-0.00,-0.33,0.000,-0.052,0.000,0.154,3.141,-0.000,0.258,0.000,0.295,-0.04,0.00,-0.01
0.234,takeoff,1,326,222,0.50,0.00,0.00,-0.80,0.00,0.36,-0.00,-0.33,0.000,-0.052,0.000,0.150,3.141,-0.000,0.252,0.000,0.295,-0.04,0.00,-0.01
0.234,takeoff,1,326,222,0.50,0.00,0.00,-0.80,0.00,0.36,-0.00,-0.33,0.000,-0.052,0.000,0.150,3.141,-0.000,0.252,0.000,0.295,-0.04,0.00,-0.01
0.234,takeoff,1,326,222,0.50,0.00,0.00,-0.80,0.00,0.39,-0.00,-0.33,0.000,-0.052,0.000,0.150,3.141,-0.000,0.252,0.000,0.295,-0.04,0.00,-0.01
0.234,takeoff,1,326,230,0.51,0.00,0.00,-0.80,0.00,0.39,-0.00,-0.35,0.000,-0.053,0.000,0.145,3.141,-0.000,0.247,0.000,0.294,-0.05,0.00,-0.01
0.234,takeoff,1,326,230,0.51,0.00,0.00,-0.80,0.00,0.39,-0.00,-0.35,0.000,-0.053,0.000,0.145,3.141,-0.000,0.247,0.000,0.294,-0.05,0.00,-0.01
0.250,takeoff,1,326,230,0.51,0.00,0.00,-0.80,0.00,0.39,-0.00,-0.35,0.000,-0.053,0.000,0.145,3.141,-0.000,0.247,0.000,0.294,-0.05,0.00,-0.01
0.250,takeoff,1,326,230,0.51,0.00,0.00,-0.80,0.00,0.39,-0.00,-0.35,0.000,-0.053,0.000,0.136,3.141,-0.000,0.236,0.000,0.294,-0.05,0.00,-0.01
0.250,takeoff,1,326,230,0.51,0.00,0.00,-0.80,0.00,0.39,-0.00,-0.37,0.000,-0.056,0.000,0.136,3.141,-0.000,0.239,0.000,0.293,-0.05,0.00,-0.02
0.250,takeoff,1,326,230,0.51,0.00,0.00,-0.80,0.00,0.41,-0.00,-0.37,0.000,-0.056,0.000,0.136,3.141,-0.000,0.239,0.000,0.293,-0.05,0.00,-0.02
0.250,takeoff,1,326,230,0.51,0.00,0.00,-0.80,0.00,0.41,-0.00,-0.37,0.000,-0.056,0.000,0.136,3.141,-0.000,0.239,0.000,0.293,-0.05,0.00,-0.02
0.250,takeoff,1,326,230,0.51,0.00,0.00,-0.80,0.00,0.41,-0.00,-0.37,0.000,-0.056,0.000,0.131,3.141,-0.000,0.233,0.000,0.293,-0.05,0.00,-0.02
0.266,takeoff,1,326,230,0.51,0.00,0.00,-0.80,0.00,0.41,-0.00,-0.37,0.000,-0.056,0.000,0.131,3.141,-0.000,0.233,0.000,0.293,-0.05,0.00,-0.02
0.266,takeoff,1,326,230,0.51,0.00,0.00,-0.80,0.00,0.41,-0.00,-0.39,0.000,-0.058,0.000,0.131,3.141,-0.000,0.237,0.000,0.291,-0.06,0.00,-0.02
0.266,takeoff,1,326,230,0.51,0.00,0.00,-0.80,0.00,0.43,-0.00,-0.39,0.000,-0.058,0.000,0.131,3.141,-0.000,0.237,0.000,0.291,-0.06,0.00,-0.02
0.266,takeoff,1,326,230,0.51,0.00,0.00,-0.80,0.00,0.43,-0.00,-0.39,0.000,-0.058,0.000,0.127,3.141,-0.000,0.231,0.000,0.291,-0.06,0.00,-0.02
0.266,takeoff,1,326,230,0.51,0.00,0.00,-0.80,0.00,0.43,-0.00,-0.39,0.000,-0.058,0.000,0.127,3.141,-0.000,0.231,0.000,0.291,-0.06,0.00,-0.02
0.266,takeoff,1,326,230,0.51,0.00,0.00,-0.80,0.00,0.43,-0.00,-0.40,0.000,-0.059,0.000,0.127,3.141,-0.000,0.232,0.000,0.291,-0.06,0.00,-0.03
0.266,takeoff,1,326,238,0.50,0.00,0.00,-0.80,0.00,0.43,-0.00,-0.40,0.000,-0.059,0.000,0.127,3.141,-0.000,0.232,0.000,0.291,-0.06,0.00,-0.03
0.281,takeoff,1,326,238,0.50,0.00,0.00,-0.80,0.00,0.43,-0.00,-0.40,0.000,-0.059,0.000,0.118,3.141,-0.000,0.222,0.000,0.291,-0.06,0.00,-0.03
0.281,takeoff,1,326,238,0.50,0.00,0.00,-0.80,0.00,0.43,-0.00,-0.40,0.000,-0.059,0.000,0.118,3.141,-0.000,0.222,0.000,0.291,-0.06,0.00,-0.03
0.281,takeoff,1,326,238,0.50,0.00,0.00,-0.80,0.00,0.45,-0.00,-0.40,0.000,-0.059,0.000,0.118,3.141,-0.000,0.222,0.000,0.291,-0.06,0.00,-0.03
0.281,takeoff,1,326,238,0.50,0.00,0.00,-0.80,0.00,0.45,-0.00,-0.41,0.000,-0.062,0.000,0.114,3.141,-0.000,0.219,0.000,0.290,-0.07,0.00,-0.03
0.281,takeoff,1,326,238,0.50,0.00,0.00,-0.80,0.00,0.45,-0.00,-0.41,0.000,-0.062,0.000,0.114,3.141,-0.000,0.219,0.000,0.290,-0.07,0.00,-0.03
0.281,takeoff,1,326,238,0.50,0.00,0.00,-0.80,0.00,0.45,-0.00,-0.41,0.000,-0.062,0.000,0.114,3.141,-0.000,0.219,0.000,0.290,-0.07,0.00,-0.03
0.297,takeoff,1,326,238,0.50,0.00,0.00,-0.80,0.00,0.45,-0.00,-0.41,0.000,-0.062,0.000,0.114,3.141,-0.000,0.219,0.000,0.290,-0.07,0.00,-0.03
0.297,takeoff,1,326,238,0.50,0.00,0.00,-0.80,0.00,0.47,-0.00,-0.42,0.000,-0.063,0.000,0.109,3.141,-0.000,0.215,0.000,0.290,-0.07,0.00,-0.04
0.297,takeoff,1,326,238,0.50,0.00,0.00,-0.80,0.00,0.47,-0.00,-0.42,0.000,-0.063,0.000,0.109,3.141,-0.000,0.215,0.000,0.290,-0.07,0.00,-0.04
0.297,takeoff,1,326,238,0.50,0.00,0.00,-0.80,0.00,0.47,-0.00,-0.42,0.000,-0.063,0.000,0.109,3.141,-0.000,0.215,0.000,0.290,-0.07,0.00,-0.04
0.297,takeoff,1,326,238,0.50,0.00,0.00,-0.80,0.00,0.47,-0.00,-0.42,0.000,-0.063,0.000,0.109,3.141,-0.000,0.215,0.000,0.290,-0.07,0.00,-0.04
0.297,takeoff,1,326,244,0.51,0.00,0.00,-0.80,0.00,0.47,-0.00,-0.42,0.000,-0.063,0.000,0.109,3.141,-0.000,0.215,0.000,0.290,-0.07,0.00,-0.04
0.297,takeoff,1,326,244,0.51,0.00,0.00,-0.80,0.00,0.47,-0.00,-0.43,0.000,-0.065,0.000,0.101,3.141,-0.000,0.207,0.000,0.289,-0.08,0.00,-0.04
0.297,takeoff,1,326,244,0.51,0.00,0.00,-0.80,0.00,0.47,-0.00,-0.43,0.000,-0.065,0.000,0.101,3.141,-0.000,0.207,0.000,0.289,-0.08,0.00,-0.04
0.313,takeoff,1,326,244,0.51,0.00,0.00,-0.80,0.00,0.49,-0.00,-0.43,0.000,-0.065,0.000,0.101,3.141,-0.000,0.207,0.000,0.289,-0.08,0.00,-0.04
0.313,takeoff,1,326,244,0.51,0.00,0.00,-0.80,0.00,0.49,-0.00,-0.43,0.000,-0.065,0.000,0.101,3.141,-0.000,0.207,0.000,0.289,-0.08,0.00,-0.04
0.313,takeoff,1,326,244,0.51,0.00,0.00,-0.80,0.00,0.49,-0.00,-0.43,0.000,-0.065,0.000,0.097,3.141,-0.000,0.202,0.000,0.289,-0.08,0.00,-0.04
0.313,takeoff,1,326,244,0.51,0.00,0.00,-0.80,0.00,0.49,-0.00,-0.44,0.000,-0.065,0.000,0.097,3.141,-0.000,0.204,0.000,0.288,-0.08,0.00,-0.04
0.313,takeoff,1,326,244,0.51,0.00,0.00,-0.80,0.00,0.49,-0.00,-0.44,0.000,-0.065,0.000,0.097,3.141,-0.000,0.204,0.000,0.288,-0.08,0.00,-0.04
0.313,takeoff,1,326,244,0.51,0.00,0.00,-0.80,0.00,0.49,-0.00,-0.44,0.000,-0.065,0.000,0.097,3.141,-0.000,0.204,0.000,0.288,-0.08,0.00,-0.04
0.313,takeoff,1,326,244,0.51,0.00,0.00,-0.80,0.00,0.51,-0.00,-0.44,0.000,-0.065,0.000,0.094,3.141,-0.000,0.199,0.000,0.288,-0.08,0.00,-0.04
0.328,takeoff,1,326,244,0.51,0.00,0.00,-0.80,0.00,0.51,-0.00,-0.44,0.000,-0.065,0.000,0.094,3.141,-0.000,0.199,0.000,0.289,-0.08,0.00,-0.04
0.328,takeoff,1,326,244,0.51,0.00,0.00,-0.80,0.00,0.51,-0.00,-0.45,0.000,-0.067,0.000,0.094,3.141,-0.000,0.201,0.000,0.288,-0.09,0.00,-0.05
0.328,takeoff,1,326,244,0.51,0.00,0.00,-0.80,0.00,0.51,-0.00,-0.45,0.000,-0.067,0.000,0.094,3.141,-0.000,0.201,0.000,0.288,-0.09,0.00,-0.05
0.328,takeoff,1,326,244,0.51,0.00,0.00,-0.80,0.00,0.51,-0.00,-0.45,0.000,-0.067,0.000,0.094,3.141,-0.000,0.201,0.000,0.288,-0.09,0.00,-0.05
0.328,takeoff,1,326,244,0.51,0.00,0.00,-0.80,0.00,0.51,-0.00,-0.45,0.000,-0.067,0.000,0.086,3.141,-0.000,0.192,0.000,0.288,-0.09,0.00,-0.05
0.328,takeoff,1,326,244,0.51,0.00,0.00,-0.80,0.00,0.51,-0.00,-0.45,0.000,-0.067,0.000,0.086,3.141,-0.000,0.192,0.000,0.288,-0.09,0.00,-0.05
0.328,takeoff,1,326,250,0.48,0.00,0.00,-0.80,0.00,0.52,-0.00,-0.45,0.000,-0.068,0.000,0.086,3.141,-0.000,0.193,0.000,0.287,-0.10,0.00,-0.05
0.344,takeoff,1,326,250,0.48,0.00,0.00,-0.80,0.00,0.52,-0.00,-0.45,0.000,-0.068,0.000,0.086,3.141,-0.000,0.193,0.000,0.288,-0.10,0.00,-0.05
0.344,takeoff,1,326,250,0.48,0.00,0.00,-0.80,0.00,0.52,-0.00,-0.45,0.000,-0.068,0.000,0.082,3.141,-0.000,0.188,0.000,0.288,-0.10,0.00,-0.05
0.344,takeoff,1,326,250,0.48,0.00,0.00,-0.80,0.00,0.52,-0.00,-0.45,0.000,-0.068,0.000,0.082,3.141,-0.000,0.188,0.000,0.288,-0.10,0.00,-0.05
0.344,takeoff,1,326,250,0.48,0.00,0.00,-0.80,0.00,0.52,-0.00,-0.46,0.000,-0.069,0.000,0.082,3.141,-0.000,0.190,0.000,0.287,-0.10,0.00,-0.06
0.344,takeoff,1,326,250,0.48,0.00,0.00,-0.80,0.00,0.52,-0.00,-0.46,0.000,-0.069,0.000,0.079,3.141,-0.000,0.185,0.000,0.287,-0.10,0.00,-0.06
0.344,takeoff,1,326,250,0.48,0.00,0.00,-0.80,0.00,0.54,-0.00,-0.46,0.000,-0.069,0.000,0.079,3.141,-0.000,0.185,0.000,0.287,-0.10,0.00,-0.06
0.344,takeoff,1,326,250,0.48,0.00,0.00,-0.80,0.00,0.54,-0.00,-0.46,0.000,-0.069,0.000,0.079,3.141,-0.000,0.185,0.000,0.287,-0.10,0.00,-0.06
0.359,takeoff,1,326,250,0.48,0.00,0.00,-0.80,0.00,0.54,-0.00,-0.46,0.000,-0.069,0.000,0.079,3.141,-0.000,0.185,0.000,0.287,-0.10,0.00,-0.06
0.359,takeoff,1,326,250,0.48,0.00,0.00,-0.80,0.00,0.54,-0.00,-0.47,0.000,-0.070,0.000,0.075,3.141,-0.000,0.181,0.000,0.287,-0.11,0.00,-0.06
0.359,takeoff,1,326,250,0.48,0.00,0.00,-0.80,0.00,0.54,-0.00,-0.47,0.000,-0.070,0.000,0.075,3.141,-0.000,0.181,0.000,0.287,-0.11,0.00,-0.06
0.359,takeoff,1,326,250,0.48,0.00,0.00,-0.80,0.00,0.54,-0.00,-0.47,0.000,-0.070,0.000,0.075,3.141,-0.000,0.181,0.000,0.287,-0.11,0.00,-0.06
0.359,takeoff,1,326,250,0.48,0.00,0.00,-0.80,0.00,0.55,-0.00,-0.47,0.000,-0.070,0.000,0.075,3.141,-0.000,0.181,0.000,0.287,-0.11,0.00,-0.06
0.359,takeoff,1,326,250,0.48,0.00,0.00,-0.80,0.00,0.55,-0.00,-0.47,0.000,-0.070,0.000,0.068,3.141,-0.000,0.173,0.000,0.287,-0.11,0.00,-0.06
0.359,takeoff,1,326,250,0.48,0.00,0.00,-0.80,0.00,0.55,-0.00,-0.48,0.000,-0.071,0.000,0.068,3.141,-0.000,0.174,0.000,0.286,-0.12,0.00,-0.07
0.375,takeoff,1,326,250,0.48,0.00,0.00,-0.80,0.00,0.55,-0.00,-0.48,0.000,-0.071,0.000,0.068,3.141,-0.000,0.174,0.000,0.286,-0.12,0.00,-0.07
0.375,takeoff,1,326,257,0.50,0.00,0.00,-0.80,0.00,0.55,-0.00,-0.48,0.000,-0.071,0.000,0.068,3.141,-0.000,0.174,0.000,0.286,-0.12,0.00,-0.07
0.375,takeoff,1,326,257,0.50,0.00,0.00,-0.80,0.00,0.55,-0.00,-0.48,0.000,-0.071,0.000,0.065,3.141,-0.000,0.170,0.000,0.286,-0.12,0.00,-0.07
0.375,takeoff,1,326,257,0.50,0.00,0.00,-0.80,0.00,0.57,-0.00,-0.48,0.000,-0.072,0.000,0.065,3.141,-0.000,0.171,0.000,0.286,-0.12,0.00,-0.07
0.375,takeoff,1,326,257,0.50,0.00,0.00,-0.80,0.00,0.57,-0.00,-0.48,0.000,-0.072,0.000,0.065,3.141,-0.000,0.171,0.000,0.286,-0.12,0.00,-0.07
0.375,takeoff,1,326,257,0.50,0.00,0.00,-0.80,0.00,0.57,-0.00,-0.48,0.000,-0.072,0.000,0.065,3.141,-0.000,0.171,0.000,0.286,-0.12,0.00,-0.07
0.391,takeoff,1,326,257,0.50,0.00,0.00,-0.80,0.00,0.57,-0.00,-0.48,0.000,-0.072,0.000,0.062,3.141,-0.000,0.167,0.000,0.286,-0.12,0.00,-0.07
0.391,takeoff,1,326,257,0.50,0.00,0.00,-0.80,0.00,0.57,-0.00,-0.48,0.000,-0.072,0.000,0.062,3.141,-0.000,0.167,0.000,0.286,-0.12,0.00,-0.07
0.391,takeoff,1,326,257,0.50,0.00,0.00,-0.80,0.00,0.57,-0.00,-0.49,0.000,-0.073,0.000,0.062,3.141,-0.000,0.168,0.000,0.285,-0.13,0.00,-0.08
0.391,takeoff,1,326,257,0.50,0.00,0.00,-0.80,0.00,0.58,-0.00,-0.49,0.000,-0.073,0.000,0.062,3.141,-0.000,0.168,0.000,0.285,-0.13,0.00,-0.08
0.391,takeoff,1,326,257,0.50,0.00,0.00,-0.80,0.00,0.58,-0.00,-0.49,0.000,-0.073,0.000,0.062,3.141,-0.000,0.168,0.000,0.285,-0.13,0.00,-0.08
0.391,takeoff,1,326,257,0.50,0.00,0.00,-0.80,0.00,0.58,-0.00,-0.49,0.000,-0.073,0.000,0.055,3.141,-0.000,0.160,0.000,0.285,-0.13,0.00,-0.08
0.391,takeoff,1,326,257,0.50,0.00,0.00,-0.80,0.00,0.58,-0.00,-0.49,0.000,-0.073,0.000,0.055,3.141,-0.000,0.160,0.000,0.285,-0.13,0.00,-0.08
0.391,takeoff,1,326,257,0.50,0.00,0.00,-0.80,0.00,0.58,-0.00,-0.49,0.000,-0.073,0.000,0.055,3.141,-0.000,0.160,0.000,0.285,-0.13,0.00,-0.08
0.406,takeoff,1,326,257,0.50,0.00,0.00,-0.80,0.00,0.58,-0.00,-0.50,0.000,-0.074,0.000,0.055,3.141,-0.000,0.162,0.000,0.285,-0.14,0.00,-0.09
0.406,takeoff,1,326,257,0.50,0.00,0.00,-0.80,0.00,0.59,-0.00,-0.50,0.000,-0.074,0.000,0.052,3.141,-0.000,0.158,0.000,0.285,-0.14,0.00,-0.09
0.406,takeoff,1,326,262,0.50,0.00,0.00,-0.80,0.00,0.59,-0.00,-0.50,0.000,-0.074,0.000,0.052,3.141,-0.000,0.158,0.000,0.285,-0.14,0.00,-0.09
0.406,takeoff,1,326,262,0.50,0.00,0.00,-0.80,0.00,0.59,-0.00,-0.50,0.000,-0.074,0.000,0.052,3.141,-0.000,0.158,0.000,0.285,-0.14,0.00,-0.09
0.406,takeoff,1,326,262,0.50,0.00,0.00,-0.80,0.00,0.59,-0.00,-0.50,0.000,-0.074,0.000,0.052,3.141,-0.000,0.158,0.000,0.285,-0.14,0.00,-0.09
0.406,takeoff,1,326,262,0.50,0.00,0.00,-0.80,0.00,0.59,-0.00,-0.51,0.000,-0.074,0.000,0.052,3.141,-0.000,0.158,0.000,0.284,-0.14,0.00,-0.09
0.406,takeoff,1,326,262,0.50,0.00,0.00,-0.80,0.00,0.59,-0.00,-0.51,0.000,-0.074,0.000,0.049,3.141,-0.000,0.155,0.000,0.284,-0.14,0.00,-0.09
0.422,takeoff,1,326,262,0.50,0.00,0.00,-0.80,0.00,0.60,-0.00,-0.51,0.000,-0.074,0.000,0.049,3.141,-0.000,0.155,0.000,0.284,-0.14,0.00,-0.09
0.422,takeoff,1,326,262,0.50,0.00,0.00,-0.80,0.00,0.60,-0.00,-0.51,0.000,-0.074,0.000,0.049,3.141,-0.000,0.155,0.000,0.284,-0.14,0.00,-0.09
0.422,takeoff,1,326,262,0.50,0.00,0.00,-0.80,0.00,0.60,-0.00,-0.51,0.000,-0.074,0.000,0.049,3.141,-0.000,0.155,0.000,0.284,-0.14,0.00,-0.09
0.422,takeoff,1,326,262,0.50,0.00,0.00,-0.80,0.00,0.60,-0.00,-0.52,0.000,-0.075,0.000,0.043,3.141,-0.000,0.148,0.000,0.284,-0.15,0.00,-0.10
0.422,takeoff,1,326,262,0.50,0.00,0.00,-0.80,0.00,0.60,-0.00,-0.52,0.000,-0.075,0.000,0.043,3.141,-0.000,0.148,0.000,0.284,-0.15,0.00,-0.10
0.422,takeoff,1,326,262,0.50,0.00,0.00,-0.80,0.00,0.60,-0.00,-0.52,0.000,-0.075,0.000,0.043,3.141,-0.000,0.148,0.000,0.284,-0.15,0.00,-0.10
0.422,takeoff,1,326,262,0.50,0.00,0.00,-0.80,0.00,0.60,-0.00,-0.52,0.000,-0.075,0.000,0.043,3.141,-0.000,0.148,0.000,0.284,-0.15,0.00,-0.10
0.438,takeoff,1,326,262,0.50,0.00,0.00,-0.80,0.00,0.61,-0.00,-0.52,0.000,-0.075,0.000,0.040,3.141,-0.000,0.145,0.000,0.284,-0.15,0.00,-0.10
0.438,takeoff,1,326,266,0.51,0.00,0.00,-0.80,0.00,0.61,-0.00,-0.52,0.000,-0.076,0.000,0.040,3.141,-0.000,0.145,0.000,0.283,-0.15,0.00,-0.10
0.438,takeoff,1,326,266,0.51,0.00,0.00,-0.80,0.00,0.61,-0.00,-0.52,0.000,-0.076,0.000,0.040,3.141,-0.000,0.145,0.000,0.283,-0.15,0.00,-0.10
0.438,takeoff,1,326,266,0.51,0.00,0.00,-0.80,0.00,0.61,-0.00,-0.52,0.000,-0.076,0.000,0.040,3.141,-0.000,0.145,0.000,0.283,-0.15,0.00,-0.10
0.438,takeoff,1,326,266,0.51,0.00,0.00,-0.80,0.00,0.61,-0.00,-0.52,0.000,-0.076,0.000,0.038,3.141,-0.000,0.142,0.000,0.283,-0.15,0.00,-0.10
0.438,takeoff,1,326,266,0.51,0.00,0.00,-0.80,0.00,0.61,-0.00,-0.52,0.000,-0.076,0.000,0.038,3.141,-0.000,0.142,0.000,0.283,-0.15,0.00,-0.10
0.438,takeoff,1,326,266,0.51,0.00,0.00,-0.80,0.00,0.62,-0.00,-0.53,0.000,-0.076,0.000,0.038,3.141,-0.000,0.142,0.000,0.283,-0.16,0.00,-0.11
0.453,takeoff,1,326,266,0.51,0.00,0.00,-0.80,0.00,0.62,-0.00,-0.53,0.000,-0.076,0.000,0.038,3.141,-0.000,0.142,0.000,0.283,-0.16,0.00,-0.11
0.453,takeoff,1,326,266,0.51,0.00,0.00,-0.80,0.00,0.62,-0.00,-0.53,0.000,-0.076,0.000,0.032,3.141,-0.000,0.136,0.000,0.283,-0.16,0.00,-0.11
0.453,takeoff,1,326,266,0.51,0.00,0.00,-0.80,0.00,0.62,-0.00,-0.53,0.000,-0.076,0.000,0.032,3.141,-0.000,0.136,0.000,0.283,-0.16,0.00,-0.11
0.453,takeoff,1,326,266,0.51,0.00,0.00,-0.80,0.00,0.62,-0.00,-0.54,0.000,-0.077,0.000,0.032,3.141,-0.000,0.136,0.000,0.283,-0.17,0.00,-0.11
0.453,takeoff,1,326,266,0.51,0.00,0.00,-0.80,0.00,0.62,-0.00,-0.54,0.000,-0.077,0.000,0.030,3.141,-0.000,0.133,0.000,0.283,-0.17,0.00,-0.11
0.453,takeoff,1,326,266,0.51,0.00,0.00,-0.80,0.00,0.62,-0.00,-0.54,0.000,-0.077,0.000,0.030,3.141,-0.000,0.133,0.000,0.283,-0.17,0.00,-0.11
0.453,takeoff,1,326,266,0.51,0.00,0.00,-0.80,0.00,0.62,-0.00,-0.54,0.000,-0.077,0.000,0.030,3.141,-0.000,0.133,0.000,0.283,-0.17,0.00,-0.11
0.469,takeoff,1,326,266,0.51,0.00,0.00,-0.80,0.00,0.62,-0.00,-0.54,0.000,-0.077,0.000,0.030,3.141,-0.000,0.133,0.000,0.283,-0.17,0.00,-0.11
0.469,takeoff,1,326,266,0.51,0.00,0.00,-0.80,0.00,0.62,-0.00,-0.55,0.000,-0.077,0.000,0.027,3.141,-0.000,0.130,0.000,0.282,-0.18,0.00,-0.12
0.469,takeoff,1,326,272,0.50,0.00,0.00,-0.80,0.00,0.62,-0.00,-0.55,0.000,-0.077,0.000,0.027,3.141,-0.000,0.130,0.000,0.282,-0.18,0.00,-0.12
0.469,takeoff,1,326,272,0.50,0.00,0.00,-0.80,0.00,0.62,-0.00,-0.55,0.000,-0.077,0.000,0.027,3.141,-0.000,0.130,0.000,0.282,-0.18,0.00,-0.12
0.469,takeoff,1,326,272,0.50,0.00,0.00,-0.80,0.00,0.62,-0.00,-0.55,0.000,-0.077,0.000,0.027,3.141,-0.000,0.130,0.000,0.282,-0.18,0.00,-0.12
0.469,takeoff,1,326,272,0.50,0.00,0.00,-0.80,0.00,0.63,-0.00,-0.55,0.000,-0.077,0.000,0.027,3.141,-0.000,0.130,0.000,0.282,-0.18,0.00,-0.12
0.469,takeoff,1,326,272,0.50,0.00,0.00,-0.80,0.00,0.63,-0.00,-0.55,0.000,-0.077,0.000,0.025,3.141,-0.000,0.127,0.000,0.282,-0.18,0.00,-0.12
0.469,takeoff,1,326,272,0.50,0.00,0.00,-0.80,0.00,0.63,-0.00,-0.55,0.000,-0.077,0.000,0.025,3.141,-0.000,0.127,0.000,0.282,-0.18,0.00,-0.12
0.484,takeoff,1,326,272,0.50,0.00,0.00,-0.80,0.00,0.63,-0.00,-0.55,0.000,-0.077,0.000,0.025,3.141,-0.000,0.127,0.000,0.282,-0.18,0.00,-0.12
0.484,takeoff,1,326,272,0.50,0.00,0.00,-0.80,0.00,0.63,-0.00,-0.55,0.000,-0.077,0.000,0.025,3.141,-0.000,0.127,0.000,0.282,-0.18,0.00,-0.12
0.484,takeoff,1,326,272,0.50,0.00,0.00,-0.80,0.00,0.63,-0.00,-0.55,0.000,-0.077,0.000,0.022,3.141,-0.000,0.124,0.000,0.282,-0.18,0.00,-0.12
0.484,takeoff,1,326,272,0.50,0.00,0.00,-0.80,0.00,0.64,-0.00,-0.56,0.000,-0.078,0.000,0.022,3.141,-0.000,0.125,0.000,0.281,-0.19,0.00,-0.13
0.484,takeoff,1,326,272,0.50,0.00,0.00,-0.80,0.00,0.64,-0.00,-0.56,0.000,-0.078,0.000,0.022,3.141,-0.000,0.125,0.000,0.281,-0.19,0.00,-0.13
0.484,takeoff,1,326,272,0.50,0.00,0.00,-0.80,0.00,0.64,-0.00,-0.56,0.000,-0.078,0.000,0.017,3.141,-0.000,0.118,0.000,0.281,-0.19,0.00,-0.13
0.500,takeoff,1,326,272,0.50,0.00,0.00,-0.80,0.00,0.64,-0.00,-0.56,0.000,-0.078,0.000,0.017,3.141,-0.000,0.118,0.000,0.281,-0.19,0.00,-0.13
0.500,takeoff,1,326,272,0.50,0.00,0.00,-0.80,0.00,0.64,-0.00,-0.56,0.000,-0.078,0.000,0.017,3.141,-0.000,0.118,0.000,0.281,-0.20,0.00,-0.14
0.500,takeoff,1,326,272,0.50,0.00,0.00,-0.80,0.00,0.64,-0.00,-0.56,0.000,-0.078,0.000,0.017,3.141,-0.000,0.118,0.000,0.281,-0.20,0.00,-0.14
0.500,takeoff,1,326,272,0.50,0.00,0.00,-0.80,0.00,0.64,-0.00,-0.56,0.000,-0.078,0.000,0.014,3.141,-0.000,0.115,0.000,0.281,-0.20,0.00,-0.14
0.500,takeoff,1,326,276,0.52,0.00,0.00,-0.80,0.00,0.64,-0.00,-0.56,0.000,-0.078,0.000,0.014,3.141,-0.000,0.115,0.000,0.281,-0.20,0.00,-0.14
0.500,takeoff,1,326,276,0.52,0.00,0.00,-0.80,0.00,0.64,-0.00,-0.56,0.000,-0.078,0.000,0.014,3.141,-0.000,0.115,0.000,0.281,-0.20,0.00,-0.14
0.500,takeoff,1,326,276,0.52,0.00,0.00,-0.80,0.00,0.64,-0.00,-0.57,0.000,-0.078,0.000,0.014,3.141,-0.000,0.116,0.000,0.280,-0.21,0.00,-0.15
0.516,takeoff,1,326,276,0.52,0.00,0.00,-0.80,0.00,0.64,-0.00,-0.57,0.000,-0.078,0.000,0.012,3.141,-0.000,0.113,0.000,0.281,-0.21,0.00,-0.15
0.516,takeoff,1,326,276,0.52,0.00,0.00,-0.80,0.00,0.64,-0.00,-0.57,0.000,-0.078,0.000,0.012,3.141,-0.000,0.113,0.000,0.281,-0.21,0.00,-0.15
0.516,takeoff,1,326,276,0.52,0.00,0.00,-0.80,0.00,0.65,-0.00,-0.57,0.000,-0.078,0.000,0.012,3.141,-0.000,0.113,0.000,0.281,-0.21,0.00,-0.15
0.516,takeoff,1,326,276,0.52,0.00,0.00,-0.80,0.00,0.65,-0.00,-0.57,0.000,-0.078,0.000,0.012,3.141,-0.000,0.113,0.000,0.281,-0.21,0.00,-0.15
0.516,takeoff,1,326,276,0.52,0.00,0.00,-0.80,0.00,0.65,-0.00,-0.58,0.000,-0.078,0.000,0.010,3.141,-0.000,0.110,0.000,0.280,-0.21,0.00,-0.15
0.516,takeoff,1,326,276,0.52,0.00,0.00,-0.80,0.00,0.65,-0.00,-0.58,0.000,-0.078,0.000,0.010,3.141,-0.000,0.110,0.000,0.280,-0.21,0.00,-0.15
0.516,takeoff,1,326,276,0.52,0.00,0.00,-0.80,0.00,0.65,-0.00,-0.58,0.000,-0.078,0.000,0.010,3.141,-0.000,0.110,0.000,0.280,-0.21,0.00,-0.15
0.531,takeoff,1,326,276,0.52,0.00,0.00,-0.80,0.00,0.65,-0.00,-0.58,0.000,-0.078,0.000,0.010,3.141,-0.000,0.110,0.000,0.280,-0.21,0.00,-0.15
0.531,takeoff,1,326,276,0.52,0.00,0.00,-0.80,0.00,0.65,-0.00,-0.58,0.000,-0.078,0.000,0.008,3.141,-0.000,0.107,0.000,0.280,-0.21,0.00,-0.15
0.531,takeoff,1,326,276,0.52,0.00,0.00,-0.80,0.00,0.65,-0.00,-0.58,0.000,-0.078,0.000,0.008,3.141,-0.000,0.107,0.000,0.280,-0.21,0.00,-0.15
0.531,takeoff,1,326,276,0.52,0.00,0.00,-0.80,0.00,0.65,-0.00,-0.58,0.000,-0.078,0.000,0.008,3.141,-0.000,0.108,0.000,0.280,-0.22,0.00,-0.16
0.531,takeoff,1,326,276,0.52,0.00,0.00,-0.80,0.00,0.65,-0.00,-0.58,0.000,-0.078,0.000,0.008,3.141,-0.000,0.108,0.000,0.280,-0.22,0.00,-0.16
0.531,takeoff,1,326,276,0.52,0.00,0.00,-0.80,0.00,0.65,-0.00,-0.58,0.000,-0.078,0.000,0.004,3.141,-0.000,0.102,0.000,0.280,-0.22,0.00,-0.16
0.531,takeoff,1,326,276,0.52,0.00,0.00,-0.80,0.00,0.65,-0.00,-0.58,0.000,-0.078,0.000,0.004,3.141,-0.000,0.102,0.000,0.280,-0.22,0.00,-0.16
0.531,takeoff,1,326,280,0.51,0.00,0.00,-0.80,0.00,0.65,-0.00,-0.58,0.000,-0.078,0.000,0.004,3.141,-0.000,0.102,0.000,0.280,-0.22,0.00,-0.16
0.547,takeoff,1,326,280,0.51,0.00,0.00,-0.80,0.00,0.65,-0.00,-0.59,0.000,-0.078,0.000,0.004,3.141,-0.000,0.102,0.000,0.280,-0.23,0.00,-0.17
0.547,takeoff,1,326,280,0.51,0.00,0.00,-0.80,0.00,0.65,-0.00,-0.59,0.000,-0.078,0.000,0.004,3.141,-0.000,0.102,0.000,0.280,-0.23,0.00,-0.17
0.547,takeoff,1,326,280,0.51,0.00,0.00,-0.80,0.00,0.65,-0.00,-0.59,0.000,-0.078,0.000,0.002,3.141,-0.000,0.100,0.000,0.280,-0.23,0.00,-0.17
0.547,takeoff,1,326,280,0.51,0.00,0.00,-0.80,0.00,0.65,-0.00,-0.59,0.000,-0.078,0.000,0.002,3.141,-0.000,0.100,0.000,0.280,-0.23,0.00,-0.17
0.547,takeoff,1,326,280,0.51,0.00,0.00,-0.80,0.00,0.65,-0.00,-0.59,0.000,-0.078,0.000,0.002,3.141,-0.000,0.100,0.000,0.280,-0.23,0.00,-0.17
0.547,takeoff,1,326,280,0.51,0.00,0.00,-0.80,0.00,0.65,-0.00,-0.59,0.000,-0.078,0.000,0.002,3.141,-0.000,0.100,0.000,0.280,-0.23,0.00,-0.17
0.547,takeoff,1,326,280,0.51,0.00,0.00,-0.80,0.00,0.65,-0.00,-0.59,0.000,-0.078,0.000,-0.000,3.141,-0.000,0.098,0.000,0.280,-0.23,0.00,-0.17
0.563,takeoff,1,326,280,0.51,0.00,0.00,-0.80,0.00,0.65,-0.00,-0.59,0.000,-0.078,0.000,-0.000,3.141,-0.000,0.098,0.000,0.280,-0.23,0.00,-0.17
0.563,takeoff,1,326,280,0.51,0.00,0.00,-0.80,0.00,0.65,-0.00,-0.59,0.000,-0.078,0.000,-0.000,3.141,-0.000,0.098,0.000,0.280,-0.23,0.00,-0.17
0.563,takeoff,1,326,280,0.51,0.00,0.00,-0.80,0.00,0.65,-0.00,-0.59,0.000,-0.078,0.000,-0.000,3.141,-0.000,0.098,0.000,0.280,-0.23,0.00,-0.17
0.563,takeoff,1,326,280,0.51,0.00,0.00,-0.80,0.00,0.65,-0.00,-0.60,0.000,-0.078,0.000,-0.004,3.141,-0.000,0.093,0.000,0.280,-0.24,0.00,-0.18
0.563,takeoff,1,326,280,0.51,0.00,0.00,-0.80,0.00,0.65,-0.00,-0.60,0.000,-0.078,0.000,-0.004,3.141,-0.000,0.093,0.000,0.280,-0.24,0.00,-0.18
0.563,takeoff,1,326,282,0.51,0.00,0.00,-0.80,0.00,0.65,-0.00,-0.60,0.000,-0.078,0.000,-0.004,3.141,-0.000,0.093,0.000,0.280,-0.24,0.00,-0.18
0.563,takeoff,1,326,282,0.51,0.00,0.00,-0.80,0.00,0.65,-0.00,-0.60,0.000,-0.078,0.000,-0.004,3.141,-0.000,0.093,0.000,0.280,-0.24,0.00,-0.18
0.563,takeoff,1,326,282,0.51,0.00,0.00,-0.80,0.00,0.65,-0.00,-0.60,0.000,-0.078,0.000,-0.004,3.141,-0.000,0.093,0.000,0.280,-0.24,0.00,-0.18
0.578,takeoff,1,326,282,0.51,0.00,0.00,-0.80,0.00,0.65,-0.00,-0.60,0.000,-0.078,0.000,-0.006,3.141,-0.000,0.090,0.000,0.280,-0.25,0.00,-0.18
0.578,takeoff,1,326,282,0.51,0.00,0.00,-0.80,0.00,0.65,-0.00,-0.60,0.000,-0.078,0.000,-0.006,3.141,-0.000,0.090,0.000,0.280,-0.25,0.00,-0.18
0.578,takeoff,1,326,282,0.51,0.00,0.00,-0.80,0.00,0.65,-0.00,-0.60,0.000,-0.078,0.000,-0.006,3.141,-0.000,0.090,0.000,0.280,-0.25,0.00,-0.18
0.578,takeoff,1,326,282,0.51,0.00,0.00,-0.80,0.00,0.65,-0.00,-0.60,0.000,-0.078,0.000,-0.006,3.141,-0.000,0.090,0.000,0.280,-0.25,0.00,-0.18
0.578,takeoff,1,326,282,0.51,0.00,0.00,-0.80,0.00,0.66,-0.00,-0.60,0.000,-0.078,0.000,-0.008,3.141,0.000,0.088,0.000,0.280,-0.25,0.00,-0.18
0.578,takeoff,1,326,282,0.51,0.00,0.00,-0.80,0.00,0.66,-0.00,-0.61,0.000,-0.078,0.000,-0.008,3.141,0.000,0.088,0.000,0.280,-0.25,0.00,-0.19
0.594,takeoff,1,326,282,0.51,0.00,0.00,-0.80,0.00,0.66,-0.00,-0.61,0.000,-0.078,0.000,-0.008,3.141,0.000,0.088,0.000,0.280,-0.25,0.00,-0.19
0.594,takeoff,1,326,282,0.51,0.00,0.00,-0.80,0.00,0.66,-0.00,-0.61,0.000,-0.078,0.000,-0.008,3.141,0.000,0.088,0.000,0.280,-0.25,0.00,-0.19
0.594,takeoff,1,326,282,0.51,0.00,0.00,-0.80,0.00,0.66,-0.00,-0.61,0.000,-0.078,0.000,-0.011,3.141,0.000,0.084,0.000,0.280,-0.25,0.00,-0.19
0.594,takeoff,1,326,282,0.51,0.00,0.00,-0.80,0.00,0.66,-0.00,-0.61,0.000,-0.078,0.000,-0.011,3.141,0.000,0.084,0.000,0.280,-0.25,0.00,-0.19
0.594,takeoff,1,326,282,0.51,0.00,0.00,-0.80,0.00,0.66,-0.00,-0.62,0.000,-0.078,0.000,-0.011,3.141,0.000,0.083,0.000,0.280,-0.26,0.00,-0.19
0.594,takeoff,1,326,282,0.51,0.00,0.00,-0.80,0.00,0.66,-0.00,-0.62,0.000,-0.078,0.000,-0.011,3.141,0.000,0.083,0.000,0.280,-0.26,0.00,-0.19
0.594,takeoff,1,326,282,0.51,0.00,0.00,-0.80,0.00,0.66,-0.00,-0.62,0.000,-0.078,0.000,-0.013,3.141,0.000,0.081,0.000,0.280,-0.26,0.00,-0.19
0.594,takeoff,1,326,287,0.50,0.00,0.00,-0.80,0.00,0.66,-0.00,-0.62,0.000,-0.078,0.000,-0.013,3.141,0.000,0.081,0.000,0.280,-0.26,0.00,-0.19
0.609,takeoff,1,326,287,0.50,0.00,0.00,-0.80,0.00,0.66,-0.00,-0.62,0.000,-0.078,0.000,-0.013,3.141,0.000,0.081,0.000,0.280,-0.27,0.00,-0.20
0.609,takeoff,1,326,287,0.50,0.00,0.00,-0.80,0.00,0.66,-0.00,-0.62,0.000,-0.078,0.000,-0.014,3.141,0.000,0.079,0.000,0.280,-0.27,0.00,-0.20
0.609,takeoff,1,326,287,0.50,0.00,0.00,-0.80,0.00,0.66,-0.00,-0.62,0.000,-0.078,0.000,-0.014,3.141,0.000,0.079,0.000,0.280,-0.27,0.00,-0.20
0.609,takeoff,1,326,287,0.50,0.00,0.00,-0.80,0.00,0.66,-0.00,-0.62,0.000,-0.078,0.000,-0.014,3.141,0.000,0.079,0.000,0.280,-0.27,0.00,-0.20
0.609,takeoff,1,326,287,0.50,0.00,0.00,-0.80,0.00,0.66,-0.00,-0.62,0.000,-0.078,0.000,-0.014,3.141,0.000,0.079,0.000,0.280,-0.27,0.00,-0.20
0.609,takeoff,1,326,287,0.50,0.00,0.00,-0.80,0.00,0.66,-0.00,-0.63,0.000,-0.078,0.000,-0.016,3.141,0.000,0.077,0.000,0.280,-0.27,0.00,-0.21
0.625,takeoff,1,326,287,0.50,0.00,0.00,-0.80,0.00,0.66,-0.00,-0.63,0.000,-0.078,0.000,-0.016,3.141,0.000,0.077,0.000,0.280,-0.27,0.00,-0.21
0.625,takeoff,1,326,287,0.50,0.00,0.00,-0.80,0.00,0.66,-0.00,-0.63,0.000,-0.078,0.000,-0.016,3.141,0.000,0.077,0.000,0.280,-0.27,0.00,-0.21
0.625,takeoff,1,326,287,0.50,0.00,0.00,-0.80,0.00,0.66,-0.00,-0.63,0.000,-0.078,0.000,-0.016,3.141,0.000,0.077,0.000,0.280,-0.27,0.00,-0.21
0.625,takeoff,1,326,287,0.50,0.00,0.00,-0.80,0.00,0.66,-0.00,-0.63,0.000,-0.078,0.000,-0.019,3.141,0.000,0.073,0.000,0.280,-0.27,0.00,-0.21
0.625,takeoff,1,326,287,0.50,0.00,0.00,-0.80,0.00,0.66,-0.00,-0.64,0.000,-0.077,0.000,-0.019,3.141,0.000,0.073,0.000,0.280,-0.28,0.00,-0.22
0.625,takeoff,1,326,287,0.50,0.00,0.00,-0.80,0.00,0.66,-0.00,-0.64,0.000,-0.077,0.000,-0.019,3.141,0.000,0.073,0.000,0.280,-0.28,0.00,-0.22
0.641,takeoff,1,326,287,0.50,0.00,0.00,-0.80,0.00,0.66,-0.00,-0.64,0.000,-0.077,0.000,-0.021,3.141,0.000,0.071,0.000,0.280,-0.28,0.00,-0.22
0.641,takeoff,1,326,290,0.49,0.00,0.00,-0.80,0.00,0.66,-0.00,-0.64,0.000,-0.077,0.000,-0.021,3.141,0.000,0.071,0.000,0.280,-0.29,0.00,-0.22
0.641,takeoff,1,326,290,0.49,0.00,0.00,-0.80,0.00,0.66,-0.00,-0.64,0.000,-0.077,0.000,-0.021,3.141,0.000,0.071,0.000,0.280,-0.29,0.00,-0.22
0.641,takeoff,1,326,290,0.49,0.00,0.00,-0.80,0.00,0.66,-0.00,-0.64,0.000,-0.077,0.000,-0.022,3.141,0.000,0.069,0.000,0.280,-0.29,0.00,-0.22
0.641,takeoff,1,326,290,0.49,0.00,0.00,-0.80,0.00,0.66,-0.00,-0.64,0.000,-0.077,0.000,-0.022,3.141,0.000,0.069,0.000,0.280,-0.29,0.00,-0.22
0.641,takeoff,1,326,290,0.49,0.00,0.00,-0.80,0.00,0.66,-0.00,-0.65,0.000,-0.077,0.000,-0.022,3.141,0.000,0.068,0.000,0.280,-0.30,0.00,-0.23
0.656,takeoff,1,326,290,0.49,0.00,0.00,-0.80,0.00,0.65,-0.00,-0.65,0.000,-0.077,0.000,-0.022,3.141,0.000,0.068,0.000,0.280,-0.30,0.00,-0.23
0.656,takeoff,1,326,290,0.49,0.00,0.00,-0.80,0.00,0.65,-0.00,-0.65,0.000,-0.077,0.000,-0.023,3.141,0.000,0.067,0.000,0.280,-0.30,0.00,-0.23
0.656,takeoff,1,326,290,0.49,0.00,0.00,-0.80,0.00,0.65,-0.00,-0.65,0.000,-0.077,0.000,-0.023,3.141,0.000,0.067,0.000,0.280,-0.30,0.00,-0.23
0.656,takeoff,1,326,290,0.49,0.00,0.00,-0.80,0.00,0.65,-0.00,-0.65,0.000,-0.076,0.000,-0.023,3.141,0.000,0.066,0.000,0.280,-0.30,0.00,-0.23
0.656,takeoff,1,326,290,0.49,0.00,0.00,-0.80,0.00,0.65,-0.00,-0.65,0.000,-0.076,0.000,-0.023,3.141,0.000,0.066,0.000,0.280,-0.30,0.00,-0.23
0.656,takeoff,1,326,290,0.49,0.00,0.00,-0.80,0.00,0.65,-0.00,-0.65,0.000,-0.076,0.000,-0.026,3.141,0.000,0.063,0.000,0.280,-0.30,0.00,-0.23
0.656,takeoff,1,326,290,0.49,0.00,0.00,-0.80,0.00,0.65,-0.00,-0.65,0.000,-0.076,0.000,-0.026,3.141,0.000,0.063,0.000,0.280,-0.30,0.00,-0.23
0.672,takeoff,1,326,290,0.49,0.00,0.00,-0.80,0.00,0.65,-0.00,-0.65,0.000,-0.076,0.000,-0.026,3.141,0.000,0.063,0.000,0.280,-0.30,0.00,-0.23
0.672,takeoff,1,326,290,0.49,0.00,0.00,-0.80,0.00,0.65,-0.00,-0.66,0.000,-0.076,0.000,-0.027,3.141,0.000,0.061,0.000,0.280,-0.31,0.00,-0.24
0.672,takeoff,1,326,290,0.49,0.00,0.00,-0.80,0.00,0.65,-0.00,-0.66,0.000,-0.076,0.000,-0.027,3.141,0.000,0.061,0.000,0.280,-0.31,0.00,-0.24
0.672,takeoff,1,326,290,0.49,0.00,0.00,-0.80,0.00,0.65,-0.00,-0.66,0.000,-0.076,0.000,-0.027,3.141,0.000,0.061,0.000,0.280,-0.31,0.00,-0.24
0.672,takeoff,1,326,294,0.51,0.00,0.00,-0.80,0.00,0.65,-0.00,-0.66,0.000,-0.076,0.000,-0.027,3.141,0.000,0.061,0.000,0.280,-0.31,0.00,-0.24
0.672,takeoff,1,326,294,0.51,0.00,0.00,-0.80,0.00,0.65,-0.00,-0.66,0.000,-0.076,0.000,-0.029,3.141,0.000,0.058,0.000,0.280,-0.31,0.00,-0.24
0.688,takeoff,1,326,294,0.51,0.00,0.00,-0.80,0.00,0.65,-0.00,-0.67,0.000,-0.076,0.000,-0.029,3.141,0.000,0.058,0.000,0.280,-0.32,0.00,-0.25
0.688,takeoff,1,326,294,0.51,0.00,0.00,-0.80,0.00,0.65,-0.00,-0.67,0.000,-0.076,0.000,-0.029,3.141,0.000,0.058,0.000,0.280,-0.32,0.00,-0.25
0.688,takeoff,1,326,294,0.51,0.00,0.00,-0.80,0.00,0.65,-0.00,-0.67,0.000,-0.076,0.000,-0.029,3.141,0.000,0.058,0.000,0.280,-0.32,0.00,-0.25
0.688,takeoff,1,326,294,0.51,0.00,0.00,-0.80,0.00,0.65,-0.00,-0.67,0.000,-0.076,0.000,-0.030,3.141,0.000,0.056,0.000,0.280,-0.32,0.00,-0.25
0.688,takeoff,1,326,294,0.51,0.00,0.00,-0.80,0.00,0.65,-0.00,-0.67,0.000,-0.076,0.000,-0.030,3.141,0.000,0.056,0.000,0.280,-0.32,0.00,-0.25
0.688,takeoff,1,326,294,0.51,0.00,0.00,-0.80,0.00,0.65,-0.00,-0.68,0.000,-0.075,0.000,-0.030,3.141,0.000,0.056,0.000,0.280,-0.32,0.00,-0.26
0.688,takeoff,1,326,294,0.51,0.00,0.00,-0.80,0.00,0.65,-0.00,-0.68,0.000,-0.075,0.000,-0.030,3.141,0.000,0.056,0.000,0.280,-0.32,0.00,-0.26
0.703,takeoff,1,326,294,0.51,0.00,0.00,-0.80,0.00,0.65,-0.00,-0.68,0.000,-0.075,0.000,-0.032,3.141,0.000,0.054,0.000,0.280,-0.32,0.00,-0.26
0.703,takeoff,1,326,294,0.51,0.00,0.00,-0.80,0.00,0.65,-0.00,-0.68,0.000,-0.075,0.000,-0.032,3.141,0.000,0.054,0.000,0.280,-0.32,0.00,-0.26
0.703,takeoff,1,326,294,0.51,0.00,0.00,-0.80,0.00,0.65,-0.00,-0.68,0.000,-0.075,0.000,-0.032,3.141,0.000,0.054,0.000,0.280,-0.33,0.00,-0.27
0.703,takeoff,1,326,295,0.50,0.00,0.00,-0.80,0.00,0.65,-0.00,-0.68,0.000,-0.075,0.000,-0.034,3.141,0.000,0.051,0.000,0.280,-0.33,0.00,-0.27
0.703,takeoff,1,326,295,0.50,0.00,0.00,-0.80,0.00,0.64,-0.00,-0.68,0.000,-0.075,0.000,-0.034,3.141,0.000,0.051,0.000,0.280,-0.33,0.00,-0.27
0.703,takeoff,1,326,295,0.50,0.00,0.00,-0.80,0.00,0.64,-0.00,-0.68,0.000,-0.075,0.000,-0.034,3.141,0.000,0.051,0.000,0.280,-0.33,0.00,-0.27
0.719,takeoff,1,326,295,0.50,0.00,0.00,-0.80,0.00,0.64,-0.00,-0.68,0.000,-0.075,0.000,-0.034,3.141,0.000,0.051,0.000,0.280,-0.33,0.00,-0.27
0.719,takeoff,1,326,295,0.50,0.00,0.00,-0.80,0.00,0.64,-0.00,-0.69,0.000,-0.074,0.000,-0.035,3.141,0.000,0.049,0.000,0.280,-0.34,0.00,-0.28
0.719,takeoff,1,326,295,0.50,0.00,0.00,-0.80,0.00,0.64,-0.00,-0.69,0.000,-0.074,0.000,-0.035,3.141,0.000,0.049,0.000,0.280,-0.34,0.00,-0.28
0.719,takeoff,1,326,295,0.50,0.00,0.00,-0.80,0.00,0.64,-0.00,-0.69,0.000,-0.074,0.000,-0.035,3.141,0.000,0.049,0.000,0.280,-0.34,0.00,-0.28
0.719,takeoff,1,326,295,0.50,0.00,0.00,-0.80,0.00,0.64,-0.00,-0.69,0.000,-0.074,0.000,-0.035,3.141,0.000,0.049,0.000,0.280,-0.34,0.00,-0.28
0.719,takeoff,1,326,295,0.50,0.00,0.00,-0.80,0.00,0.64,-0.00,-0.69,0.000,-0.074,0.000,-0.036,3.141,0.000,0.048,0.000,0.280,-0.34,0.00,-0.28
0.719,takeoff,1,326,295,0.50,0.00,0.00,-0.80,0.00,0.64,-0.00,-0.70,0.000,-0.074,0.000,-0.036,3.141,0.000,0.047,0.000,0.280,-0.34,0.00,-0.28
0.734,takeoff,1,326,295,0.50,0.00,0.00,-0.80,0.00,0.64,-0.00,-0.70,0.000,-0.074,0.000,-0.036,3.141,0.000,0.047,0.000,0.280,-0.34,0.00,-0.28
0.734,takeoff,1,326,295,0.50,0.00,0.00,-0.80,0.00,0.64,-0.00,-0.70,0.000,-0.074,0.000,-0.036,3.141,0.000,0.047,0.000,0.280,-0.34,0.00,-0.28
0.734,takeoff,1,326,295,0.50,0.00,0.00,-0.80,0.00,0.64,-0.00,-0.70,0.000,-0.074,0.000,-0.037,3.141,0.000,0.046,0.000,0.280,-0.34,0.00,-0.28
0.734,takeoff,1,326,295,0.50,0.00,0.00,-0.80,0.00,0.64,-0.00,-0.71,0.000,-0.073,0.000,-0.037,3.141,0.000,0.045,0.000,0.280,-0.35,0.00,-0.29
0.734,takeoff,1,326,297,0.50,0.00,0.00,-0.80,0.00,0.64,-0.00,-0.71,0.000,-0.073,0.000,-0.037,3.141,0.000,0.045,0.000,0.280,-0.35,0.00,-0.29
0.734,takeoff,1,326,297,0.50,0.00,0.00,-0.80,0.00,0.64,-0.00,-0.71,0.000,-0.073,0.000,-0.037,3.141,0.000,0.045,0.000,0.280,-0.35,0.00,-0.29
0.734,takeoff,1,326,297,0.50,0.00,0.00,-0.80,0.00,0.64,-0.00,-0.71,0.000,-0.073,0.000,-0.039,3.141,0.000,0.043,0.000,0.280,-0.35,0.00,-0.29
0.750,takeoff,1,326,297,0.50,0.00,0.00,-0.80,0.00,0.64,-0.00,-0.71,0.000,-0.073,0.000,-0.039,3.141,0.000,0.043,0.000,0.280,-0.35,0.00,-0.29
0.750,takeoff,1,326,297,0.50,0.00,0.00,-0.80,0.00,0.63,-0.00,-0.71,0.000,-0.073,0.000,-0.039,3.141,0.000,0.042,0.000,0.280,-0.35,0.00,-0.29
0.750,takeoff,1,326,297,0.50,0.00,0.00,-0.80,0.00,0.63,-0.00,-0.71,0.000,-0.073,0.000,-0.039,3.141,0.000,0.042,0.000,0.280,-0.35,0.00,-0.29
0.750,takeoff,1,326,297,0.50,0.00,0.00,-0.80,0.00,0.63,-0.00,-0.71,0.000,-0.073,0.000,-0.040,3.141,0.000,0.041,0.000,0.280,-0.35,0.00,-0.29
0.750,takeoff,1,326,297,0.50,0.00,0.00,-0.80,0.00,0.63,-0.00,-0.71,0.000,-0.073,0.000,-0.040,3.141,0.000,0.041,0.000,0.280,-0.35,0.00,-0.29
0.750,takeoff,1,326,297,0.50,0.00,0.00,-0.80,0.00,0.63,-0.00,-0.71,0.000,-0.073,0.000,-0.040,3.141,0.000,0.041,0.000,0.280,-0.35,0.00,-0.29
0.750,takeoff,1,326,297,0.50,0.00,0.00,-0.80,0.00,0.63,-0.00,-0.72,0.000,-0.072,0.000,-0.040,3.141,0.000,0.040,0.000,0.280,-0.36,0.00,-0.30
0.766,takeoff,1,326,297,0.50,0.00,0.00,-0.80,0.00,0.63,-0.00,-0.72,0.000,-0.072,0.000,-0.040,3.141,0.000,0.039,0.000,0.280,-0.36,0.00,-0.30
0.766,takeoff,1,326,297,0.50,0.00,0.00,-0.80,0.00,0.63,-0.00,-0.72,0.000,-0.072,0.000,-0.040,3.141,0.000,0.039,0.000,0.280,-0.36,0.00,-0.30
0.766,takeoff,1,326,297,0.50,0.00,0.00,-0.80,0.00,0.63,-0.00,-0.72,0.000,-0.072,0.000,-0.040,3.141,0.000,0.039,0.000,0.280,-0.36,0.00,-0.30
0.766,takeoff,1,326,297,0.50,0.00,0.00,-0.80,0.00,0.63,-0.00,-0.72,0.000,-0.072,0.000,-0.040,3.141,0.000,0.039,0.000,0.280,-0.36,0.00,-0.30
0.766,takeoff,1,326,297,0.50,0.00,0.00,-0.80,0.00,0.63,-0.00,-0.73,0.000,-0.071,0.000,-0.040,3.141,0.000,0.038,0.000,0.280,-0.37,0.00,-0.31
0.766,takeoff,1,326,297,0.50,0.00,0.00,-0.80,0.00,0.63,-0.00,-0.73,0.000,-0.071,0.000,-0.042,3.141,0.000,0.036,0.000,0.280,-0.37,0.00,-0.31
0.766,takeoff,1,326,299,0.50,0.00,0.00,-0.80,0.00,0.63,-0.00,-0.73,0.000,-0.071,0.000,-0.042,3.141,0.000,0.036,0.000,0.280,-0.37,0.00,-0.31
0.781,takeoff,1,326,299,0.50,0.00,0.00,-0.80,0.00,0.62,-0.00,-0.73,0.000,-0.071,0.000,-0.042,3.141,0.000,0.036,0.000,0.280,-0.37,0.00,-0.31
0.781,takeoff,1,326,299,0.50,0.00,0.00,-0.80,0.00,0.62,-0.00,-0.73,0.000,-0.071,0.000,-0.043,3.141,0.000,0.035,0.000,0.280,-0.37,0.00,-0.32
0.781,takeoff,1,326,299,0.50,0.00,0.00,-0.80,0.00,0.62,-0.00,-0.73,0.000,-0.071,0.000,-0.043,3.141,0.000,0.035,0.000,0.280,-0.37,0.00,-0.32
0.781,takeoff,1,326,299,0.50,0.00,0.00,-0.80,0.00,0.62,-0.00,-0.73,0.000,-0.071,0.000,-0.043,3.141,0.000,0.035,0.000,0.280,-0.37,0.00,-0.32
0.781,takeoff,1,326,299,0.50,0.00,0.00,-0.80,0.00,0.62,-0.00,-0.73,0.000,-0.071,0.000,-0.043,3.141,0.000,0.035,0.000,0.280,-0.37,0.00,-0.32
0.781,takeoff,1,326,299,0.50,0.00,0.00,-0.80,0.00,0.62,-0.00,-0.73,0.000,-0.071,0.000,-0.044,3.141,0.000,0.034,0.000,0.280,-0.37,0.00,-0.32
0.797,takeoff,1,326,299,0.50,0.00,0.00,-0.80,0.00,0.62,-0.00,-0.74,0.000,-0.070,0.000,-0.044,3.141,0.000,0.033,0.000,0.280,-0.38,0.00,-0.33
0.797,takeoff,1,326,299,0.50,0.00,0.00,-0.80,0.00,0.62,-0.00,-0.74,0.000,-0.070,0.000,-0.044,3.141,0.000,0.033,0.000,0.280,-0.38,0.00,-0.33
0.797,takeoff,1,326,299,0.50,0.00,0.00,-0.80,0.00,0.62,-0.00,-0.74,0.000,-0.070,0.000,-0.045,3.141,0.000,0.031,0.000,0.280,-0.38,0.00,-0.33
0.797,takeoff,1,326,299,0.50,0.00,0.00,-0.80,0.00,0.62,-0.00,-0.74,0.000,-0.070,0.000,-0.045,3.141,0.000,0.031,0.000,0.280,-0.38,0.00,-0.33
0.797,takeoff,1,326,299,0.50,0.00,0.00,-0.80,0.00,0.62,-0.00,-0.75,0.000,-0.070,0.000,-0.045,3.141,0.000,0.031,0.000,0.280,-0.39,0.00,-0.34
0.797,takeoff,1,326,300,0.50,0.00,0.00,-0.80,0.00,0.62,-0.00,-0.75,0.000,-0.070,0.000,-0.045,3.141,0.000,0.031,0.000,0.280,-0.39,0.00,-0.34
0.797,takeoff,1,326,300,0.50,0.00,0.00,-0.80,0.00,0.61,-0.00,-0.75,0.000,-0.070,0.000,-0.045,3.141,0.000,0.031,0.000,0.280,-0.39,0.00,-0.34
0.797,takeoff,1,326,300,0.50,0.00,0.00,-0.80,0.00,0.61,-0.00,-0.75,0.000,-0.070,0.000,-0.046,3.141,0.000,0.030,0.000,0.280,-0.39,0.00,-0.34
0.813,takeoff,1,326,300,0.50,0.00,0.00,-0.80,0.00,0.61,-0.00,-0.75,0.000,-0.070,0.000,-0.046,3.141,0.000,0.030,0.000,0.280,-0.39,0.00,-0.34
0.813,takeoff,1,326,300,0.50,0.00,0.00,-0.80,0.00,0.61,-0.00,-0.76,0.000,-0.069,0.000,-0.046,3.141,0.000,0.029,0.000,0.280,-0.39,0.00,-0.35
0.813,takeoff,1,326,300,0.50,0.00,0.00,-0.80,0.00,0.61,-0.00,-0.76,0.000,-0.069,0.000,-0.046,3.141,0.000,0.029,0.000,0.280,-0.39,0.00,-0.35
0.813,takeoff,1,326,300,0.50,0.00,0.00,-0.80,0.00,0.61,-0.00,-0.76,0.000,-0.069,0.000,-0.046,3.141,0.000,0.028,0.000,0.280,-0.39,0.00,-0.35
0.813,takeoff,1,326,300,0.50,0.00,0.00,-0.80,0.00,0.61,-0.00,-0.76,0.000,-0.069,0.000,-0.046,3.141,0.000,0.028,0.000,0.280,-0.39,0.00,-0.35
0.813,takeoff,1,326,300,0.50,0.00,0.00,-0.80,0.00,0.61,-0.00,-0.76,0.000,-0.069,0.000,-0.046,3.141,0.000,0.028,0.000,0.280,-0.39,0.00,-0.35
0.813,takeoff,1,326,300,0.50,0.00,0.00,-0.80,0.00,0.61,-0.00,-0.76,0.000,-0.068,0.000,-0.046,3.141,0.000,0.027,0.000,0.280,-0.40,0.00,-0.35
0.828,takeoff,1,326,300,0.50,0.00,0.00,-0.80,0.00,0.61,-0.00,-0.76,0.000,-0.068,0.000,-0.047,3.141,0.000,0.027,0.000,0.280,-0.40,0.00,-0.35
0.828,takeoff,1,326,300,0.50,0.00,0.00,-0.80,0.00,0.61,-0.00,-0.76,0.000,-0.068,0.000,-0.047,3.141,0.000,0.027,0.000,0.280,-0.40,0.00,-0.35
0.828,takeoff,1,326,300,0.50,0.00,0.00,-0.80,0.00,0.61,-0.00,-0.76,0.000,-0.068,0.000,-0.047,3.141,0.000,0.027,0.000,0.280,-0.40,0.00,-0.35
0.828,takeoff,1,326,300,0.50,0.00,0.00,-0.80,0.00,0.61,-0.00,-0.76,0.000,-0.068,0.000,-0.047,3.141,0.000,0.027,0.000,0.280,-0.40,0.00,-0.35
0.828,takeoff,1,326,300,0.50,0.00,0.00,-0.80,0.00,0.60,-0.00,-0.77,0.000,-0.068,0.000,-0.048,3.141,0.000,0.024,0.000,0.280,-0.41,0.00,-0.36
0.828,takeoff,1,326,300,0.50,0.00,0.00,-0.80,0.00,0.60,-0.00,-0.77,0.000,-0.068,0.000,-0.048,3.141,0.000,0.024,0.000,0.280,-0.41,0.00,-0.36
0.828,takeoff,1,326,302,0.49,0.00,0.00,-0.80,0.00,0.60,-0.00,-0.77,0.000,-0.068,0.000,-0.048,3.141,0.000,0.024,0.000,0.280,-0.41,0.00,-0.36
0.844,takeoff,1,326,302,0.49,0.00,0.00,-0.80,0.00,0.60,-0.00,-0.77,0.000,-0.068,0.000,-0.048,3.141,0.000,0.024,0.000,0.280,-0.41,0.00,-0.36
0.844,takeoff,1,326,302,0.49,0.00,0.00,-0.80,0.00,0.60,-0.00,-0.77,0.000,-0.068,0.000,-0.048,3.141,0.000,0.024,0.000,0.280,-0.41,0.00,-0.36
0.844,takeoff,1,326,302,0.49,0.00,0.00,-0.80,0.00,0.60,-0.00,-0.77,0.000,-0.068,0.000,-0.049,3.141,0.000,0.023,0.000,0.280,-0.41,0.00,-0.36
0.844,takeoff,1,326,302,0.49,0.00,0.00,-0.80,0.00,0.60,-0.00,-0.78,0.000,-0.067,0.000,-0.049,3.141,0.000,0.022,0.000,0.280,-0.41,0.00,-0.37
0.844,takeoff,1,326,302,0.49,0.00,0.00,-0.80,0.00,0.59,-0.00,-0.78,0.000,-0.067,0.000,-0.049,3.141,0.000,0.022,0.000,0.280,-0.41,0.00,-0.37
0.844,takeoff,1,326,302,0.49,0.00,0.00,-0.80,0.00,0.59,-0.00,-0.78,0.000,-0.067,0.000,-0.049,3.141,0.000,0.022,0.000,0.280,-0.41,0.00,-0.37
0.844,takeoff,1,326,302,0.49,0.00,0.00,-0.80,0.00,0.59,-0.00,-0.78,0.000,-0.067,0.000,-0.049,3.141,0.000,0.022,0.000,0.280,-0.41,0.00,-0.37
0.844,takeoff,1,326,302,0.49,0.00,0.00,-0.80,0.00,0.59,-0.00,-0.78,0.000,-0.067,0.000,-0.050,3.141,0.000,0.022,0.000,0.280,-0.41,0.00,-0.37
0.844,takeoff,1,326,302,0.49,0.00,0.00,-0.80,0.00,0.59,-0.00,-0.78,0.000,-0.067,0.000,-0.050,3.141,0.000,0.022,0.000,0.280,-0.41,0.00,-0.37
0.859,takeoff,1,326,302,0.49,0.00,0.00,-0.80,0.00,0.59,-0.00,-0.78,0.000,-0.066,0.000,-0.050,3.141,0.000,0.021,0.000,0.280,-0.42,0.00,-0.37
0.859,takeoff,1,326,302,0.49,0.00,0.00,-0.80,0.00,0.59,-0.00,-0.78,0.000,-0.066,0.000,-0.050,3.141,0.000,0.021,0.000,0.280,-0.42,0.00,-0.37
0.859,takeoff,1,326,302,0.49,0.00,0.00,-0.80,0.00,0.59,-0.00,-0.78,0.000,-0.066,0.000,-0.050,3.141,0.000,0.021,0.000,0.280,-0.42,0.00,-0.37
0.859,takeoff,1,326,302,0.49,0.00,0.00,-0.80,0.00,0.59,-0.00,-0.78,0.000,-0.066,0.000,-0.050,3.141,0.000,0.021,0.000,0.280,-0.42,0.00,-0.37
0.859,takeoff,1,326,302,0.49,0.00,0.00,-0.80,0.00,0.59,-0.00,-0.78,0.000,-0.066,0.000,-0.050,3.141,0.000,0.021,0.000,0.280,-0.42,0.00,-0.37
0.859,takeoff,1,326,302,0.49,0.00,0.00,-0.80,0.00,0.59,-0.00,-0.78,0.000,-0.066,0.000,-0.050,3.141,0.000,0.021,0.000,0.280,-0.42,0.00,-0.37
0.859,takeoff,1,326,302,0.49,0.00,0.00,-0.80,0.00,0.59,-0.00,-0.79,0.000,-0.066,0.000,-0.050,3.141,0.000,0.019,0.000,0.280,-0.42,0.00,-0.39
0.859,takeoff,1,326,302,0.49,0.00,0.00,-0.80,0.00,0.59,-0.00,-0.79,0.000,-0.066,0.000,-0.051,3.141,0.000,0.019,0.000,0.280,-0.42,0.00,-0.39
0.859,takeoff,1,326,302,0.49,0.00,0.00,-0.80,0.00,0.59,-0.00,-0.79,0.000,-0.066,0.000,-0.051,3.141,0.000,0.019,0.000,0.280,-0.42,0.00,-0.39
0.875,takeoff,1,326,302,0.49,0.00,0.00,-0.80,0.00,0.59,-0.00,-0.79,0.000,-0.066,0.000,-0.051,3.141,0.000,0.019,0.000,0.280,-0.42,0.00,-0.39
0.875,takeoff,1,326,302,0.49,0.00,0.00,-0.80,0.00,0.58,-0.00,-0.79,0.000,-0.066,0.000,-0.051,3.141,0.000,0.019,0.000,0.280,-0.42,0.00,-0.39
0.875,takeoff,1,326,314,0.24,0.00,0.00,-0.80,0.00,0.58,-0.00,-0.80,0.000,-0.065,0.000,-0.051,3.141,0.000,0.017,0.000,0.280,-0.43,0.00,-0.40
0.875,takeoff,1,326,314,0.24,0.00,0.00,-0.80,0.00,0.58,-0.00,-0.80,0.000,-0.065,0.000,-0.051,3.141,0.000,0.017,0.000,0.280,-0.43,0.00,-0.40
0.875,takeoff,1,326,314,0.24,0.00,0.00,-0.80,0.00,0.58,-0.00,-0.80,0.000,-0.065,0.000,-0.051,3.141,0.000,0.017,0.000,0.280,-0.43,0.00,-0.40
0.875,takeoff,1,326,314,0.24,0.00,0.00,-0.80,0.00,0.58,-0.00,-0.80,0.000,-0.065,0.000,-0.051,3.141,0.000,0.017,0.000,0.280,-0.43,0.00,-0.40
0.891,takeoff,1,326,314,0.24,0.00,0.00,-0.80,0.00,0.58,-0.00,-0.80,0.000,-0.065,0.000,-0.052,3.141,0.000,0.016,0.000,0.280,-0.43,0.00,-0.40
0.891,takeoff,1,326,314,0.24,0.00,0.00,-0.80,0.00,0.58,-0.00,-0.80,0.000,-0.064,0.000,-0.052,3.141,0.000,0.015,0.000,0.280,-0.44,0.00,-0.40
0.891,takeoff,1,326,314,0.24,0.00,0.00,-0.80,0.00,0.58,-0.00,-0.80,0.000,-0.064,0.000,-0.052,3.141,0.000,0.015,0.000,0.280,-0.44,0.00,-0.40
0.891,takeoff,1,326,314,0.24,0.00,0.00,-0.80,0.00,0.58,-0.00,-0.80,0.000,-0.064,0.000,-0.052,3.141,0.000,0.015,0.000,0.280,-0.44,0.00,-0.40
0.891,takeoff,1,326,314,0.24,0.00,0.00,-0.80,0.00,0.58,-0.00,-0.80,0.000,-0.064,0.000,-0.052,3.141,0.000,0.015,0.000,0.280,-0.44,0.00,-0.40
0.891,takeoff,1,326,314,0.24,0.00,0.00,-0.80,0.00,0.58,-0.00,-0.80,0.000,-0.064,0.000,-0.052,3.141,0.000,0.015,0.000,0.280,-0.44,0.00,-0.40
0.891,takeoff,1,326,314,0.24,0.00,0.00,-0.80,0.00,0.58,-0.00,-0.81,0.000,-0.063,0.000,-0.052,3.141,0.000,0.014,0.000,0.280,-0.44,0.00,-0.41
0.906,takeoff,1,326,314,0.24,0.00,0.00,-0.80,0.00,0.57,-0.00,-0.81,0.000,-0.063,0.000,-0.052,3.141,0.000,0.014,0.000,0.280,-0.44,0.00,-0.41
0.906,takeoff,1,326,317,0.22,0.00,0.00,-0.80,0.00,0.57,-0.00,-0.81,0.000,-0.063,0.000,-0.052,3.141,0.000,0.014,0.000,0.280,-0.44,0.00,-0.41
0.906,takeoff,1,326,317,0.22,0.00,0.00,-0.80,0.00,0.57,-0.00,-0.81,0.000,-0.063,0.000,-0.053,3.141,0.000,0.013,0.000,0.280,-0.44,0.00,-0.41
0.906,takeoff,1,326,317,0.22,0.00,0.00,-0.80,0.00,0.57,-0.00,-0.81,0.000,-0.063,0.000,-0.053,3.141,0.000,0.013,0.000,0.280,-0.44,0.00,-0.41
0.906,takeoff,1,326,317,0.22,0.00,0.00,-0.80,0.00,0.57,-0.00,-0.82,0.000,-0.063,0.000,-0.053,3.141,0.000,0.012,0.000,0.280,-0.45,0.00,-0.42
0.906,takeoff,1,326,317,0.22,0.00,0.00,-0.80,0.00,0.57,-0.00,-0.82,0.000,-0.063,0.000,-0.053,3.141,0.000,0.012,0.000,0.280,-0.45,0.00,-0.42
0.906,takeoff,1,326,317,0.22,0.00,0.00,-0.80,0.00,0.57,-0.00,-0.82,0.000,-0.063,0.000,-0.053,3.141,0.000,0.012,0.000,0.280,-0.45,0.00,-0.42
0.906,takeoff,1,326,317,0.22,0.00,0.00,-0.80,0.00,0.56,-0.00,-0.82,0.000,-0.063,0.000,-0.053,3.141,0.000,0.012,0.000,0.280,-0.45,0.00,-0.42
0.922,takeoff,1,326,317,0.22,0.00,0.00,-0.80,0.00,0.56,-0.00,-0.82,0.000,-0.063,0.000,-0.053,3.141,0.000,0.012,0.000,0.280,-0.45,0.00,-0.42
0.922,takeoff,1,326,317,0.22,0.00,0.00,-0.80,0.00,0.56,-0.00,-0.82,0.000,-0.062,0.000,-0.053,3.141,0.000,0.011,0.000,0.280,-0.45,0.00,-0.43
0.922,takeoff,1,326,317,0.22,0.00,0.00,-0.80,0.00,0.56,-0.00,-0.82,0.000,-0.062,0.000,-0.053,3.141,0.000,0.011,0.000,0.280,-0.45,0.00,-0.43
0.922,takeoff,1,326,317,0.22,0.00,0.00,-0.80,0.00,0.56,-0.00,-0.82,0.000,-0.062,0.000,-0.054,3.141,0.000,0.010,0.000,0.280,-0.45,0.00,-0.43
0.922,takeoff,1,326,317,0.22,0.00,0.00,-0.80,0.00,0.56,-0.00,-0.82,0.000,-0.062,0.000,-0.054,3.141,0.000,0.010,0.000,0.280,-0.45,0.00,-0.43
0.922,takeoff,1,326,317,0.22,0.00,0.00,-0.80,0.00,0.56,-0.00,-0.82,0.000,-0.062,0.000,-0.054,3.141,0.000,0.010,0.000,0.280,-0.45,0.00,-0.43
0.922,takeoff,1,326,317,0.22,0.00,0.00,-0.80,0.00,0.56,-0.00,-0.82,0.000,-0.062,0.000,-0.054,3.141,0.000,0.010,0.000,0.280,-0.45,0.00,-0.43
0.922,takeoff,1,326,317,0.22,0.00,0.00,-0.80,0.00,0.56,-0.00,-0.83,0.000,-0.061,0.000,-0.054,3.141,0.000,0.009,0.000,0.280,-0.46,0.00,-0.44
0.938,takeoff,1,326,317,0.22,0.00,0.00,-0.80,0.00,0.56,-0.00,-0.83,0.000,-0.061,0.000,-0.054,3.141,0.000,0.009,0.000,0.280,-0.46,0.00,-0.44
0.938,takeoff,1,326,317,0.22,0.00,0.00,-0.80,0.00,0.56,-0.00,-0.83,0.000,-0.061,0.000,-0.054,3.141,0.000,0.009,0.000,0.280,-0.46,0.00,-0.44
0.938,takeoff,1,326,318,0.20,0.00,0.00,-0.80,0.00,0.56,-0.00,-0.83,0.000,-0.061,0.000,-0.054,3.141,0.000,0.009,0.000,0.280,-0.46,0.00,-0.44
0.938,takeoff,1,326,318,0.20,0.00,0.00,-0.80,0.00,0.56,-0.00,-0.83,0.000,-0.061,0.000,-0.054,3.141,0.000,0.009,0.000,0.280,-0.46,0.00,-0.44
0.938,takeoff,1,326,318,0.20,0.00,0.00,-0.80,0.00,0.56,-0.00,-0.84,0.000,-0.060,0.000,-0.054,3.141,0.000,0.008,0.000,0.280,-0.46,0.00,-0.45
0.938,takeoff,1,326,318,0.20,0.00,0.00,-0.80,0.00,0.55,-0.00,-0.84,0.000,-0.060,0.000,-0.054,3.141,0.000,0.008,0.000,0.280,-0.46,0.00,-0.45
0.938,takeoff,1,326,318,0.20,0.00,0.00,-0.80,0.00,0.55,-0.00,-0.84,0.000,-0.060,0.000,-0.054,3.141,0.000,0.008,0.000,0.280,-0.46,0.00,-0.45
0.938,takeoff,1,326,318,0.20,0.00,0.00,-0.80,0.00,0.55,-0.00,-0.84,0.000,-0.060,0.000,-0.054,3.141,0.000,0.008,0.000,0.280,-0.46,0.00,-0.45
0.953,takeoff,1,326,318,0.20,0.00,0.00,-0.80,0.00,0.55,-0.00,-0.84,0.000,-0.060,0.000,-0.055,3.141,0.000,0.007,0.000,0.280,-0.46,0.00,-0.45
0.953,takeoff,1,326,318,0.20,0.00,0.00,-0.80,0.00,0.55,-0.00,-0.84,0.000,-0.060,0.000,-0.055,3.141,0.000,0.007,0.000,0.280,-0.46,0.00,-0.45
0.953,takeoff,1,326,318,0.20,0.00,0.00,-0.80,0.00,0.55,-0.00,-0.84,0.000,-0.060,0.000,-0.055,3.141,0.000,0.007,0.000,0.280,-0.47,0.00,-0.45
0.953,takeoff,1,326,318,0.20,0.00,0.00,-0.80,0.00,0.55,-0.00,-0.84,0.000,-0.060,0.000,-0.055,3.141,0.000,0.007,0.000,0.280,-0.47,0.00,-0.45
0.953,takeoff,1,326,318,0.20,0.00,0.00,-0.80,0.00,0.54,-0.00,-0.84,0.000,-0.060,0.000,-0.055,3.141,0.000,0.006,0.000,0.280,-0.47,0.00,-0.45
0.953,takeoff,1,326,318,0.20,0.00,0.00,-0.80,0.00,0.54,-0.00,-0.84,0.000,-0.060,0.000,-0.055,3.141,0.000,0.006,0.000,0.280,-0.47,0.00,-0.45
0.953,takeoff,1,326,318,0.20,0.00,0.00,-0.80,0.00,0.54,-0.00,-0.84,0.000,-0.060,0.000,-0.055,3.141,0.000,0.006,0.000,0.280,-0.47,0.00,-0.45
0.969,takeoff,1,326,318,0.20,0.00,0.00,-0.80,0.00,0.54,-0.00,-0.85,0.000,-0.059,0.000,-0.055,3.141,0.000,0.005,0.000,0.280,-0.47,0.00,-0.47
0.969,takeoff,1,326,318,0.20,0.00,0.00,-0.80,0.00,0.54,-0.00,-0.85,0.000,-0.059,0.000,-0.055,3.141,0.000,0.005,0.000,0.280,-0.47,0.00,-0.47
0.969,takeoff,1,326,318,0.20,0.00,0.00,-0.80,0.00,0.54,-0.00,-0.85,0.000,-0.059,0.000,-0.055,3.141,0.000,0.005,0.000,0.280,-0.47,0.00,-0.47
0.969,takeoff,1,326,318,0.20,0.00,0.00,-0.80,0.00,0.54,-0.00,-0.85,0.000,-0.059,0.000,-0.055,3.141,0.000,0.005,0.000,0.280,-0.47,0.00,-0.47
0.969,takeoff,1,326,292,0.23,0.00,0.00,-0.80,0.00,0.53,-0.00,-0.85,0.000,-0.059,0.000,-0.055,3.141,0.000,0.005,0.000,0.280,-0.47,0.00,-0.47
0.969,takeoff,1,326,292,0.23,0.00,0.00,-0.80,0.00,0.53,-0.00,-0.85,0.000,-0.059,0.000,-0.055,3.141,0.000,0.005,0.000,0.280,-0.47,0.00,-0.47
0.969,takeoff,1,326,292,0.23,0.00,0.00,-0.80,0.00,0.53,-0.00,-0.86,0.000,-0.058,0.000,-0.055,3.141,0.000,0.003,0.000,0.280,-0.48,0.00,-0.48
0.969,takeoff,1,326,292,0.23,0.00,0.00,-0.80,0.00,0.53,-0.00,-0.86,0.000,-0.058,0.000,-0.055,3.141,0.000,0.003,0.000,0.280,-0.48,0.00,-0.48
