t,phase,found,cx,cy,wpx,hpx,conf,cmd_vx,cmd_vy,cmd_vz,cmd_yawrate,vbx,vby,vd,roll_des,pitch_des,roll,pitch,yaw,roll_q,pitch_q,yaw_q,thrust,x,y,z
0.000,takeoff,1,326,176,41,39,0.51,0.00,0.00,-0.80,0.00,0.00,0.00,-0.00,0.000,0.000,0.000,0.311,-3.140,0.000,0.388,0.000,0.314,-0.00,0.00,0.02
0.015,takeoff,1,326,176,41,39,0.51,0.00,0.00,-0.80,0.00,0.00,0.00,-0.00,0.000,0.000,0.000,0.311,-3.140,0.000,0.388,0.000,0.315,-0.00,0.00,0.02
0.015,takeoff,1,326,176,41,39,0.51,0.00,0.00,-0.80,0.00,0.00,0.00,-0.00,0.000,0.000,0.000,0.311,-3.140,0.000,0.388,0.000,0.315,-0.00,0.00,0.02
0.015,takeoff,1,326,176,41,39,0.51,0.00,0.00,-0.80,0.00,0.00,0.00,-0.00,0.000,0.000,0.000,0.311,-3.140,0.000,0.388,0.000,0.315,-0.00,0.00,0.02
0.015,takeoff,1,326,176,41,39,0.51,0.00,0.00,-0.80,0.00,0.00,0.00,-0.00,0.000,0.000,0.000,0.311,-3.140,0.000,0.388,0.000,0.315,-0.00,0.00,0.02
0.031,takeoff,1,326,176,41,39,0.51,0.00,0.00,-0.80,0.00,0.00,0.00,-0.00,0.000,0.000,0.000,0.311,-3.140,0.000,0.388,0.000,0.315,-0.00,0.00,0.02
0.031,takeoff,1,326,176,41,39,0.51,0.00,0.00,-0.80,0.00,0.00,0.00,-0.00,0.000,0.000,0.000,0.311,-3.140,0.000,0.388,0.000,0.315,-0.00,0.00,0.02
0.031,takeoff,1,326,176,41,39,0.51,0.00,0.00,-0.80,0.00,0.00,0.00,0.01,-0.000,0.000,0.000,0.311,-3.140,0.000,0.388,0.000,0.316,-0.00,0.00,0.02
0.031,takeoff,1,326,176,41,39,0.51,0.00,0.00,-0.80,0.00,0.00,0.00,0.01,-0.000,0.000,0.000,0.311,-3.141,0.000,0.388,0.000,0.316,-0.00,0.00,0.02
0.031,takeoff,1,326,176,41,39,0.51,0.00,0.00,-0.80,0.00,0.00,0.00,0.01,-0.000,0.000,0.000,0.311,-3.141,0.000,0.388,0.000,0.316,-0.00,0.00,0.02
0.031,takeoff,1,326,176,41,39,0.51,0.00,0.00,-0.80,0.00,-0.00,0.00,0.01,-0.000,0.000,0.000,0.311,-3.141,0.000,0.388,0.000,0.316,-0.00,0.00,0.02
0.046,takeoff,1,326,176,41,39,0.49,0.00,0.00,-0.80,0.00,-0.00,0.00,0.00,-0.000,0.000,0.000,0.311,-3.141,0.000,0.388,0.000,0.316,-0.00,0.00,0.02
0.046,takeoff,1,326,176,41,39,0.49,0.00,0.00,-0.80,0.00,-0.00,0.00,0.00,-0.000,0.000,0.000,0.311,-3.141,0.000,0.388,0.000,0.316,-0.00,0.00,0.02
0.046,takeoff,1,326,176,41,39,0.49,0.00,0.00,-0.80,0.00,-0.00,0.00,0.00,-0.000,0.000,0.000,0.311,-3.141,0.000,0.388,0.000,0.316,-0.00,0.00,0.02
0.046,takeoff,1,326,176,41,39,0.49,0.00,0.00,-0.80,0.00,-0.00,0.00,0.00,-0.000,0.000,0.000,0.311,-3.141,0.000,0.388,0.000,0.316,-0.00,0.00,0.02
0.046,takeoff,1,326,176,41,39,0.49,0.00,0.00,-0.80,0.00,0.00,0.00,0.00,-0.000,0.000,0.000,0.311,-3.141,0.000,0.388,0.000,0.316,-0.00,0.00,0.02
0.046,takeoff,1,326,176,41,39,0.49,0.00,0.00,-0.80,0.00,0.00,0.00,-0.00,-0.000,-0.001,0.000,0.310,-3.141,0.000,0.389,0.000,0.316,-0.00,0.00,0.02
0.046,takeoff,1,326,176,41,39,0.49,0.00,0.00,-0.80,0.00,0.00,0.00,-0.00,-0.000,-0.001,0.000,0.310,-3.141,0.000,0.389,0.000,0.316,-0.00,0.00,0.02
0.062,takeoff,1,326,176,41,39,0.49,0.00,0.00,-0.80,0.00,0.00,0.00,-0.00,-0.000,-0.001,0.000,0.310,-3.141,0.000,0.389,0.000,0.316,-0.00,0.00,0.02
0.062,takeoff,1,326,176,41,39,0.49,0.00,0.00,-0.80,0.00,0.00,0.00,-0.00,-0.000,-0.001,0.000,0.310,-3.141,0.000,0.389,0.000,0.316,-0.00,0.00,0.02
0.062,takeoff,1,326,176,41,39,0.49,0.00,0.00,-0.80,0.00,0.00,0.00,-0.03,-0.000,-0.003,0.000,0.309,-3.141,0.000,0.389,0.000,0.314,-0.00,0.00,0.02
0.062,takeoff,1,326,176,41,39,0.49,0.00,0.00,-0.80,0.00,0.01,0.00,-0.03,-0.000,-0.003,0.000,0.309,-3.141,0.000,0.389,0.000,0.314,-0.00,0.00,0.02
0.062,takeoff,1,326,176,41,39,0.49,0.00,0.00,-0.80,0.00,0.01,0.00,-0.03,-0.000,-0.003,0.000,0.309,-3.141,0.000,0.389,0.000,0.314,-0.00,0.00,0.02
0.062,takeoff,1,325,178,40,39,0.51,0.00,0.00,-0.80,0.00,0.01,0.00,-0.03,-0.000,-0.003,0.000,0.304,-3.141,0.000,0.384,0.000,0.314,-0.00,0.00,0.02
0.078,takeoff,1,325,178,40,39,0.51,0.00,0.00,-0.80,0.00,0.01,0.00,-0.06,-0.000,-0.005,0.000,0.304,-3.141,0.000,0.387,0.000,0.313,-0.00,0.00,0.02
0.078,takeoff,1,325,178,40,39,0.51,0.00,0.00,-0.80,0.00,0.01,0.00,-0.06,-0.000,-0.005,0.000,0.304,-3.141,0.000,0.387,0.000,0.313,-0.00,0.00,0.02
0.078,takeoff,1,325,178,40,39,0.51,0.00,0.00,-0.80,0.00,0.02,0.00,-0.06,-0.000,-0.005,0.000,0.304,-3.141,0.000,0.387,0.000,0.313,-0.00,0.00,0.02
0.078,takeoff,1,325,178,40,39,0.51,0.00,0.00,-0.80,0.00,0.02,0.00,-0.06,-0.000,-0.005,0.000,0.299,-3.141,0.000,0.380,0.000,0.313,-0.00,0.00,0.02
0.078,takeoff,1,325,178,40,39,0.51,0.00,0.00,-0.80,0.00,0.02,0.00,-0.06,-0.000,-0.005,0.000,0.299,-3.141,0.000,0.380,0.000,0.313,-0.00,0.00,0.02
0.078,takeoff,1,325,178,40,39,0.51,0.00,0.00,-0.80,0.00,0.02,0.00,-0.07,-0.000,-0.007,0.000,0.299,-3.141,0.000,0.383,0.000,0.311,-0.00,0.00,0.02
0.093,takeoff,1,325,178,40,39,0.51,0.00,0.00,-0.80,0.00,0.02,0.00,-0.07,-0.000,-0.007,0.000,0.283,-3.141,0.000,0.363,0.000,0.312,-0.00,0.00,0.02
0.093,takeoff,1,325,178,40,39,0.51,0.00,0.00,-0.80,0.00,0.02,0.00,-0.07,-0.000,-0.007,0.000,0.283,-3.141,0.000,0.363,0.000,0.312,-0.00,0.00,0.02
0.093,takeoff,1,325,178,40,39,0.51,0.00,0.00,-0.80,0.00,0.05,0.00,-0.07,-0.000,-0.007,0.000,0.283,-3.141,0.000,0.363,0.000,0.312,-0.00,0.00,0.02
0.093,takeoff,1,325,178,40,39,0.51,0.00,0.00,-0.80,0.00,0.05,0.00,-0.10,-0.000,-0.012,0.000,0.283,-3.141,0.001,0.368,0.000,0.310,-0.00,0.00,0.02
0.093,takeoff,1,325,178,40,39,0.51,0.00,0.00,-0.80,0.00,0.05,0.00,-0.10,-0.000,-0.012,0.000,0.274,-3.141,0.001,0.357,0.000,0.310,-0.00,0.00,0.02
0.093,takeoff,1,325,178,40,39,0.51,0.00,0.00,-0.80,0.00,0.05,0.00,-0.10,-0.000,-0.012,0.000,0.274,-3.141,0.001,0.357,0.000,0.310,-0.00,0.00,0.02
0.109,takeoff,1,325,178,40,39,0.51,0.00,0.00,-0.80,0.00,0.05,0.00,-0.10,-0.000,-0.012,0.000,0.274,-3.141,0.001,0.357,0.000,0.310,-0.00,0.00,0.02
0.109,takeoff,1,325,178,40,39,0.51,0.00,0.00,-0.80,0.00,0.09,0.00,-0.10,-0.000,-0.014,0.000,0.264,-3.141,0.001,0.347,0.000,0.310,-0.00,0.00,0.02
0.109,takeoff,1,326,191,41,42,0.50,0.00,0.00,-0.80,0.00,0.09,0.00,-0.10,-0.000,-0.014,0.000,0.264,-3.141,0.001,0.347,0.000,0.310,-0.00,0.00,0.02
0.109,takeoff,1,326,191,41,42,0.50,0.00,0.00,-0.80,0.00,0.09,0.00,-0.10,-0.000,-0.014,0.000,0.264,-3.141,0.001,0.347,0.000,0.310,-0.00,0.00,0.02
0.109,takeoff,1,326,191,41,42,0.50,0.00,0.00,-0.80,0.00,0.09,0.00,-0.10,-0.000,-0.014,0.000,0.264,-3.141,0.001,0.347,0.000,0.310,-0.00,0.00,0.02
0.109,takeoff,1,326,191,41,42,0.50,0.00,0.00,-0.80,0.00,0.09,0.00,-0.10,-0.000,-0.014,0.000,0.254,-3.141,0.001,0.335,0.000,0.310,-0.00,0.00,0.02
0.125,takeoff,1,326,191,41,42,0.50,0.00,0.00,-0.80,0.00,0.09,0.00,-0.12,-0.000,-0.019,0.000,0.254,-3.141,0.001,0.341,0.000,0.309,-0.01,-0.00,0.02
0.125,takeoff,1,326,191,41,42,0.50,0.00,0.00,-0.80,0.00,0.12,0.00,-0.12,-0.000,-0.019,0.000,0.254,-3.141,0.001,0.341,0.000,0.309,-0.01,-0.00,0.02
0.125,takeoff,1,326,191,41,42,0.50,0.00,0.00,-0.80,0.00,0.12,0.00,-0.12,-0.000,-0.019,0.000,0.237,-3.141,0.001,0.320,0.000,0.309,-0.01,-0.00,0.02
0.125,takeoff,1,326,191,41,42,0.50,0.00,0.00,-0.80,0.00,0.12,0.00,-0.12,-0.000,-0.019,0.000,0.237,-3.141,0.001,0.320,0.000,0.309,-0.01,-0.00,0.02
0.125,takeoff,1,326,191,41,42,0.50,0.00,0.00,-0.80,0.00,0.12,0.00,-0.13,-0.000,-0.021,0.000,0.237,-3.141,0.001,0.323,0.000,0.309,-0.01,-0.00,0.01
0.125,takeoff,1,326,191,41,42,0.50,0.00,0.00,-0.80,0.00,0.12,0.00,-0.13,-0.000,-0.021,0.000,0.231,-3.141,0.001,0.315,0.000,0.309,-0.01,-0.00,0.01
0.140,takeoff,1,326,191,41,42,0.50,0.00,0.00,-0.80,0.00,0.16,0.00,-0.13,-0.000,-0.021,0.000,0.231,-3.141,0.001,0.315,0.000,0.309,-0.01,-0.00,0.01
0.140,takeoff,1,326,191,41,42,0.50,0.00,0.00,-0.80,0.00,0.16,0.00,-0.13,-0.000,-0.021,0.000,0.231,-3.141,0.001,0.315,0.000,0.309,-0.01,-0.00,0.01
0.140,takeoff,1,326,191,41,42,0.50,0.00,0.00,-0.80,0.00,0.16,0.00,-0.15,-0.000,-0.026,0.000,0.231,-3.141,0.001,0.320,0.000,0.307,-0.01,-0.00,0.01
0.140,takeoff,1,325,204,42,39,0.49,0.00,0.00,-0.80,0.00,0.16,0.00,-0.15,-0.000,-0.026,0.000,0.224,-3.141,0.001,0.313,0.000,0.307,-0.01,-0.00,0.01
0.140,takeoff,1,325,204,42,39,0.49,0.00,0.00,-0.80,0.00,0.16,0.00,-0.15,-0.000,-0.026,0.000,0.224,-3.141,0.001,0.313,0.000,0.307,-0.01,-0.00,0.01
0.140,takeoff,1,325,204,42,39,0.49,0.00,0.00,-0.80,0.00,0.16,0.00,-0.15,-0.000,-0.026,0.000,0.224,-3.141,0.001,0.313,0.000,0.307,-0.01,-0.00,0.01
0.156,takeoff,1,325,204,42,39,0.49,0.00,0.00,-0.80,0.00,0.19,0.00,-0.16,-0.000,-0.028,0.000,0.219,-3.141,0.001,0.308,0.000,0.307,-0.01,-0.00,0.01
0.156,takeoff,1,325,204,42,39,0.49,0.00,0.00,-0.80,0.00,0.19,0.00,-0.16,-0.000,-0.028,0.000,0.219,-3.141,0.001,0.308,0.000,0.307,-0.01,-0.00,0.01
0.156,takeoff,1,325,204,42,39,0.49,0.00,0.00,-0.80,0.00,0.19,0.00,-0.16,-0.000,-0.028,0.000,0.219,-3.141,0.001,0.308,0.000,0.307,-0.01,-0.00,0.01
0.156,takeoff,1,325,204,42,39,0.49,0.00,0.00,-0.80,0.00,0.19,0.00,-0.19,-0.000,-0.032,0.000,0.208,-3.141,0.001,0.301,0.000,0.305,-0.01,-0.00,0.01
0.156,takeoff,1,325,204,42,39,0.49,0.00,0.00,-0.80,0.00,0.19,0.00,-0.19,-0.000,-0.032,0.000,0.208,-3.141,0.001,0.301,0.000,0.305,-0.01,-0.00,0.01
0.156,takeoff,1,325,204,42,39,0.49,0.00,0.00,-0.80,0.00,0.22,0.00,-0.19,-0.000,-0.032,0.000,0.208,-3.141,0.001,0.301,0.000,0.305,-0.01,-0.00,0.01
0.156,takeoff,1,325,204,42,39,0.49,0.00,0.00,-0.80,0.00,0.22,0.00,-0.19,-0.000,-0.032,0.000,0.208,-3.141,0.001,0.301,0.000,0.305,-0.01,-0.00,0.01
0.171,takeoff,1,326,212,41,41,0.52,0.00,0.00,-0.80,0.00,0.22,0.00,-0.19,-0.000,-0.032,0.000,0.203,-3.141,0.001,0.294,0.000,0.305,-0.01,-0.00,0.01
0.171,takeoff,1,326,212,41,41,0.52,0.00,0.00,-0.80,0.00,0.22,0.00,-0.20,-0.000,-0.034,0.000,0.203,-3.141,0.001,0.297,0.000,0.304,-0.02,-0.00,0.01
0.171,takeoff,1,326,212,41,41,0.52,0.00,0.00,-0.80,0.00,0.22,0.00,-0.20,-0.000,-0.034,0.000,0.203,-3.141,0.001,0.297,0.000,0.304,-0.02,-0.00,0.01
0.171,takeoff,1,326,212,41,41,0.52,0.00,0.00,-0.80,0.00,0.25,0.00,-0.20,-0.000,-0.034,0.000,0.198,-3.141,0.001,0.290,0.000,0.304,-0.02,-0.00,0.01
0.171,takeoff,1,326,212,41,41,0.52,0.00,0.00,-0.80,0.00,0.25,0.00,-0.20,-0.000,-0.034,0.000,0.198,-3.141,0.001,0.290,0.000,0.304,-0.02,-0.00,0.01
0.171,takeoff,1,326,212,41,41,0.52,0.00,0.00,-0.80,0.00,0.25,0.00,-0.23,-0.000,-0.038,0.000,0.198,-3.141,0.001,0.295,0.000,0.302,-0.02,-0.00,0.00
0.187,takeoff,1,326,212,41,41,0.52,0.00,0.00,-0.80,0.00,0.25,0.00,-0.23,-0.000,-0.038,0.000,0.198,-3.141,0.001,0.295,0.000,0.302,-0.02,-0.00,0.00
0.187,takeoff,1,326,212,41,41,0.52,0.00,0.00,-0.80,0.00,0.25,0.00,-0.23,-0.000,-0.038,0.000,0.187,-3.141,0.001,0.281,0.000,0.302,-0.02,-0.00,0.00
0.187,takeoff,1,326,212,41,41,0.52,0.00,0.00,-0.80,0.00,0.25,0.00,-0.23,-0.000,-0.038,0.000,0.187,-3.141,0.001,0.281,0.000,0.302,-0.02,-0.00,0.00
0.187,takeoff,1,326,212,41,41,0.52,0.00,0.00,-0.80,0.00,0.28,0.00,-0.23,-0.000,-0.038,0.000,0.187,-3.141,0.001,0.281,0.000,0.302,-0.02,-0.00,0.00
0.187,takeoff,1,326,212,41,41,0.52,0.00,0.00,-0.80,0.00,0.28,0.00,-0.24,-0.000,-0.040,0.000,0.187,-3.141,0.001,0.284,0.000,0.301,-0.02,-0.00,0.00
0.187,takeoff,1,326,212,41,41,0.52,0.00,0.00,-0.80,0.00,0.28,0.00,-0.24,-0.000,-0.040,0.000,0.181,-3.141,0.001,0.277,0.000,0.301,-0.02,-0.00,0.00
0.203,takeoff,1,326,212,41,41,0.52,0.00,0.00,-0.80,0.00,0.28,0.00,-0.24,-0.000,-0.040,0.000,0.181,-3.141,0.001,0.277,0.000,0.302,-0.02,-0.00,0.00
0.203,takeoff,1,326,212,41,41,0.52,0.00,0.00,-0.80,0.00,0.28,0.00,-0.24,-0.000,-0.040,0.000,0.181,-3.141,0.001,0.277,0.000,0.302,-0.02,-0.00,0.00
0.203,takeoff,1,326,212,41,41,0.52,0.00,0.00,-0.80,0.00,0.31,0.00,-0.27,-0.000,-0.044,0.000,0.176,-3.141,0.001,0.275,0.000,0.300,-0.03,-0.00,-0.00
0.203,takeoff,1,326,220,41,40,0.51,0.00,0.00,-0.80,0.00,0.31,0.00,-0.27,-0.000,-0.044,0.000,0.176,-3.141,0.001,0.275,0.000,0.300,-0.03,-0.00,-0.00
0.203,takeoff,1,326,220,41,40,0.51,0.00,0.00,-0.80,0.00,0.31,0.00,-0.27,-0.000,-0.044,0.000,0.176,-3.141,0.001,0.275,0.000,0.300,-0.03,-0.00,-0.00
0.203,takeoff,1,326,220,41,40,0.51,0.00,0.00,-0.80,0.00,0.31,0.00,-0.27,-0.000,-0.044,0.000,0.176,-3.141,0.001,0.275,0.000,0.300,-0.03,-0.00,-0.00
0.203,takeoff,1,326,220,41,40,0.51,0.00,0.00,-0.80,0.00,0.31,0.00,-0.30,-0.000,-0.047,-0.000,0.171,-3.141,0.001,0.272,0.000,0.297,-0.03,-0.00,-0.00
0.218,takeoff,1,326,220,41,40,0.51,0.00,0.00,-0.80,0.00,0.31,0.00,-0.30,-0.000,-0.047,-0.000,0.171,-3.141,0.001,0.272,0.000,0.298,-0.03,-0.00,-0.00
0.218,takeoff,1,326,220,41,40,0.51,0.00,0.00,-0.80,0.00,0.34,0.00,-0.30,-0.000,-0.047,-0.000,0.171,-3.141,0.001,0.272,0.000,0.298,-0.03,-0.00,-0.00
0.218,takeoff,1,326,220,41,40,0.51,0.00,0.00,-0.80,0.00,0.34,0.00,-0.30,-0.000,-0.047,-0.000,0.161,-3.141,0.001,0.260,0.000,0.298,-0.03,-0.00,-0.00
0.218,takeoff,1,326,220,41,40,0.51,0.00,0.00,-0.80,0.00,0.34,0.00,-0.31,-0.000,-0.049,-0.000,0.161,-3.141,0.001,0.262,0.000,0.297,-0.04,-0.00,-0.01
0.218,takeoff,1,326,220,41,40,0.51,0.00,0.00,-0.80,0.00,0.34,0.00,-0.31,-0.000,-0.049,-0.000,0.161,-3.141,0.001,0.262,0.000,0.297,-0.04,-0.00,-0.01
0.218,takeoff,1,326,220,41,40,0.51,0.00,0.00,-0.80,0.00,0.34,0.00,-0.31,-0.000,-0.049,-0.000,0.161,-3.141,0.001,0.262,0.000,0.297,-0.04,-0.00,-0.01
0.234,takeoff,1,326,220,41,40,0.51,0.00,0.00,-0.80,0.00,0.34,0.00,-0.31,-0.000,-0.049,-0.000,0.156,-3.141,0.000,0.255,0.000,0.297,-0.04,-0.00,-0.01
0.234,takeoff,1,326,220,41,40,0.51,0.00,0.00,-0.80,0.00,0.36,0.00,-0.31,-0.000,-0.049,-0.000,0.156,-3.141,0.000,0.255,0.000,0.297,-0.04,-0.00,-0.01
0.234,takeoff,1,326,220,41,40,0.51,0.00,0.00,-0.80,0.00,0.36,0.00,-0.33,-0.000,-0.052,-0.000,0.156,-3.141,0.000,0.259,0.000,0.295,-0.04,-0.00,-0.01
0.234,takeoff,1,326,220,41,40,0.51,0.00,0.00,-0.80,0.00,0.36,0.00,-0.33,-0.000,-0.052,-0.000,0.156,-3.141,0.000,0.259,0.000,0.295,-0.04,-0.00,-0.01
0.234,takeoff,1,325,228,42,40,0.51,0.00,0.00,-0.80,0.00,0.36,0.00,-0.33,-0.000,-0.052,-0.000,0.151,-3.141,0.000,0.253,0.000,0.295,-0.04,-0.00,-0.01
0.234,takeoff,1,325,228,42,40,0.51,0.00,0.00,-0.80,0.00,0.36,0.00,-0.33,-0.000,-0.052,-0.000,0.151,-3.141,0.000,0.253,0.000,0.295,-0.04,-0.00,-0.01
0.234,takeoff,1,325,228,42,40,0.51,0.00,0.00,-0.80,0.00,0.36,0.00,-0.33,-0.000,-0.052,-0.000,0.151,-3.141,0.000,0.253,0.000,0.295,-0.04,-0.00,-0.01
0.250,takeoff,1,325,228,42,40,0.51,0.00,0.00,-0.80,0.00,0.40,0.00,-0.35,-0.000,-0.054,-0.000,0.146,-3.141,0.000,0.250,0.000,0.294,-0.05,-0.00,-0.01
0.250,takeoff,1,325,228,42,40,0.51,0.00,0.00,-0.80,0.00,0.40,0.00,-0.35,-0.000,-0.054,-0.000,0.146,-3.141,0.000,0.250,0.000,0.294,-0.05,-0.00,-0.01
0.250,takeoff,1,325,228,42,40,0.51,0.00,0.00,-0.80,0.00,0.40,0.00,-0.35,-0.000,-0.054,-0.000,0.146,-3.141,0.000,0.250,0.000,0.294,-0.05,-0.00,-0.01
0.250,takeoff,1,325,228,42,40,0.51,0.00,0.00,-0.80,0.00,0.40,0.00,-0.35,-0.000,-0.054,-0.000,0.146,-3.141,0.000,0.250,0.000,0.294,-0.05,-0.00,-0.01
0.250,takeoff,1,325,228,42,40,0.51,0.00,0.00,-0.80,0.00,0.40,0.00,-0.36,-0.000,-0.055,-0.000,0.140,-3.141,0.000,0.244,0.000,0.293,-0.05,-0.00,-0.02
0.250,takeoff,1,325,228,42,40,0.51,0.00,0.00,-0.80,0.00,0.40,0.00,-0.36,-0.000,-0.055,-0.000,0.140,-3.141,0.000,0.244,0.000,0.293,-0.05,-0.00,-0.02
0.250,takeoff,1,325,228,42,40,0.51,0.00,0.00,-0.80,0.00,0.42,0.00,-0.36,-0.000,-0.055,-0.000,0.140,-3.141,0.000,0.244,0.000,0.293,-0.05,-0.00,-0.02
0.265,takeoff,1,325,228,42,40,0.51,0.00,0.00,-0.80,0.00,0.42,0.00,-0.36,-0.000,-0.055,-0.000,0.140,-3.141,0.000,0.244,0.000,0.294,-0.05,-0.00,-0.02
0.265,takeoff,1,325,228,42,40,0.51,0.00,0.00,-0.80,0.00,0.42,0.00,-0.36,-0.000,-0.055,-0.000,0.131,-3.141,0.000,0.233,0.000,0.294,-0.05,-0.00,-0.02
0.265,takeoff,1,325,228,42,40,0.51,0.00,0.00,-0.80,0.00,0.42,0.00,-0.38,-0.000,-0.058,-0.000,0.131,-3.141,0.000,0.236,0.000,0.292,-0.06,-0.00,-0.02
0.265,takeoff,1,325,228,42,40,0.51,0.00,0.00,-0.80,0.00,0.42,0.00,-0.38,-0.000,-0.058,-0.000,0.131,-3.141,0.000,0.236,0.000,0.292,-0.06,-0.00,-0.02
0.265,takeoff,1,325,228,42,40,0.51,0.00,0.00,-0.80,0.00,0.42,0.00,-0.38,-0.000,-0.058,-0.000,0.131,-3.141,0.000,0.236,0.000,0.292,-0.06,-0.00,-0.02
0.265,takeoff,1,325,228,42,40,0.51,0.00,0.00,-0.80,0.00,0.44,0.00,-0.38,-0.000,-0.058,-0.000,0.126,-3.141,0.000,0.230,0.000,0.292,-0.06,-0.00,-0.02
0.281,takeoff,1,326,237,41,42,0.51,0.00,0.00,-0.80,0.00,0.44,0.00,-0.38,-0.000,-0.058,-0.000,0.126,-3.141,0.000,0.230,0.000,0.292,-0.06,-0.00,-0.02
0.281,takeoff,1,326,237,41,42,0.51,0.00,0.00,-0.80,0.00,0.44,0.00,-0.40,-0.000,-0.060,-0.000,0.126,-3.141,0.000,0.233,0.000,0.291,-0.06,-0.00,-0.03
0.281,takeoff,1,326,237,41,42,0.51,0.00,0.00,-0.80,0.00,0.44,0.00,-0.40,-0.000,-0.060,-0.000,0.126,-3.141,0.000,0.233,0.000,0.291,-0.06,-0.00,-0.03
0.281,takeoff,1,326,237,41,42,0.51,0.00,0.00,-0.80,0.00,0.44,0.00,-0.40,-0.000,-0.060,-0.000,0.122,-3.141,0.000,0.228,0.000,0.291,-0.06,-0.00,-0.03
0.281,takeoff,1,326,237,41,42,0.51,0.00,0.00,-0.80,0.00,0.46,0.00,-0.40,-0.000,-0.060,-0.000,0.122,-3.141,0.000,0.228,0.000,0.291,-0.06,-0.00,-0.03
0.281,takeoff,1,326,237,41,42,0.51,0.00,0.00,-0.80,0.00,0.46,0.00,-0.41,-0.000,-0.061,-0.000,0.122,-3.141,0.000,0.229,0.000,0.290,-0.07,-0.00,-0.03
0.296,takeoff,1,326,237,41,42,0.51,0.00,0.00,-0.80,0.00,0.46,0.00,-0.41,-0.000,-0.061,-0.000,0.114,-3.141,0.000,0.218,0.000,0.291,-0.07,-0.00,-0.03
0.296,takeoff,1,326,237,41,42,0.51,0.00,0.00,-0.80,0.00,0.46,0.00,-0.41,-0.000,-0.061,-0.000,0.114,-3.141,0.000,0.218,0.000,0.291,-0.07,-0.00,-0.03
0.296,takeoff,1,326,237,41,42,0.51,0.00,0.00,-0.80,0.00,0.46,0.00,-0.41,-0.000,-0.061,-0.000,0.114,-3.141,0.000,0.218,0.000,0.291,-0.07,-0.00,-0.03
0.296,takeoff,1,326,237,41,42,0.51,0.00,0.00,-0.80,0.00,0.46,0.00,-0.42,-0.000,-0.063,-0.000,0.114,-3.141,0.000,0.221,0.000,0.289,-0.07,-0.00,-0.04
0.296,takeoff,1,326,237,41,42,0.51,0.00,0.00,-0.80,0.00,0.48,0.00,-0.42,-0.000,-0.063,-0.000,0.109,-3.141,0.000,0.216,0.000,0.289,-0.07,-0.00,-0.04
0.296,takeoff,1,326,244,41,41,0.53,0.00,0.00,-0.80,0.00,0.48,0.00,-0.42,-0.000,-0.063,-0.000,0.109,-3.141,0.000,0.216,0.000,0.289,-0.07,-0.00,-0.04
0.312,takeoff,1,326,244,41,41,0.53,0.00,0.00,-0.80,0.00,0.48,0.00,-0.42,-0.000,-0.063,-0.000,0.109,-3.141,0.000,0.216,0.000,0.290,-0.07,-0.00,-0.04
0.312,takeoff,1,326,244,41,41,0.53,0.00,0.00,-0.80,0.00,0.48,0.00,-0.43,-0.000,-0.064,-0.000,0.105,-3.141,0.000,0.212,0.000,0.289,-0.08,-0.00,-0.04
0.312,takeoff,1,326,244,41,41,0.53,0.00,0.00,-0.80,0.00,0.48,0.00,-0.43,-0.000,-0.064,-0.000,0.105,-3.141,0.000,0.212,0.000,0.289,-0.08,-0.00,-0.04
0.312,takeoff,1,326,244,41,41,0.53,0.00,0.00,-0.80,0.00,0.48,0.00,-0.43,-0.000,-0.064,-0.000,0.105,-3.141,0.000,0.212,0.000,0.289,-0.08,-0.00,-0.04
0.312,takeoff,1,326,244,41,41,0.53,0.00,0.00,-0.80,0.00,0.50,0.00,-0.43,-0.000,-0.064,-0.000,0.105,-3.141,0.000,0.212,0.000,0.289,-0.08,-0.00,-0.04
0.312,takeoff,1,326,244,41,41,0.53,0.00,0.00,-0.80,0.00,0.50,0.00,-0.43,-0.000,-0.064,-0.000,0.101,-3.141,0.000,0.207,0.000,0.289,-0.08,-0.00,-0.04
0.312,takeoff,1,326,244,41,41,0.53,0.00,0.00,-0.80,0.00,0.50,0.00,-0.44,-0.000,-0.066,-0.000,0.101,-3.141,0.000,0.209,0.000,0.288,-0.09,-0.00,-0.05
0.328,takeoff,1,326,244,41,41,0.53,0.00,0.00,-0.80,0.00,0.50,0.00,-0.44,-0.000,-0.066,-0.000,0.101,-3.141,0.000,0.209,0.000,0.289,-0.09,-0.00,-0.05
0.328,takeoff,1,326,244,41,41,0.53,0.00,0.00,-0.80,0.00,0.50,0.00,-0.44,-0.000,-0.066,-0.000,0.101,-3.141,0.000,0.209,0.000,0.289,-0.09,-0.00,-0.05
0.328,takeoff,1,326,244,41,41,0.53,0.00,0.00,-0.80,0.00,0.51,0.00,-0.44,-0.000,-0.066,-0.000,0.094,-3.141,0.000,0.199,0.000,0.289,-0.09,-0.00,-0.05
0.328,takeoff,1,326,244,41,41,0.53,0.00,0.00,-0.80,0.00,0.51,0.00,-0.44,-0.000,-0.066,-0.000,0.094,-3.141,0.000,0.199,0.000,0.289,-0.09,-0.00,-0.05
0.328,takeoff,1,326,244,41,41,0.53,0.00,0.00,-0.80,0.00,0.51,0.00,-0.45,-0.000,-0.067,-0.000,0.094,-3.141,0.000,0.201,0.000,0.288,-0.09,-0.00,-0.05
0.328,takeoff,1,326,244,41,41,0.53,0.00,0.00,-0.80,0.00,0.51,0.00,-0.45,-0.000,-0.067,-0.000,0.094,-3.141,0.000,0.201,0.000,0.288,-0.09,-0.00,-0.05
0.328,takeoff,1,326,250,41,41,0.53,0.00,0.00,-0.80,0.00,0.51,0.00,-0.45,-0.000,-0.067,-0.000,0.090,-3.141,0.000,0.196,0.000,0.288,-0.09,-0.00,-0.05
0.343,takeoff,1,326,250,41,41,0.53,0.00,0.00,-0.80,0.00,0.51,0.00,-0.45,-0.000,-0.067,-0.000,0.090,-3.141,0.000,0.196,0.000,0.288,-0.09,-0.00,-0.05
0.343,takeoff,1,326,250,41,41,0.53,0.00,0.00,-0.80,0.00,0.53,0.00,-0.46,-0.000,-0.068,-0.000,0.090,-3.141,0.000,0.198,0.000,0.288,-0.10,-0.00,-0.05
0.343,takeoff,1,326,250,41,41,0.53,0.00,0.00,-0.80,0.00,0.53,0.00,-0.46,-0.000,-0.068,-0.000,0.086,-3.141,0.000,0.193,0.000,0.288,-0.10,-0.00,-0.05
0.343,takeoff,1,326,250,41,41,0.53,0.00,0.00,-0.80,0.00,0.53,0.00,-0.46,-0.000,-0.068,-0.000,0.086,-3.141,0.000,0.193,0.000,0.288,-0.10,-0.00,-0.05
0.343,takeoff,1,326,250,41,41,0.53,0.00,0.00,-0.80,0.00,0.53,0.00,-0.46,-0.000,-0.068,-0.000,0.086,-3.141,0.000,0.193,0.000,0.288,-0.10,-0.00,-0.05
0.343,takeoff,1,326,250,41,41,0.53,0.00,0.00,-0.80,0.00,0.53,0.00,-0.46,-0.000,-0.069,-0.000,0.086,-3.141,0.000,0.194,0.000,0.287,-0.10,-0.00,-0.06
0.359,takeoff,1,326,250,41,41,0.53,0.00,0.00,-0.80,0.00,0.53,0.00,-0.46,-0.000,-0.069,-0.000,0.082,-3.141,0.000,0.189,0.000,0.287,-0.10,-0.00,-0.06
0.359,takeoff,1,326,250,41,41,0.53,0.00,0.00,-0.80,0.00,0.53,0.00,-0.46,-0.000,-0.069,-0.000,0.082,-3.141,0.000,0.189,0.000,0.287,-0.10,-0.00,-0.06
0.359,takeoff,1,326,250,41,41,0.53,0.00,0.00,-0.80,0.00,0.54,0.00,-0.46,-0.000,-0.069,-0.000,0.082,-3.141,0.000,0.189,0.000,0.287,-0.10,-0.00,-0.06
0.359,takeoff,1,326,250,41,41,0.53,0.00,0.00,-0.80,0.00,0.54,0.00,-0.46,-0.000,-0.069,-0.000,0.075,-3.141,0.000,0.180,0.000,0.287,-0.10,-0.00,-0.06
0.359,takeoff,1,326,250,41,41,0.53,0.00,0.00,-0.80,0.00,0.54,0.00,-0.47,-0.000,-0.071,-0.000,0.075,-3.141,0.000,0.182,0.000,0.287,-0.11,-0.00,-0.06
0.359,takeoff,1,326,250,41,41,0.53,0.00,0.00,-0.80,0.00,0.54,0.00,-0.47,-0.000,-0.071,-0.000,0.075,-3.141,0.000,0.182,0.000,0.287,-0.11,-0.00,-0.06
0.359,takeoff,1,326,250,41,41,0.53,0.00,0.00,-0.80,0.00,0.54,0.00,-0.47,-0.000,-0.071,-0.000,0.075,-3.141,0.000,0.182,0.000,0.287,-0.11,-0.00,-0.06
0.375,takeoff,1,326,250,41,41,0.53,0.00,0.00,-0.80,0.00,0.56,0.00,-0.47,-0.000,-0.071,-0.000,0.072,-3.141,0.000,0.178,0.000,0.287,-0.11,-0.00,-0.06
0.375,takeoff,1,326,256,41,43,0.51,0.00,0.00,-0.80,0.00,0.56,0.00,-0.47,-0.000,-0.071,-0.000,0.072,-3.141,0.000,0.178,0.000,0.287,-0.11,-0.00,-0.06
0.375,takeoff,1,326,256,41,43,0.51,0.00,0.00,-0.80,0.00,0.56,0.00,-0.48,-0.000,-0.072,-0.000,0.072,-3.141,0.000,0.179,0.000,0.286,-0.12,-0.00,-0.07
0.375,takeoff,1,326,256,41,43,0.51,0.00,0.00,-0.80,0.00,0.56,0.00,-0.48,-0.000,-0.072,-0.000,0.072,-3.141,0.000,0.179,0.000,0.286,-0.12,-0.00,-0.07
0.375,takeoff,1,326,256,41,43,0.51,0.00,0.00,-0.80,0.00,0.56,0.00,-0.48,-0.000,-0.072,-0.000,0.068,-3.141,0.000,0.175,0.000,0.286,-0.12,-0.00,-0.07
0.375,takeoff,1,326,256,41,43,0.51,0.00,0.00,-0.80,0.00,0.56,0.00,-0.48,-0.000,-0.072,-0.000,0.068,-3.141,0.000,0.175,0.000,0.286,-0.12,-0.00,-0.07
0.390,takeoff,1,326,256,41,43,0.51,0.00,0.00,-0.80,0.00,0.56,0.00,-0.48,-0.000,-0.072,-0.000,0.068,-3.141,0.000,0.175,0.000,0.286,-0.12,-0.00,-0.07
0.390,takeoff,1,326,256,41,43,0.51,0.00,0.00,-0.80,0.00,0.56,0.00,-0.48,-0.000,-0.072,-0.000,0.065,-3.141,0.000,0.171,0.000,0.286,-0.12,-0.00,-0.07
0.390,takeoff,1,326,256,41,43,0.51,0.00,0.00,-0.80,0.00,0.56,0.00,-0.48,-0.000,-0.072,-0.000,0.065,-3.141,0.000,0.171,0.000,0.286,-0.12,-0.00,-0.07
0.390,takeoff,1,326,256,41,43,0.51,0.00,0.00,-0.80,0.00,0.56,0.00,-0.48,-0.000,-0.072,-0.000,0.065,-3.141,0.000,0.171,0.000,0.286,-0.12,-0.00,-0.07
0.390,takeoff,1,326,256,41,43,0.51,0.00,0.00,-0.80,0.00,0.56,0.00,-0.50,-0.000,-0.073,-0.000,0.065,-3.141,0.000,0.173,0.000,0.285,-0.13,-0.00,-0.08
0.390,takeoff,1,326,256,41,43,0.51,0.00,0.00,-0.80,0.00,0.58,0.00,-0.50,-0.000,-0.073,-0.000,0.059,-3.141,0.000,0.165,0.000,0.285,-0.13,-0.00,-0.08
0.406,takeoff,1,326,256,41,43,0.51,0.00,0.00,-0.80,0.00,0.58,0.00,-0.50,-0.000,-0.073,-0.000,0.059,-3.141,0.000,0.165,0.000,0.285,-0.13,-0.00,-0.08
0.406,takeoff,1,326,256,41,43,0.51,0.00,0.00,-0.80,0.00,0.58,0.00,-0.50,-0.000,-0.073,-0.000,0.059,-3.141,0.000,0.165,0.000,0.285,-0.13,-0.00,-0.08
0.406,takeoff,1,326,262,41,43,0.51,0.00,0.00,-0.80,0.00,0.58,0.00,-0.50,-0.000,-0.074,-0.000,0.056,-3.141,0.000,0.162,0.000,0.285,-0.13,-0.00,-0.08
0.406,takeoff,1,326,262,41,43,0.51,0.00,0.00,-0.80,0.00,0.58,0.00,-0.50,-0.000,-0.074,-0.000,0.056,-3.141,0.000,0.162,0.000,0.285,-0.13,-0.00,-0.08
0.406,takeoff,1,326,262,41,43,0.51,0.00,0.00,-0.80,0.00,0.60,0.00,-0.50,-0.000,-0.074,-0.000,0.056,-3.141,0.000,0.162,0.000,0.285,-0.13,-0.00,-0.08
0.421,takeoff,1,326,262,41,43,0.51,0.00,0.00,-0.80,0.00,0.60,0.00,-0.50,-0.000,-0.074,-0.000,0.053,-3.141,0.000,0.158,0.000,0.285,-0.13,-0.00,-0.08
0.421,takeoff,1,326,262,41,43,0.51,0.00,0.00,-0.80,0.00,0.60,0.00,-0.51,-0.000,-0.075,-0.000,0.053,-3.141,0.000,0.160,0.000,0.284,-0.14,-0.00,-0.09
0.421,takeoff,1,326,262,41,43,0.51,0.00,0.00,-0.80,0.00,0.60,0.00,-0.51,-0.000,-0.075,-0.000,0.053,-3.141,0.000,0.160,0.000,0.284,-0.14,-0.00,-0.09
0.421,takeoff,1,326,262,41,43,0.51,0.00,0.00,-0.80,0.00,0.60,0.00,-0.51,-0.000,-0.075,-0.000,0.053,-3.141,0.000,0.160,0.000,0.284,-0.14,-0.00,-0.09
0.421,takeoff,1,326,262,41,43,0.51,0.00,0.00,-0.80,0.00,0.60,0.00,-0.51,-0.000,-0.075,-0.000,0.045,-3.141,0.000,0.150,0.000,0.284,-0.14,-0.00,-0.09
0.421,takeoff,1,326,262,41,43,0.51,0.00,0.00,-0.80,0.00,0.60,0.00,-0.52,-0.000,-0.075,-0.000,0.045,-3.141,0.000,0.151,0.000,0.284,-0.15,-0.00,-0.10
0.421,takeoff,1,326,262,41,43,0.51,0.00,0.00,-0.80,0.00,0.60,0.00,-0.52,-0.000,-0.075,-0.000,0.045,-3.141,0.000,0.151,0.000,0.284,-0.15,-0.00,-0.10
0.437,takeoff,1,326,262,41,43,0.51,0.00,0.00,-0.80,0.00,0.60,0.00,-0.52,-0.000,-0.075,-0.000,0.045,-3.141,0.000,0.151,0.000,0.284,-0.15,-0.00,-0.10
0.437,takeoff,1,326,262,41,43,0.51,0.00,0.00,-0.80,0.00,0.60,0.00,-0.52,-0.000,-0.075,-0.000,0.042,-3.141,0.000,0.147,0.000,0.284,-0.15,-0.00,-0.10
0.437,takeoff,1,326,266,41,44,0.51,0.00,0.00,-0.80,0.00,0.60,0.00,-0.53,-0.000,-0.076,-0.000,0.042,-3.141,0.000,0.148,0.000,0.283,-0.16,-0.00,-0.10
0.437,takeoff,1,326,266,41,44,0.51,0.00,0.00,-0.80,0.00,0.61,0.00,-0.53,-0.000,-0.076,-0.000,0.039,-3.141,0.000,0.144,0.000,0.283,-0.16,-0.00,-0.10
0.437,takeoff,1,326,266,41,44,0.51,0.00,0.00,-0.80,0.00,0.61,0.00,-0.53,-0.000,-0.076,-0.000,0.039,-3.141,0.000,0.144,0.000,0.283,-0.16,-0.00,-0.10
0.453,takeoff,1,326,266,41,44,0.51,0.00,0.00,-0.80,0.00,0.61,0.00,-0.53,-0.000,-0.077,-0.000,0.039,-3.141,0.000,0.145,0.000,0.283,-0.16,-0.00,-0.11
0.453,takeoff,1,326,266,41,44,0.51,0.00,0.00,-0.80,0.00,0.61,0.00,-0.53,-0.000,-0.077,-0.000,0.034,-3.141,0.000,0.138,0.000,0.283,-0.16,-0.00,-0.11
0.453,takeoff,1,326,266,41,44,0.51,0.00,0.00,-0.80,0.00,0.62,0.00,-0.53,-0.000,-0.077,-0.000,0.034,-3.141,0.000,0.138,0.000,0.283,-0.16,-0.00,-0.11
0.453,takeoff,1,326,266,41,44,0.51,0.00,0.00,-0.80,0.00,0.62,0.00,-0.53,-0.000,-0.077,-0.000,0.034,-3.141,0.000,0.138,0.000,0.283,-0.16,-0.00,-0.11
0.453,takeoff,1,326,266,41,44,0.51,0.00,0.00,-0.80,0.00,0.62,0.00,-0.54,-0.000,-0.077,-0.000,0.031,-3.141,0.000,0.135,0.000,0.282,-0.17,-0.00,-0.12
0.468,takeoff,1,326,266,41,44,0.51,0.00,0.00,-0.80,0.00,0.62,0.00,-0.54,-0.000,-0.077,-0.000,0.031,-3.141,0.000,0.135,0.000,0.283,-0.17,-0.00,-0.12
0.468,takeoff,1,326,266,41,44,0.51,0.00,0.00,-0.80,0.00,0.62,0.00,-0.54,-0.000,-0.077,-0.000,0.031,-3.141,0.000,0.135,0.000,0.283,-0.17,-0.00,-0.12
0.468,takeoff,1,326,266,41,44,0.51,0.00,0.00,-0.80,0.00,0.63,0.00,-0.54,-0.000,-0.077,-0.000,0.031,-3.141,0.000,0.135,0.000,0.283,-0.17,-0.00,-0.12
0.468,takeoff,1,326,266,41,44,0.51,0.00,0.00,-0.80,0.00,0.63,0.00,-0.55,-0.000,-0.077,-0.000,0.029,-3.141,0.000,0.132,0.000,0.282,-0.18,-0.00,-0.12
0.468,takeoff,1,326,270,41,45,0.50,0.00,0.00,-0.80,0.00,0.63,0.00,-0.55,-0.000,-0.077,-0.000,0.029,-3.141,0.000,0.132,0.000,0.282,-0.18,-0.00,-0.12
0.468,takeoff,1,326,270,41,45,0.50,0.00,0.00,-0.80,0.00,0.63,0.00,-0.55,-0.000,-0.077,-0.000,0.029,-3.141,0.000,0.132,0.000,0.282,-0.18,-0.00,-0.12
0.468,takeoff,1,326,270,41,45,0.50,0.00,0.00,-0.80,0.00,0.63,0.00,-0.55,-0.000,-0.077,-0.000,0.029,-3.141,0.000,0.132,0.000,0.282,-0.18,-0.00,-0.12
0.484,takeoff,1,326,270,41,45,0.50,0.00,0.00,-0.80,0.00,0.63,0.00,-0.55,-0.000,-0.078,-0.000,0.026,-3.141,0.000,0.129,0.000,0.282,-0.18,-0.00,-0.12
0.484,takeoff,1,326,270,41,45,0.50,0.00,0.00,-0.80,0.00,0.64,0.00,-0.55,-0.000,-0.078,-0.000,0.026,-3.141,0.000,0.129,0.000,0.282,-0.18,-0.00,-0.12
0.484,takeoff,1,326,270,41,45,0.50,0.00,0.00,-0.80,0.00,0.64,0.00,-0.55,-0.000,-0.078,-0.000,0.026,-3.141,0.000,0.129,0.000,0.282,-0.18,-0.00,-0.12
0.484,takeoff,1,326,270,41,45,0.50,0.00,0.00,-0.80,0.00,0.64,0.00,-0.55,-0.000,-0.078,-0.000,0.021,-3.141,0.000,0.123,0.000,0.282,-0.18,-0.00,-0.12
0.484,takeoff,1,326,270,41,45,0.50,0.00,0.00,-0.80,0.00,0.64,0.00,-0.56,-0.000,-0.078,-0.000,0.021,-3.141,0.000,0.124,0.000,0.281,-0.19,-0.00,-0.13
0.500,takeoff,1,326,270,41,45,0.50,0.00,0.00,-0.80,0.00,0.64,0.00,-0.56,-0.000,-0.078,-0.000,0.021,-3.141,0.000,0.124,0.000,0.282,-0.19,-0.00,-0.13
0.500,takeoff,1,326,270,41,45,0.50,0.00,0.00,-0.80,0.00,0.64,0.00,-0.56,-0.000,-0.078,-0.000,0.019,-3.141,0.000,0.121,0.000,0.282,-0.19,-0.00,-0.13
0.500,takeoff,1,326,270,41,45,0.50,0.00,0.00,-0.80,0.00,0.64,0.00,-0.57,-0.000,-0.078,-0.000,0.019,-3.141,0.000,0.121,0.000,0.281,-0.20,-0.00,-0.14
0.500,takeoff,1,326,270,41,45,0.50,0.00,0.00,-0.80,0.00,0.64,0.00,-0.57,-0.000,-0.078,-0.000,0.019,-3.141,0.000,0.121,0.000,0.281,-0.20,-0.00,-0.14
0.500,takeoff,1,326,276,41,43,0.52,0.00,0.00,-0.80,0.00,0.64,0.00,-0.57,-0.000,-0.078,-0.000,0.016,-3.141,0.000,0.118,0.000,0.281,-0.20,-0.00,-0.14
0.515,takeoff,1,326,276,41,43,0.52,0.00,0.00,-0.80,0.00,0.65,0.00,-0.57,-0.000,-0.078,-0.000,0.016,-3.141,0.000,0.118,0.000,0.281,-0.20,-0.00,-0.14
0.515,takeoff,1,326,276,41,43,0.52,0.00,0.00,-0.80,0.00,0.65,0.00,-0.57,-0.000,-0.078,-0.000,0.016,-3.141,0.000,0.118,0.000,0.281,-0.20,-0.00,-0.14
0.515,takeoff,1,326,276,41,43,0.52,0.00,0.00,-0.80,0.00,0.65,0.00,-0.57,-0.000,-0.078,-0.000,0.012,-3.141,0.000,0.113,0.000,0.281,-0.20,-0.00,-0.14
0.515,takeoff,1,326,276,41,43,0.52,0.00,0.00,-0.80,0.00,0.65,0.00,-0.57,-0.000,-0.078,-0.000,0.012,-3.141,0.000,0.113,0.000,0.281,-0.20,-0.00,-0.14
0.515,takeoff,1,326,276,41,43,0.52,0.00,0.00,-0.80,0.00,0.65,0.00,-0.57,-0.000,-0.078,-0.000,0.012,-3.141,0.000,0.113,0.000,0.281,-0.20,-0.00,-0.14
0.515,takeoff,1,326,276,41,43,0.52,0.00,0.00,-0.80,0.00,0.65,0.00,-0.57,-0.000,-0.078,-0.000,0.012,-3.141,0.000,0.113,0.000,0.281,-0.20,-0.00,-0.14
0.531,takeoff,1,326,276,41,43,0.52,0.00,0.00,-0.80,0.00,0.65,0.00,-0.58,-0.000,-0.079,-0.000,0.010,-3.141,0.000,0.110,0.000,0.280,-0.21,-0.00,-0.15
0.531,takeoff,1,326,276,41,43,0.52,0.00,0.00,-0.80,0.00,0.65,0.00,-0.58,-0.000,-0.079,-0.000,0.010,-3.141,0.000,0.110,0.000,0.280,-0.21,-0.00,-0.15
0.531,takeoff,1,326,276,41,43,0.52,0.00,0.00,-0.80,0.00,0.65,0.00,-0.58,-0.000,-0.079,-0.000,0.010,-3.141,0.000,0.110,0.000,0.280,-0.21,-0.00,-0.15
0.531,takeoff,1,326,276,41,43,0.52,0.00,0.00,-0.80,0.00,0.65,0.00,-0.58,-0.000,-0.079,-0.000,0.007,-3.140,0.000,0.108,0.000,0.280,-0.22,-0.00,-0.15
0.531,takeoff,1,326,276,41,43,0.52,0.00,0.00,-0.80,0.00,0.65,0.00,-0.58,-0.000,-0.079,-0.000,0.007,-3.140,0.000,0.108,0.000,0.280,-0.22,-0.00,-0.15
0.546,takeoff,1,324,280,43,43,0.53,0.00,0.00,-0.80,0.00,0.65,0.00,-0.59,-0.000,-0.079,-0.000,0.005,-3.140,0.000,0.105,0.000,0.280,-0.23,-0.00,-0.16
0.546,takeoff,1,324,280,43,43,0.53,0.00,0.00,-0.80,0.00,0.65,0.00,-0.59,-0.000,-0.079,-0.000,0.005,-3.140,0.000,0.105,0.000,0.280,-0.23,-0.00,-0.16
0.546,takeoff,1,324,280,43,43,0.53,0.00,0.00,-0.80,0.00,0.65,0.00,-0.59,-0.000,-0.079,-0.000,0.001,-3.140,0.000,0.100,0.000,0.280,-0.23,-0.00,-0.16
0.546,takeoff,1,324,280,43,43,0.53,0.00,0.00,-0.80,0.00,0.65,0.00,-0.59,-0.000,-0.079,-0.000,0.001,-3.140,0.000,0.100,0.000,0.280,-0.23,-0.00,-0.16
0.546,takeoff,1,324,280,43,43,0.53,0.00,0.00,-0.80,0.00,0.65,0.00,-0.59,-0.000,-0.079,-0.000,0.001,-3.140,0.000,0.100,0.000,0.280,-0.23,-0.00,-0.17
0.562,takeoff,1,324,280,43,43,0.53,0.00,0.00,-0.80,0.00,0.65,0.00,-0.59,-0.000,-0.079,-0.000,-0.001,-3.140,0.000,0.098,0.000,0.280,-0.23,-0.00,-0.17
0.562,takeoff,1,324,280,43,43,0.53,0.00,0.00,-0.80,0.00,0.65,0.00,-0.59,-0.000,-0.079,-0.000,-0.001,-3.140,0.000,0.098,0.000,0.280,-0.23,-0.00,-0.17
0.562,takeoff,1,324,280,43,43,0.53,0.00,0.00,-0.80,0.00,0.66,0.00,-0.60,-0.000,-0.079,-0.000,-0.001,-3.140,0.000,0.097,0.000,0.280,-0.24,-0.00,-0.17
0.562,takeoff,1,324,280,43,43,0.53,0.00,0.00,-0.80,0.00,0.66,0.00,-0.60,-0.000,-0.079,-0.000,-0.001,-3.140,0.000,0.097,0.000,0.280,-0.24,-0.00,-0.17
0.562,takeoff,1,326,283,42,44,0.51,0.00,0.00,-0.80,0.00,0.66,0.00,-0.60,-0.000,-0.079,-0.000,-0.003,-3.140,0.000,0.095,0.000,0.280,-0.24,-0.00,-0.17
0.562,takeoff,1,326,283,42,44,0.51,0.00,0.00,-0.80,0.00,0.66,0.00,-0.60,-0.000,-0.079,-0.000,-0.003,-3.140,0.000,0.095,0.000,0.280,-0.24,-0.00,-0.17
0.578,takeoff,1,326,283,42,44,0.51,0.00,0.00,-0.80,0.00,0.66,0.00,-0.60,-0.000,-0.079,-0.000,-0.003,-3.140,0.000,0.095,0.000,0.280,-0.24,-0.00,-0.17
0.578,takeoff,1,326,283,42,44,0.51,0.00,0.00,-0.80,0.00,0.66,0.00,-0.61,-0.000,-0.079,-0.000,-0.005,-3.140,0.000,0.093,0.000,0.280,-0.24,-0.00,-0.18
0.578,takeoff,1,326,283,42,44,0.51,0.00,0.00,-0.80,0.00,0.66,0.00,-0.61,-0.000,-0.079,-0.000,-0.005,-3.140,0.000,0.093,0.000,0.280,-0.24,-0.00,-0.18
0.578,takeoff,1,326,283,42,44,0.51,0.00,0.00,-0.80,0.00,0.66,0.00,-0.61,-0.000,-0.079,-0.000,-0.005,-3.140,0.000,0.093,0.000,0.280,-0.24,-0.00,-0.18
0.578,takeoff,1,326,283,42,44,0.51,0.00,0.00,-0.80,0.00,0.66,0.00,-0.61,-0.000,-0.079,-0.000,-0.005,-3.140,0.000,0.093,0.000,0.280,-0.24,-0.00,-0.18
0.578,takeoff,1,326,283,42,44,0.51,0.00,0.00,-0.80,0.00,0.66,0.00,-0.61,-0.000,-0.079,-0.000,-0.007,-3.140,0.000,0.090,0.000,0.280,-0.25,-0.00,-0.19
0.578,takeoff,1,326,283,42,44,0.51,0.00,0.00,-0.80,0.00,0.66,0.00,-0.61,-0.000,-0.079,-0.000,-0.007,-3.140,0.000,0.090,0.000,0.280,-0.25,-0.00,-0.19
0.593,takeoff,1,326,283,42,44,0.51,0.00,0.00,-0.80,0.00,0.66,0.00,-0.61,-0.000,-0.079,-0.000,-0.007,-3.140,0.000,0.090,0.000,0.280,-0.25,-0.00,-0.19
0.593,takeoff,1,326,283,42,44,0.51,0.00,0.00,-0.80,0.00,0.66,0.00,-0.61,-0.000,-0.079,-0.000,-0.010,-3.140,0.000,0.085,0.000,0.280,-0.25,-0.00,-0.19
0.593,takeoff,1,326,283,42,44,0.51,0.00,0.00,-0.80,0.00,0.66,0.00,-0.61,-0.000,-0.079,-0.000,-0.010,-3.140,0.000,0.085,0.000,0.280,-0.25,-0.00,-0.19
0.593,takeoff,1,326,283,42,44,0.51,0.00,0.00,-0.80,0.00,0.66,0.00,-0.62,-0.000,-0.078,-0.000,-0.010,-3.140,0.000,0.085,0.000,0.280,-0.26,-0.00,-0.19
0.593,takeoff,1,326,283,42,44,0.51,0.00,0.00,-0.80,0.00,0.66,0.00,-0.62,-0.000,-0.078,-0.000,-0.010,-3.140,0.000,0.085,0.000,0.280,-0.26,-0.00,-0.19
0.593,takeoff,1,326,283,42,44,0.51,0.00,0.00,-0.80,0.00,0.66,0.00,-0.62,-0.000,-0.078,-0.000,-0.012,-3.140,0.000,0.083,0.000,0.280,-0.26,-0.00,-0.19
0.609,takeoff,1,326,287,42,44,0.51,0.00,0.00,-0.80,0.00,0.66,0.00,-0.62,-0.000,-0.078,-0.000,-0.012,-3.140,0.000,0.083,0.000,0.280,-0.26,-0.00,-0.19
0.609,takeoff,1,326,287,42,44,0.51,0.00,0.00,-0.80,0.00,0.66,0.00,-0.62,-0.000,-0.078,-0.000,-0.012,-3.140,0.000,0.083,0.000,0.280,-0.27,-0.00,-0.20
0.609,takeoff,1,326,287,42,44,0.51,0.00,0.00,-0.80,0.00,0.66,0.00,-0.62,-0.000,-0.078,-0.000,-0.014,-3.140,0.000,0.081,0.000,0.280,-0.27,-0.00,-0.20
0.609,takeoff,1,326,287,42,44,0.51,0.00,0.00,-0.80,0.00,0.66,0.00,-0.62,-0.000,-0.078,-0.000,-0.014,-3.140,0.000,0.081,0.000,0.280,-0.27,-0.00,-0.20
0.609,takeoff,1,326,287,42,44,0.51,0.00,0.00,-0.80,0.00,0.66,0.00,-0.62,-0.000,-0.078,-0.000,-0.014,-3.140,0.000,0.081,0.000,0.280,-0.27,-0.00,-0.20
0.609,takeoff,1,326,287,42,44,0.51,0.00,0.00,-0.80,0.00,0.66,0.00,-0.63,-0.000,-0.078,-0.000,-0.014,-3.140,0.000,0.081,0.000,0.280,-0.27,-0.00,-0.21
0.625,takeoff,1,326,287,42,44,0.51,0.00,0.00,-0.80,0.00,0.66,0.00,-0.63,-0.000,-0.078,-0.000,-0.017,-3.140,0.000,0.077,0.000,0.280,-0.27,-0.00,-0.21
0.625,takeoff,1,326,287,42,44,0.51,0.00,0.00,-0.80,0.00,0.66,0.00,-0.63,-0.000,-0.078,-0.000,-0.017,-3.140,0.000,0.077,0.000,0.280,-0.27,-0.00,-0.21
0.625,takeoff,1,326,287,42,44,0.51,0.00,0.00,-0.80,0.00,0.66,0.00,-0.63,-0.000,-0.078,-0.000,-0.017,-3.140,0.000,0.077,0.000,0.280,-0.27,-0.00,-0.21
0.625,takeoff,1,326,287,42,44,0.51,0.00,0.00,-0.80,0.00,0.66,0.00,-0.64,-0.000,-0.078,-0.000,-0.017,-3.140,0.000,0.076,0.000,0.280,-0.28,-0.00,-0.21
0.625,takeoff,1,326,287,42,44,0.51,0.00,0.00,-0.80,0.00,0.66,0.00,-0.64,-0.000,-0.078,-0.000,-0.018,-3.140,0.000,0.074,0.000,0.280,-0.28,-0.00,-0.21
0.625,takeoff,1,326,287,42,44,0.51,0.00,0.00,-0.80,0.00,0.66,0.00,-0.64,-0.000,-0.078,-0.000,-0.018,-3.140,0.000,0.074,0.000,0.280,-0.28,-0.00,-0.21
0.640,takeoff,1,326,287,42,44,0.51,0.00,0.00,-0.80,0.00,0.66,0.00,-0.64,-0.000,-0.078,-0.000,-0.018,-3.140,0.000,0.074,0.000,0.280,-0.28,-0.00,-0.21
0.640,takeoff,1,326,287,42,44,0.51,0.00,0.00,-0.80,0.00,0.66,0.00,-0.64,-0.000,-0.078,-0.000,-0.020,-3.140,0.000,0.072,0.000,0.280,-0.28,-0.00,-0.22
0.640,takeoff,1,326,290,42,45,0.51,0.00,0.00,-0.80,0.00,0.66,0.00,-0.64,-0.000,-0.078,-0.000,-0.020,-3.140,0.000,0.072,0.000,0.280,-0.28,-0.00,-0.22
0.640,takeoff,1,326,290,42,45,0.51,0.00,0.00,-0.80,0.00,0.66,0.00,-0.64,-0.000,-0.078,-0.000,-0.021,-3.140,0.000,0.070,0.000,0.280,-0.28,-0.00,-0.22
0.640,takeoff,1,326,290,42,45,0.51,0.00,0.00,-0.80,0.00,0.66,0.00,-0.65,-0.000,-0.077,-0.000,-0.021,-3.140,-0.000,0.070,0.000,0.280,-0.29,-0.00,-0.23
0.656,takeoff,1,326,290,42,45,0.51,0.00,0.00,-0.80,0.00,0.66,0.00,-0.65,-0.000,-0.077,-0.000,-0.021,-3.140,-0.000,0.070,0.000,0.280,-0.29,-0.00,-0.23
0.656,takeoff,1,326,290,42,45,0.51,0.00,0.00,-0.80,0.00,0.66,0.00,-0.65,-0.000,-0.077,-0.000,-0.024,-3.140,-0.000,0.066,0.000,0.280,-0.29,-0.00,-0.23
0.656,takeoff,1,326,290,42,45,0.51,0.00,0.00,-0.80,0.00,0.66,0.00,-0.65,-0.000,-0.077,-0.000,-0.024,-3.140,-0.000,0.066,0.000,0.280,-0.29,-0.00,-0.23
0.656,takeoff,1,326,290,42,45,0.51,0.00,0.00,-0.80,0.00,0.66,0.00,-0.65,-0.000,-0.077,-0.000,-0.024,-3.140,-0.000,0.066,0.000,0.280,-0.30,-0.00,-0.23
0.656,takeoff,1,326,290,42,45,0.51,0.00,0.00,-0.80,0.00,0.66,0.00,-0.65,-0.000,-0.077,-0.000,-0.025,-3.140,-0.000,0.065,0.000,0.280,-0.30,-0.00,-0.23
0.671,takeoff,1,326,290,42,45,0.51,0.00,0.00,-0.80,0.00,0.66,0.00,-0.65,-0.000,-0.077,-0.000,-0.025,-3.140,-0.000,0.065,0.000,0.280,-0.30,-0.00,-0.23
0.671,takeoff,1,326,290,42,45,0.51,0.00,0.00,-0.80,0.00,0.66,0.00,-0.65,-0.000,-0.077,-0.000,-0.025,-3.140,-0.000,0.065,0.000,0.280,-0.30,-0.00,-0.23
0.671,takeoff,1,326,290,42,45,0.51,0.00,0.00,-0.80,0.00,0.66,0.00,-0.66,-0.000,-0.077,-0.000,-0.025,-3.140,-0.000,0.064,0.000,0.280,-0.31,-0.00,-0.24
0.671,takeoff,1,326,293,44,44,0.52,0.00,0.00,-0.80,0.00,0.66,0.00,-0.66,-0.000,-0.077,-0.000,-0.027,-3.140,-0.000,0.062,0.000,0.280,-0.31,-0.00,-0.24
0.671,takeoff,1,326,293,44,44,0.52,0.00,0.00,-0.80,0.00,0.66,0.00,-0.66,-0.000,-0.077,-0.000,-0.027,-3.140,-0.000,0.062,0.000,0.280,-0.31,-0.00,-0.24
0.671,takeoff,1,326,293,44,44,0.52,0.00,0.00,-0.80,0.00,0.66,0.00,-0.66,-0.000,-0.077,-0.000,-0.027,-3.140,-0.000,0.062,0.000,0.280,-0.31,-0.00,-0.24
0.687,takeoff,1,326,293,44,44,0.52,0.00,0.00,-0.80,0.00,0.66,0.00,-0.67,-0.000,-0.076,-0.000,-0.027,-3.140,-0.000,0.062,0.000,0.280,-0.31,-0.00,-0.25
0.687,takeoff,1,326,293,44,44,0.52,0.00,0.00,-0.80,0.00,0.66,0.00,-0.67,-0.000,-0.076,-0.000,-0.029,-3.140,-0.000,0.059,0.000,0.280,-0.31,-0.00,-0.25
0.687,takeoff,1,326,293,44,44,0.52,0.00,0.00,-0.80,0.00,0.66,0.00,-0.67,-0.000,-0.076,-0.000,-0.029,-3.140,-0.000,0.059,0.000,0.280,-0.31,-0.00,-0.25
0.687,takeoff,1,326,293,44,44,0.52,0.00,0.00,-0.80,0.00,0.65,0.00,-0.67,-0.000,-0.076,-0.000,-0.029,-3.140,-0.000,0.059,0.000,0.280,-0.31,-0.00,-0.25
0.687,takeoff,1,326,293,44,44,0.52,0.00,0.00,-0.80,0.00,0.65,0.00,-0.67,-0.000,-0.076,-0.000,-0.029,-3.140,-0.000,0.059,0.000,0.280,-0.31,-0.00,-0.25
0.687,takeoff,1,326,293,44,44,0.52,0.00,0.00,-0.80,0.00,0.65,0.00,-0.67,-0.000,-0.076,-0.000,-0.030,-3.140,-0.000,0.057,0.000,0.280,-0.32,-0.00,-0.26
0.687,takeoff,1,326,293,44,44,0.52,0.00,0.00,-0.80,0.00,0.65,0.00,-0.67,-0.000,-0.076,-0.000,-0.030,-3.140,-0.000,0.057,0.000,0.280,-0.32,-0.00,-0.26
0.703,takeoff,1,326,293,44,44,0.52,0.00,0.00,-0.80,0.00,0.65,0.00,-0.67,-0.000,-0.076,-0.000,-0.030,-3.140,-0.000,0.057,0.000,0.280,-0.32,-0.00,-0.26
0.703,takeoff,1,326,293,44,44,0.52,0.00,0.00,-0.80,0.00,0.65,0.00,-0.67,-0.000,-0.076,-0.000,-0.030,-3.140,-0.000,0.057,0.000,0.280,-0.32,-0.00,-0.26
0.703,takeoff,1,326,295,43,46,0.50,0.00,0.00,-0.80,0.00,0.65,0.00,-0.68,-0.000,-0.075,-0.000,-0.032,-3.140,-0.000,0.055,0.000,0.280,-0.33,-0.00,-0.27
0.703,takeoff,1,326,295,43,46,0.50,0.00,0.00,-0.80,0.00,0.65,0.00,-0.68,-0.000,-0.075,-0.000,-0.032,-3.140,-0.000,0.055,0.000,0.280,-0.33,-0.00,-0.27
0.703,takeoff,1,326,295,43,46,0.50,0.00,0.00,-0.80,0.00,0.65,0.00,-0.68,-0.000,-0.075,-0.000,-0.034,-3.140,-0.000,0.052,0.000,0.280,-0.33,-0.00,-0.27
0.718,takeoff,1,326,295,43,46,0.50,0.00,0.00,-0.80,0.00,0.65,0.00,-0.69,-0.000,-0.075,-0.000,-0.034,-3.140,-0.000,0.051,0.000,0.280,-0.33,-0.00,-0.27
0.718,takeoff,1,326,295,43,46,0.50,0.00,0.00,-0.80,0.00,0.65,0.00,-0.69,-0.000,-0.075,-0.000,-0.034,-3.140,-0.000,0.051,0.000,0.280,-0.33,-0.00,-0.27
0.718,takeoff,1,326,295,43,46,0.50,0.00,0.00,-0.80,0.00,0.65,0.00,-0.69,-0.000,-0.075,-0.000,-0.035,-3.140,-0.000,0.050,0.000,0.280,-0.33,-0.00,-0.27
0.718,takeoff,1,326,295,43,46,0.50,0.00,0.00,-0.80,0.00,0.65,0.00,-0.70,-0.000,-0.074,-0.000,-0.035,-3.140,-0.000,0.049,0.000,0.280,-0.34,-0.00,-0.28
0.718,takeoff,1,326,295,43,46,0.50,0.00,0.00,-0.80,0.00,0.65,0.00,-0.70,-0.000,-0.074,-0.000,-0.035,-3.140,-0.000,0.049,0.000,0.280,-0.34,-0.00,-0.28
0.734,takeoff,1,326,295,43,46,0.50,0.00,0.00,-0.80,0.00,0.64,0.00,-0.70,-0.000,-0.074,-0.000,-0.036,-3.140,-0.000,0.048,0.000,0.280,-0.34,-0.00,-0.28
0.734,takeoff,1,326,295,43,46,0.50,0.00,0.00,-0.80,0.00,0.64,0.00,-0.70,-0.000,-0.074,-0.000,-0.036,-3.140,-0.000,0.048,0.000,0.280,-0.34,-0.00,-0.28
0.734,takeoff,1,326,295,43,46,0.50,0.00,0.00,-0.80,0.00,0.64,0.00,-0.70,-0.000,-0.074,-0.000,-0.036,-3.140,-0.000,0.048,0.000,0.280,-0.34,-0.00,-0.28
0.734,takeoff,1,326,298,43,46,0.51,0.00,0.00,-0.80,0.00,0.64,0.00,-0.70,-0.000,-0.074,-0.000,-0.037,-3.140,-0.000,0.046,0.000,0.280,-0.35,-0.00,-0.28
0.734,takeoff,1,326,298,43,46,0.51,0.00,0.00,-0.80,0.00,0.64,0.00,-0.70,-0.000,-0.074,-0.000,-0.037,-3.140,-0.000,0.046,0.000,0.280,-0.35,-0.00,-0.28
0.734,takeoff,1,326,298,43,46,0.51,0.00,0.00,-0.80,0.00,0.64,0.00,-0.70,-0.000,-0.074,-0.000,-0.037,-3.140,-0.000,0.046,0.000,0.280,-0.35,-0.00,-0.28
0.750,takeoff,1,326,298,43,46,0.51,0.00,0.00,-0.80,0.00,0.64,0.00,-0.70,-0.000,-0.074,-0.000,-0.037,-3.140,-0.000,0.046,0.000,0.280,-0.35,-0.00,-0.28
0.750,takeoff,1,326,298,43,46,0.51,0.00,0.00,-0.80,0.00,0.64,0.00,-0.71,-0.000,-0.073,-0.000,-0.039,-3.140,-0.000,0.043,0.000,0.280,-0.35,-0.00,-0.29
0.750,takeoff,1,326,298,43,46,0.51,0.00,0.00,-0.80,0.00,0.64,0.00,-0.71,-0.000,-0.073,-0.000,-0.039,-3.140,-0.000,0.043,0.000,0.280,-0.35,-0.00,-0.29
0.750,takeoff,1,326,298,43,46,0.51,0.00,0.00,-0.80,0.00,0.64,0.00,-0.71,-0.000,-0.073,-0.000,-0.039,-3.140,-0.000,0.043,0.000,0.280,-0.35,-0.00,-0.29
0.750,takeoff,1,326,298,43,46,0.51,0.00,0.00,-0.80,0.00,0.64,0.00,-0.71,-0.000,-0.073,-0.000,-0.040,-3.140,-0.000,0.042,0.000,0.280,-0.35,-0.00,-0.29
0.750,takeoff,1,326,298,43,46,0.51,0.00,0.00,-0.80,0.00,0.63,0.00,-0.72,-0.000,-0.073,-0.000,-0.040,-3.140,-0.000,0.041,0.000,0.280,-0.36,-0.00,-0.30
0.765,takeoff,1,326,298,43,46,0.51,0.00,0.00,-0.80,0.00,0.63,0.00,-0.72,-0.000,-0.073,-0.000,-0.040,-3.140,-0.000,0.041,0.000,0.280,-0.36,-0.00,-0.30
0.765,takeoff,1,326,298,43,46,0.51,0.00,0.00,-0.80,0.00,0.63,0.00,-0.72,-0.000,-0.073,-0.000,-0.040,-3.140,-0.000,0.041,0.000,0.280,-0.36,-0.00,-0.30
0.765,takeoff,1,326,298,43,46,0.51,0.00,0.00,-0.80,0.00,0.63,0.00,-0.72,-0.000,-0.073,-0.000,-0.041,-3.140,-0.000,0.040,0.000,0.280,-0.36,-0.00,-0.30
0.765,takeoff,1,326,298,43,46,0.51,0.00,0.00,-0.80,0.00,0.63,0.00,-0.72,-0.000,-0.073,-0.000,-0.041,-3.140,-0.000,0.040,0.000,0.280,-0.36,-0.00,-0.30
0.765,takeoff,1,326,298,43,46,0.51,0.00,0.00,-0.80,0.00,0.63,0.00,-0.72,-0.000,-0.072,-0.000,-0.041,-3.140,-0.000,0.039,0.000,0.280,-0.37,-0.00,-0.31
0.765,takeoff,1,326,300,43,47,0.50,0.00,0.00,-0.80,0.00,0.63,0.00,-0.72,-0.000,-0.072,-0.000,-0.041,-3.140,-0.000,0.039,0.000,0.280,-0.37,-0.00,-0.31
0.765,takeoff,1,326,300,43,47,0.50,0.00,0.00,-0.80,0.00,0.63,0.00,-0.72,-0.000,-0.072,-0.000,-0.042,-3.140,-0.000,0.037,0.000,0.280,-0.37,-0.00,-0.31
0.781,takeoff,1,326,300,43,47,0.50,0.00,0.00,-0.80,0.00,0.63,0.00,-0.72,-0.000,-0.072,-0.000,-0.042,-3.140,-0.000,0.037,0.000,0.280,-0.37,-0.00,-0.31
0.781,takeoff,1,326,300,43,47,0.50,0.00,0.00,-0.80,0.00,0.63,0.00,-0.73,-0.000,-0.072,-0.000,-0.042,-3.140,-0.000,0.037,0.000,0.280,-0.37,-0.00,-0.31
0.781,takeoff,1,326,300,43,47,0.50,0.00,0.00,-0.80,0.00,0.63,0.00,-0.73,-0.000,-0.072,-0.000,-0.042,-3.140,-0.000,0.037,0.000,0.280,-0.37,-0.00,-0.31
0.781,takeoff,1,326,300,43,47,0.50,0.00,0.00,-0.80,0.00,0.63,0.00,-0.73,-0.000,-0.072,-0.000,-0.043,-3.140,-0.000,0.036,0.000,0.280,-0.37,-0.00,-0.31
0.781,takeoff,1,326,300,43,47,0.50,0.00,0.00,-0.80,0.00,0.63,0.00,-0.73,-0.000,-0.072,-0.000,-0.043,-3.140,-0.000,0.036,0.000,0.280,-0.37,-0.00,-0.31
0.781,takeoff,1,326,300,43,47,0.50,0.00,0.00,-0.80,0.00,0.63,0.00,-0.73,-0.000,-0.072,-0.000,-0.043,-3.140,-0.000,0.036,0.000,0.280,-0.37,-0.00,-0.31
0.796,takeoff,1,326,300,43,47,0.50,0.00,0.00,-0.80,0.00,0.63,0.00,-0.74,-0.000,-0.071,-0.000,-0.043,-3.140,-0.000,0.035,0.000,0.280,-0.38,-0.00,-0.32
0.796,takeoff,1,326,300,43,47,0.50,0.00,0.00,-0.80,0.00,0.63,0.00,-0.74,-0.000,-0.071,-0.000,-0.044,-3.140,-0.000,0.034,0.000,0.280,-0.38,-0.00,-0.32
0.796,takeoff,1,326,300,43,47,0.50,0.00,0.00,-0.80,0.00,0.63,0.00,-0.74,-0.000,-0.071,-0.000,-0.044,-3.140,-0.000,0.034,0.000,0.280,-0.38,-0.00,-0.32
0.796,takeoff,1,326,300,43,47,0.50,0.00,0.00,-0.80,0.00,0.62,0.00,-0.74,-0.000,-0.071,-0.000,-0.044,-3.140,-0.000,0.034,0.000,0.280,-0.38,-0.00,-0.32
0.796,takeoff,1,326,300,43,47,0.50,0.00,0.00,-0.80,0.00,0.62,0.00,-0.74,-0.000,-0.071,-0.000,-0.044,-3.140,-0.000,0.034,0.000,0.280,-0.38,-0.00,-0.32
0.796,takeoff,1,326,300,43,47,0.50,0.00,0.00,-0.80,0.00,0.62,0.00,-0.75,-0.000,-0.070,-0.000,-0.045,-3.140,-0.000,0.031,0.000,0.280,-0.39,-0.00,-0.33
0.796,takeoff,1,326,300,43,47,0.50,0.00,0.00,-0.80,0.00,0.62,0.00,-0.75,-0.000,-0.070,-0.000,-0.045,-3.140,-0.000,0.031,0.000,0.280,-0.39,-0.00,-0.33
0.812,takeoff,1,326,302,45,47,0.50,0.00,0.00,-0.80,0.00,0.62,0.00,-0.75,-0.000,-0.070,-0.000,-0.045,-3.140,-0.000,0.031,0.000,0.280,-0.39,-0.00,-0.33
0.812,takeoff,1,326,302,45,47,0.50,0.00,0.00,-0.80,0.00,0.62,0.00,-0.75,-0.000,-0.070,-0.000,-0.046,-3.140,-0.000,0.030,0.000,0.280,-0.39,-0.00,-0.33
0.812,takeoff,1,326,302,45,47,0.50,0.00,0.00,-0.80,0.00,0.62,0.00,-0.75,-0.000,-0.070,-0.000,-0.046,-3.140,-0.000,0.030,0.000,0.280,-0.39,-0.00,-0.34
0.812,takeoff,1,326,302,45,47,0.50,0.00,0.00,-0.80,0.00,0.62,0.00,-0.75,-0.000,-0.070,-0.000,-0.046,-3.140,-0.000,0.030,0.000,0.280,-0.39,-0.00,-0.34
0.812,takeoff,1,326,302,45,47,0.50,0.00,0.00,-0.80,0.00,0.62,0.00,-0.75,-0.000,-0.070,-0.000,-0.046,-3.140,-0.000,0.030,0.000,0.280,-0.39,-0.00,-0.34
0.812,takeoff,1,326,302,45,47,0.50,0.00,0.00,-0.80,0.00,0.62,0.00,-0.75,-0.000,-0.070,-0.000,-0.047,-3.140,-0.000,0.029,0.000,0.280,-0.39,-0.00,-0.34
0.812,takeoff,1,326,302,45,47,0.50,0.00,0.00,-0.80,0.00,0.62,0.00,-0.75,-0.000,-0.070,-0.000,-0.047,-3.140,-0.000,0.029,0.000,0.280,-0.39,-0.00,-0.34
0.828,takeoff,1,326,302,45,47,0.50,0.00,0.00,-0.80,0.00,0.62,0.00,-0.76,-0.000,-0.069,-0.000,-0.047,-3.140,-0.000,0.028,0.000,0.280,-0.40,-0.00,-0.35
0.828,takeoff,1,326,302,45,47,0.50,0.00,0.00,-0.80,0.00,0.61,0.00,-0.76,-0.000,-0.069,-0.000,-0.047,-3.140,-0.000,0.028,0.000,0.280,-0.40,-0.00,-0.35
0.828,takeoff,1,326,302,45,47,0.50,0.00,0.00,-0.80,0.00,0.61,0.00,-0.76,-0.000,-0.069,-0.000,-0.047,-3.140,-0.000,0.027,0.000,0.280,-0.40,-0.00,-0.35
0.828,takeoff,1,326,302,45,47,0.50,0.00,0.00,-0.80,0.00,0.61,0.00,-0.76,-0.000,-0.069,-0.000,-0.047,-3.140,-0.000,0.027,0.000,0.280,-0.40,-0.00,-0.35
0.828,takeoff,1,326,302,45,47,0.50,0.00,0.00,-0.80,0.00,0.61,0.00,-0.77,-0.000,-0.068,-0.000,-0.047,-3.140,-0.000,0.027,0.000,0.280,-0.40,-0.00,-0.36
0.828,takeoff,1,326,302,45,47,0.50,0.00,0.00,-0.80,0.00,0.61,0.00,-0.77,-0.000,-0.068,-0.000,-0.047,-3.140,-0.000,0.027,0.000,0.280,-0.40,-0.00,-0.36
0.828,takeoff,1,326,302,45,47,0.50,0.00,0.00,-0.80,0.00,0.61,0.00,-0.77,-0.000,-0.068,-0.000,-0.048,-3.140,-0.000,0.025,0.000,0.280,-0.40,-0.00,-0.36
0.843,takeoff,1,326,302,45,47,0.50,0.00,0.00,-0.80,0.00,0.60,0.00,-0.77,-0.000,-0.068,-0.000,-0.048,-3.140,-0.000,0.025,0.000,0.280,-0.40,-0.00,-0.36
0.843,takeoff,1,326,302,42,47,0.50,0.00,0.00,-0.80,0.00,0.60,0.00,-0.77,-0.000,-0.068,-0.000,-0.048,-3.140,-0.000,0.025,0.000,0.280,-0.40,-0.00,-0.36
0.843,takeoff,1,326,302,42,47,0.50,0.00,0.00,-0.80,0.00,0.60,0.00,-0.77,-0.000,-0.068,-0.000,-0.049,-3.140,-0.000,0.023,0.000,0.280,-0.41,-0.00,-0.37
0.843,takeoff,1,326,302,42,47,0.50,0.00,0.00,-0.80,0.00,0.60,0.00,-0.77,-0.000,-0.068,-0.000,-0.049,-3.140,-0.000,0.023,0.000,0.280,-0.41,-0.00,-0.37
0.843,takeoff,1,326,302,42,47,0.50,0.00,0.00,-0.80,0.00,0.60,0.00,-0.77,-0.000,-0.068,-0.000,-0.049,-3.140,-0.000,0.023,0.000,0.280,-0.41,-0.00,-0.37
0.843,takeoff,1,326,302,42,47,0.50,0.00,0.00,-0.80,0.00,0.60,0.00,-0.77,-0.000,-0.068,-0.000,-0.049,-3.140,-0.000,0.023,0.000,0.280,-0.41,-0.00,-0.37
0.859,takeoff,1,326,302,42,47,0.50,0.00,0.00,-0.80,0.00,0.60,0.00,-0.78,-0.000,-0.067,-0.000,-0.049,-3.140,-0.000,0.022,0.000,0.280,-0.42,-0.00,-0.37
0.859,takeoff,1,326,302,42,47,0.50,0.00,0.00,-0.80,0.00,0.60,0.00,-0.78,-0.000,-0.067,-0.000,-0.049,-3.140,-0.000,0.022,0.000,0.280,-0.42,-0.00,-0.37
0.859,takeoff,1,326,302,42,47,0.50,0.00,0.00,-0.80,0.00,0.60,0.00,-0.78,-0.000,-0.067,-0.000,-0.049,-3.140,-0.000,0.022,0.000,0.280,-0.42,-0.00,-0.37
0.859,takeoff,1,326,302,42,47,0.50,0.00,0.00,-0.80,0.00,0.60,0.00,-0.78,-0.000,-0.067,-0.000,-0.050,-3.140,-0.000,0.021,0.000,0.280,-0.42,-0.00,-0.37
0.859,takeoff,1,326,302,42,47,0.50,0.00,0.00,-0.80,0.00,0.59,0.00,-0.79,-0.000,-0.066,-0.000,-0.050,-3.140,-0.000,0.020,0.000,0.280,-0.42,-0.00,-0.38
0.859,takeoff,1,326,302,42,47,0.50,0.00,0.00,-0.80,0.00,0.59,0.00,-0.79,-0.000,-0.066,-0.000,-0.050,-3.140,-0.000,0.020,0.000,0.280,-0.42,-0.00,-0.38
0.875,takeoff,1,326,304,42,47,0.48,0.00,0.00,-0.80,0.00,0.59,0.00,-0.79,-0.000,-0.066,-0.000,-0.050,-3.140,-0.000,0.020,0.000,0.280,-0.42,-0.00,-0.38
0.875,takeoff,1,326,304,42,47,0.48,0.00,0.00,-0.80,0.00,0.59,0.00,-0.79,-0.000,-0.066,-0.000,-0.051,-3.140,-0.000,0.019,0.000,0.280,-0.42,-0.00,-0.38
0.875,takeoff,1,326,304,42,47,0.48,0.00,0.00,-0.80,0.00,0.59,0.00,-0.79,-0.000,-0.066,-0.000,-0.051,-3.140,-0.000,0.019,0.000,0.280,-0.43,-0.00,-0.39
0.875,takeoff,1,326,304,42,47,0.48,0.00,0.00,-0.80,0.00,0.58,0.00,-0.79,-0.000,-0.066,-0.000,-0.051,-3.140,-0.000,0.019,0.000,0.280,-0.43,-0.00,-0.39
0.875,takeoff,1,326,304,42,47,0.48,0.00,0.00,-0.80,0.00,0.58,0.00,-0.79,-0.000,-0.066,-0.000,-0.051,-3.140,-0.000,0.018,0.000,0.280,-0.43,-0.00,-0.39
0.875,takeoff,1,326,304,42,47,0.48,0.00,0.00,-0.80,0.00,0.58,0.00,-0.79,-0.000,-0.066,-0.000,-0.051,-3.140,-0.000,0.018,0.000,0.280,-0.43,-0.00,-0.39
0.890,takeoff,1,326,304,42,47,0.48,0.00,0.00,-0.80,0.00,0.58,0.00,-0.80,-0.000,-0.065,-0.000,-0.051,-3.140,-0.000,0.017,0.000,0.280,-0.43,-0.00,-0.40
0.890,takeoff,1,326,304,42,47,0.48,0.00,0.00,-0.80,0.00,0.58,0.00,-0.80,-0.000,-0.065,-0.000,-0.052,-3.140,-0.000,0.016,0.000,0.280,-0.43,-0.00,-0.40
0.890,takeoff,1,326,304,42,47,0.48,0.00,0.00,-0.80,0.00,0.58,0.00,-0.80,-0.000,-0.065,-0.000,-0.052,-3.140,-0.000,0.016,0.000,0.280,-0.43,-0.00,-0.40
0.890,takeoff,1,326,304,42,47,0.48,0.00,0.00,-0.80,0.00,0.58,0.00,-0.80,-0.000,-0.065,-0.000,-0.052,-3.140,-0.000,0.016,0.000,0.280,-0.43,-0.00,-0.40
0.890,takeoff,1,326,304,42,47,0.48,0.00,0.00,-0.80,0.00,0.58,0.00,-0.81,-0.000,-0.064,-0.000,-0.052,-3.140,-0.000,0.016,0.000,0.280,-0.44,-0.00,-0.41
0.890,takeoff,1,326,304,42,47,0.48,0.00,0.00,-0.80,0.00,0.58,0.00,-0.81,-0.000,-0.064,-0.000,-0.052,-3.140,-0.000,0.015,0.000,0.280,-0.44,-0.00,-0.41
0.890,takeoff,1,326,304,42,47,0.48,0.00,0.00,-0.80,0.00,0.58,0.00,-0.81,-0.000,-0.064,-0.000,-0.052,-3.140,-0.000,0.015,0.000,0.280,-0.44,-0.00,-0.41
0.906,takeoff,1,326,305,42,48,0.46,0.00,0.00,-0.80,0.00,0.58,0.00,-0.81,-0.000,-0.064,-0.000,-0.052,-3.140,-0.000,0.015,0.000,0.280,-0.44,-0.00,-0.41
0.906,takeoff,1,326,305,42,48,0.46,0.00,0.00,-0.80,0.00,0.58,0.00,-0.81,-0.000,-0.064,-0.000,-0.052,-3.140,-0.000,0.015,0.000,0.280,-0.44,-0.00,-0.41
0.906,takeoff,1,326,305,42,48,0.46,0.00,0.00,-0.80,0.00,0.57,0.00,-0.81,-0.000,-0.063,-0.000,-0.053,-3.140,-0.000,0.013,0.000,0.280,-0.45,-0.00,-0.42
0.906,takeoff,1,326,305,42,48,0.46,0.00,0.00,-0.80,0.00,0.57,0.00,-0.81,-0.000,-0.063,-0.000,-0.053,-3.140,-0.000,0.013,0.000,0.280,-0.45,-0.00,-0.42
0.906,takeoff,1,326,305,42,48,0.46,0.00,0.00,-0.80,0.00,0.57,0.00,-0.81,-0.000,-0.063,-0.000,-0.053,-3.140,-0.000,0.013,0.000,0.280,-0.45,-0.00,-0.42
0.906,takeoff,1,326,305,42,48,0.46,0.00,0.00,-0.80,0.00,0.57,0.00,-0.81,-0.000,-0.063,-0.000,-0.053,-3.140,-0.000,0.013,0.000,0.280,-0.45,-0.00,-0.42
0.906,takeoff,1,326,305,42,48,0.46,0.00,0.00,-0.80,0.00,0.57,0.00,-0.81,-0.000,-0.063,-0.000,-0.053,-3.140,-0.000,0.013,0.000,0.280,-0.45,-0.00,-0.42
0.921,takeoff,1,326,305,42,48,0.46,0.00,0.00,-0.80,0.00,0.57,0.00,-0.82,-0.000,-0.063,-0.000,-0.053,-3.140,-0.000,0.012,0.000,0.280,-0.45,-0.00,-0.42
0.921,takeoff,1,326,305,42,48,0.46,0.00,0.00,-0.80,0.00,0.56,0.00,-0.82,-0.000,-0.063,-0.000,-0.053,-3.140,-0.000,0.012,0.000,0.280,-0.45,-0.00,-0.42
0.921,takeoff,1,326,305,42,48,0.46,0.00,0.00,-0.80,0.00,0.56,0.00,-0.82,-0.000,-0.063,-0.000,-0.053,-3.140,-0.000,0.012,0.000,0.280,-0.45,-0.00,-0.42
0.921,takeoff,1,326,305,42,48,0.46,0.00,0.00,-0.80,0.00,0.56,0.00,-0.82,-0.000,-0.063,-0.000,-0.054,-3.140,-0.000,0.012,0.000,0.280,-0.45,-0.00,-0.42
0.921,takeoff,1,326,305,42,48,0.46,0.00,0.00,-0.80,0.00,0.56,0.00,-0.83,-0.000,-0.062,-0.000,-0.054,-3.140,-0.000,0.010,0.000,0.280,-0.46,-0.00,-0.43
0.921,takeoff,1,326,305,42,48,0.46,0.00,0.00,-0.80,0.00,0.56,0.00,-0.83,-0.000,-0.062,-0.000,-0.054,-3.140,-0.000,0.010,0.000,0.280,-0.46,-0.00,-0.43
0.937,takeoff,1,326,305,42,48,0.46,0.00,0.00,-0.80,0.00,0.56,0.00,-0.83,-0.000,-0.062,-0.000,-0.054,-3.140,-0.000,0.010,0.000,0.280,-0.46,-0.00,-0.43
0.937,takeoff,1,326,305,42,48,0.46,0.00,0.00,-0.80,0.00,0.56,0.00,-0.83,-0.000,-0.062,-0.000,-0.054,-3.140,-0.000,0.010,0.000,0.280,-0.46,-0.00,-0.43
0.937,takeoff,1,326,305,42,48,0.46,0.00,0.00,-0.80,0.00,0.56,0.00,-0.83,-0.000,-0.062,-0.000,-0.054,-3.140,-0.000,0.010,0.000,0.280,-0.46,-0.00,-0.43
0.937,takeoff,1,326,316,41,25,0.28,0.00,0.00,-0.80,0.00,0.56,0.00,-0.83,-0.000,-0.062,-0.000,-0.054,-3.140,-0.000,0.009,0.000,0.280,-0.46,-0.00,-0.44
0.937,takeoff,1,326,316,41,25,0.28,0.00,0.00,-0.80,0.00,0.56,0.00,-0.83,-0.000,-0.062,-0.000,-0.055,-3.140,-0.000,0.009,0.000,0.280,-0.46,-0.00,-0.44
0.937,takeoff,1,326,316,41,25,0.28,0.00,0.00,-0.80,0.00,0.56,0.00,-0.83,-0.000,-0.062,-0.000,-0.055,-3.140,-0.000,0.009,0.000,0.280,-0.46,-0.00,-0.44
0.937,takeoff,1,326,316,41,25,0.28,0.00,0.00,-0.80,0.00,0.56,0.00,-0.83,-0.000,-0.062,-0.000,-0.055,-3.140,-0.000,0.009,0.000,0.280,-0.46,-0.00,-0.44
0.953,takeoff,1,326,316,41,25,0.28,0.00,0.00,-0.80,0.00,0.55,0.00,-0.84,-0.000,-0.061,-0.000,-0.055,-3.140,-0.000,0.007,0.000,0.280,-0.47,-0.00,-0.45
0.953,takeoff,1,326,316,41,25,0.28,0.00,0.00,-0.80,0.00,0.55,0.00,-0.84,-0.000,-0.061,-0.000,-0.055,-3.140,-0.000,0.007,0.000,0.280,-0.47,-0.00,-0.45
0.953,takeoff,1,326,316,41,25,0.28,0.00,0.00,-0.80,0.00,0.55,0.00,-0.84,-0.000,-0.061,-0.000,-0.055,-3.140,-0.000,0.007,0.000,0.280,-0.47,-0.00,-0.45
0.953,takeoff,1,326,316,41,25,0.28,0.00,0.00,-0.80,0.00,0.55,0.00,-0.84,-0.000,-0.061,-0.000,-0.055,-3.140,-0.000,0.007,0.000,0.280,-0.47,-0.00,-0.45
0.953,takeoff,1,326,316,41,25,0.28,0.00,0.00,-0.80,0.00,0.55,0.00,-0.84,-0.000,-0.060,-0.000,-0.055,-3.140,-0.000,0.006,0.000,0.280,-0.47,-0.00,-0.46
0.953,takeoff,1,326,316,41,25,0.28,0.00,0.00,-0.80,0.00,0.55,0.00,-0.84,-0.000,-0.060,-0.000,-0.055,-3.140,-0.000,0.006,0.000,0.280,-0.47,-0.00,-0.46
0.968,takeoff,1,326,316,41,25,0.28,0.00,0.00,-0.80,0.00,0.54,0.00,-0.84,-0.000,-0.060,-0.000,-0.055,-3.140,-0.000,0.006,0.000,0.280,-0.47,-0.00,-0.46
0.968,takeoff,1,326,316,41,25,0.28,0.00,0.00,-0.80,0.00,0.54,0.00,-0.84,-0.000,-0.060,-0.000,-0.055,-3.140,-0.000,0.006,0.000,0.280,-0.47,-0.00,-0.46
0.968,takeoff,1,326,316,41,25,0.28,0.00,0.00,-0.80,0.00,0.54,0.00,-0.84,-0.000,-0.060,-0.000,-0.055,-3.140,-0.000,0.006,0.000,0.280,-0.47,-0.00,-0.46
0.968,takeoff,1,326,316,41,25,0.28,0.00,0.00,-0.80,0.00,0.54,0.00,-0.85,-0.000,-0.059,-0.000,-0.055,-3.140,-0.000,0.005,0.000,0.280,-0.48,-0.00,-0.47
0.968,takeoff,1,326,316,41,25,0.28,0.00,0.00,-0.80,0.00,0.54,0.00,-0.85,-0.000,-0.059,-0.000,-0.055,-3.140,-0.000,0.005,0.000,0.280,-0.48,-0.00,-0.47
0.968,takeoff,1,327,318,42,25,0.27,0.00,0.00,-0.80,0.00,0.54,0.00,-0.85,-0.000,-0.059,-0.000,-0.055,-3.140,-0.000,0.005,0.000,0.280,-0.48,-0.00,-0.47
0.968,takeoff,1,327,318,42,25,0.27,0.00,0.00,-0.80,0.00,0.54,0.00,-0.85,-0.000,-0.059,-0.000,-0.056,-3.140,-0.000,0.004,0.000,0.280,-0.48,-0.00,-0.47
0.984,takeoff,1,327,318,42,25,0.27,0.00,0.00,-0.80,0.00,0.54,0.00,-0.85,-0.000,-0.059,-0.000,-0.056,-3.140,-0.000,0.004,0.000,0.280,-0.48,-0.00,-0.47
0.984,takeoff,1,327,318,42,25,0.27,0.00,0.00,-0.80,0.00,0.54,0.00,-0.86,-0.000,-0.059,-0.000,-0.056,-3.140,-0.000,0.004,0.000,0.280,-0.48,-0.00,-0.47
0.984,takeoff,1,327,318,42,25,0.27,0.00,0.00,-0.80,0.00,0.54,0.00,-0.86,-0.000,-0.059,-0.000,-0.056,-3.140,-0.000,0.004,0.000,0.280,-0.48,-0.00,-0.47
0.984,takeoff,1,327,318,42,25,0.27,0.00,0.00,-0.80,0.00,0.54,0.00,-0.86,-0.000,-0.059,-0.000,-0.056,-3.140,-0.000,0.004,0.000,0.280,-0.48,-0.00,-0.47
0.984,takeoff,1,327,318,42,25,0.27,0.00,0.00,-0.80,0.00,0.54,0.00,-0.86,-0.000,-0.059,-0.000,-0.056,-3.140,-0.000,0.004,0.000,0.280,-0.48,-0.00,-0.47
0.984,takeoff,1,327,318,42,25,0.27,0.00,0.00,-0.80,0.00,0.53,0.00,-0.87,-0.000,-0.058,-0.000,-0.056,-3.140,-0.000,0.002,0.000,0.280,-0.49,-0.00,-0.49
1.000,takeoff,1,327,318,42,25,0.27,0.00,0.00,-0.80,0.00,0.53,0.00,-0.87,-0.000,-0.058,-0.000,-0.056,-3.140,-0.000,0.002,0.000,0.280,-0.49,-0.00,-0.49
1.000,takeoff,1,327,318,42,25,0.27,0.00,0.00,-0.80,0.00,0.53,0.00,-0.87,-0.000,-0.058,-0.000,-0.056,-3.140,-0.000,0.002,0.000,0.280,-0.49,-0.00,-0.49
1.000,takeoff,1,327,318,42,25,0.27,0.00,0.00,-0.80,0.00,0.53,0.00,-0.87,-0.000,-0.058,-0.000,-0.056,-3.140,-0.000,0.002,0.000,0.280,-0.49,-0.00,-0.49
1.000,takeoff,1,327,318,42,25,0.27,0.00,0.00,-0.80,0.00,0.52,0.00,-0.87,-0.000,-0.057,-0.000,-0.056,-3.140,-0.000,0.001,0.000,0.280,-0.49,-0.00,-0.49
1.000,takeoff,1,327,318,42,25,0.27,0.00,0.00,-0.80,0.00,0.52,0.00,-0.87,-0.000,-0.057,-0.000,-0.056,-3.140,-0.000,0.001,0.000,0.280,-0.49,-0.00,-0.49
1.015,takeoff,1,326,319,43,24,0.24,0.00,0.00,-0.80,0.00,0.52,0.00,-0.87,-0.000,-0.057,-0.000,-0.056,-3.140,-0.000,0.001,0.000,0.280,-0.49,-0.00,-0.49
1.015,takeoff,1,326,319,43,24,0.24,0.00,0.00,-0.80,0.00,0.52,0.00,-0.88,-0.000,-0.056,-0.000,-0.056,-3.140,-0.000,-0.000,0.000,0.280,-0.50,-0.00,-0.50
1.015,takeoff,1,326,319,43,24,0.24,0.00,0.00,-0.80,0.00,0.52,0.00,-0.88,-0.000,-0.056,-0.000,-0.056,-3.140,-0.000,-0.000,0.000,0.280,-0.50,-0.00,-0.50
1.015,takeoff,1,326,319,43,24,0.24,0.00,0.00,-0.80,0.00,0.51,0.00,-0.88,-0.000,-0.056,-0.000,-0.056,-3.140,-0.000,-0.000,0.000,0.280,-0.50,-0.00,-0.50
1.015,takeoff,1,326,319,43,24,0.24,0.00,0.00,-0.80,0.00,0.51,0.00,-0.88,-0.000,-0.056,-0.000,-0.056,-3.140,-0.000,-0.000,0.000,0.280,-0.50,-0.00,-0.50
1.015,takeoff,1,326,319,43,24,0.24,0.00,0.00,-0.80,0.00,0.51,0.00,-0.88,-0.000,-0.056,-0.000,-0.056,-3.140,-0.000,-0.000,0.000,0.280,-0.50,-0.00,-0.50
1.015,takeoff,1,326,319,43,24,0.24,0.00,0.00,-0.80,0.00,0.51,0.00,-0.88,-0.000,-0.056,-0.000,-0.056,-3.140,-0.000,-0.001,0.000,0.280,-0.50,-0.00,-0.51
1.031,takeoff,1,326,319,43,24,0.24,0.00,0.00,-0.80,0.00,0.51,0.00,-0.88,-0.000,-0.056,-0.000,-0.056,-3.140,-0.000,-0.001,0.000,0.280,-0.50,-0.00,-0.51
1.031,takeoff,1,326,319,43,24,0.24,0.00,0.00,-0.80,0.00,0.51,0.00,-0.88,-0.000,-0.056,-0.000,-0.056,-3.140,-0.000,-0.001,0.000,0.280,-0.50,-0.00,-0.51
1.031,takeoff,1,326,319,43,24,0.24,0.00,0.00,-0.80,0.00,0.51,0.00,-0.88,-0.000,-0.056,-0.000,-0.056,-3.140,-0.000,-0.001,0.000,0.280,-0.50,-0.00,-0.51
1.031,takeoff,1,326,319,43,24,0.24,0.00,0.00,-0.80,0.00,0.50,0.00,-0.89,-0.000,-0.055,-0.000,-0.056,-3.140,-0.000,-0.002,0.000,0.280,-0.51,-0.00,-0.52
1.031,takeoff,1,326,319,43,24,0.24,0.00,0.00,-0.80,0.00,0.50,0.00,-0.89,-0.000,-0.055,-0.000,-0.056,-3.140,-0.000,-0.002,0.000,0.280,-0.51,-0.00,-0.52
