t,phase,found,cx,cy,conf,cmd_vx,cmd_vy,cmd_vz,cmd_yawrate,vbx,vby,vd,roll_des,pitch_des,roll,pitch,yaw,roll_q,pitch_q,yaw_q,thrust,x,y,z
0.000,takeoff,0,0,0,0.00,0.00,0.00,-0.80,0.00,0.00,0.00,0.00,0.000,0.000,-0.001,-0.000,-0.618,-0.001,-0.000,0.000,0.314,0.00,0.00,0.00
0.016,takeoff,0,0,0,0.00,0.00,0.00,-0.80,0.00,-0.02,-0.37,-0.00,0.012,0.043,-0.001,-0.000,-0.614,-0.016,-0.054,0.000,0.314,-24.49,-15.00,-1.17
0.016,takeoff,0,0,0,0.00,0.00,0.00,-0.80,0.00,-0.02,-0.37,-0.00,0.012,0.043,-0.001,-0.000,-0.614,-0.016,-0.054,0.000,0.314,-24.49,-15.00,-1.17
0.016,takeoff,0,0,0,0.00,0.00,0.00,-0.80,0.00,-0.02,-0.37,-0.00,0.012,0.043,-0.001,-0.000,-0.614,-0.016,-0.054,0.000,0.314,-24.49,-15.00,-1.17
0.016,takeoff,0,0,0,0.00,0.00,0.00,-0.80,0.00,-0.02,-0.37,-0.00,0.012,0.043,-0.001,-0.000,-0.614,-0.016,-0.054,0.000,0.314,-24.49,-15.00,-1.17
0.016,takeoff,0,0,0,0.00,0.00,0.00,-0.80,0.00,-0.02,-0.37,-0.00,0.012,0.043,-0.001,-0.000,-0.612,-0.016,-0.054,0.000,0.314,-24.49,-15.00,-1.17
0.031,takeoff,0,0,0,0.00,0.00,0.00,-0.80,0.00,-0.02,-0.37,-0.00,0.012,0.043,-0.001,-0.000,-0.612,-0.016,-0.054,0.000,0.315,-24.49,-15.00,-1.17
0.031,takeoff,0,0,0,0.00,0.00,0.00,-0.80,0.00,-0.02,-0.37,-0.00,0.012,0.043,-0.001,-0.000,-0.612,-0.016,-0.054,0.000,0.315,-24.49,-15.00,-1.17
0.031,takeoff,0,0,0,0.00,0.00,0.00,-0.80,0.00,-0.02,-0.37,-0.01,0.012,0.043,-0.001,-0.000,-0.612,-0.016,-0.054,0.000,0.315,-24.49,-15.01,-1.17
0.031,takeoff,0,0,0,0.00,0.00,0.00,-0.80,0.00,-0.02,-0.37,-0.01,0.012,0.043,-0.001,0.000,-0.610,-0.016,-0.053,0.000,0.315,-24.49,-15.01,-1.17
0.031,takeoff,0,0,0,0.00,0.00,0.00,-0.80,0.00,-0.02,-0.37,-0.01,0.012,0.043,-0.001,0.000,-0.610,-0.016,-0.053,0.000,0.315,-24.49,-15.01,-1.17
0.047,takeoff,0,0,0,0.00,0.00,0.00,-0.80,0.00,-0.03,-0.37,-0.01,0.012,0.043,-0.001,0.000,-0.610,-0.016,-0.053,0.000,0.315,-24.49,-15.01,-1.17
0.047,takeoff,0,0,0,0.00,0.00,0.00,-0.80,0.00,-0.03,-0.37,-0.01,0.012,0.043,-0.001,0.001,-0.609,-0.016,-0.053,0.000,0.315,-24.49,-15.01,-1.17
0.047,takeoff,0,0,0,0.00,0.00,0.00,-0.80,0.00,-0.03,-0.37,-0.01,0.012,0.043,-0.001,0.001,-0.609,-0.016,-0.053,0.000,0.315,-24.49,-15.01,-1.17
0.047,takeoff,0,0,0,0.00,0.00,0.00,-0.80,0.00,-0.03,-0.37,-0.01,0.012,0.043,-0.001,0.001,-0.609,-0.016,-0.053,0.000,0.315,-24.49,-15.01,-1.17
0.047,takeoff,0,0,0,0.00,0.00,0.00,-0.80,0.00,-0.03,-0.37,-0.01,0.013,0.043,-0.000,0.002,-0.607,-0.015,-0.051,0.000,0.315,-24.49,-15.01,-1.17
0.047,takeoff,0,0,0,0.00,0.00,0.00,-0.80,0.00,-0.03,-0.37,-0.03,0.013,0.043,-0.000,0.002,-0.607,-0.015,-0.050,0.000,0.313,-24.50,-15.01,-1.17
0.047,takeoff,0,0,0,0.00,0.00,0.00,-0.80,0.00,-0.03,-0.37,-0.03,0.013,0.043,-0.000,0.002,-0.607,-0.015,-0.050,0.000,0.313,-24.50,-15.01,-1.17
0.062,takeoff,0,0,0,0.00,0.00,0.00,-0.80,0.00,-0.03,-0.37,-0.03,0.013,0.043,-0.000,0.002,-0.607,-0.015,-0.050,0.000,0.314,-24.50,-15.01,-1.17
0.062,takeoff,0,0,0,0.00,0.00,0.00,-0.80,0.00,-0.03,-0.37,-0.03,0.013,0.043,-0.000,0.002,-0.607,-0.015,-0.050,0.000,0.314,-24.50,-15.01,-1.17
0.062,takeoff,0,0,0,0.00,0.00,0.00,-0.80,0.00,-0.03,-0.37,-0.03,0.013,0.043,-0.000,0.002,-0.607,-0.015,-0.050,0.000,0.314,-24.50,-15.01,-1.17
0.062,takeoff,0,0,0,0.00,0.00,0.00,-0.80,0.00,-0.03,-0.37,-0.03,0.013,0.043,-0.000,0.002,-0.607,-0.015,-0.050,0.000,0.314,-24.50,-15.01,-1.17
0.062,takeoff,0,0,0,0.00,0.00,0.00,-0.80,0.00,-0.03,-0.37,-0.03,0.013,0.043,-0.000,0.002,-0.607,-0.015,-0.050,0.000,0.314,-24.50,-15.01,-1.17
0.062,takeoff,0,0,0,0.00,0.00,0.00,-0.80,0.00,-0.03,-0.37,-0.03,0.013,0.043,0.000,0.003,-0.606,-0.015,-0.049,0.000,0.314,-24.50,-15.01,-1.17
0.078,takeoff,0,0,0,0.00,0.00,0.00,-0.80,0.00,-0.03,-0.37,-0.03,0.013,0.043,0.000,0.003,-0.606,-0.015,-0.049,0.000,0.314,-24.50,-15.01,-1.17
0.078,takeoff,0,0,0,0.00,0.00,0.00,-0.80,0.00,-0.03,-0.37,-0.08,0.013,0.042,0.000,0.003,-0.606,-0.015,-0.049,0.000,0.311,-24.50,-15.02,-1.17
0.078,takeoff,0,0,0,0.00,0.00,0.00,-0.80,0.00,-0.03,-0.37,-0.08,0.013,0.042,0.000,0.003,-0.606,-0.015,-0.049,0.000,0.311,-24.50,-15.02,-1.17
0.078,takeoff,0,0,0,0.00,0.00,0.00,-0.80,0.00,-0.03,-0.37,-0.08,0.013,0.042,0.001,0.005,-0.606,-0.014,-0.046,0.000,0.311,-24.50,-15.02,-1.17
0.078,takeoff,0,0,0,0.00,0.00,0.00,-0.80,0.00,-0.03,-0.37,-0.08,0.013,0.042,0.001,0.005,-0.606,-0.014,-0.046,0.000,0.311,-24.50,-15.02,-1.17
0.078,takeoff,0,0,0,0.00,0.00,0.00,-0.80,0.00,-0.03,-0.37,-0.08,0.013,0.042,0.001,0.005,-0.606,-0.014,-0.046,0.000,0.311,-24.50,-15.02,-1.17
0.078,takeoff,0,0,0,0.00,0.00,0.00,-0.80,0.00,-0.03,-0.37,-0.09,0.013,0.042,0.001,0.007,-0.607,-0.013,-0.044,0.000,0.310,-24.50,-15.02,-1.17
0.078,takeoff,0,0,0,0.00,0.00,0.00,-0.80,0.00,-0.03,-0.37,-0.09,0.013,0.042,0.001,0.007,-0.607,-0.013,-0.044,0.000,0.310,-24.50,-15.02,-1.17
0.094,takeoff,0,0,0,0.00,0.00,0.00,-0.80,0.00,-0.03,-0.37,-0.09,0.013,0.042,0.001,0.007,-0.607,-0.013,-0.044,0.000,0.310,-24.50,-15.02,-1.17
0.094,takeoff,0,0,0,0.00,0.00,0.00,-0.80,0.00,-0.03,-0.37,-0.09,0.013,0.042,0.001,0.007,-0.607,-0.013,-0.044,0.000,0.310,-24.50,-15.02,-1.17
0.094,takeoff,0,0,0,0.00,0.00,0.00,-0.80,0.00,-0.03,-0.37,-0.12,0.012,0.042,0.002,0.008,-0.608,-0.013,-0.043,0.000,0.308,-24.51,-15.02,-1.17
0.094,takeoff,0,0,0,0.00,0.00,0.00,-0.80,0.00,-0.03,-0.37,-0.12,0.012,0.042,0.002,0.008,-0.608,-0.013,-0.043,0.000,0.308,-24.51,-15.02,-1.17
0.094,takeoff,0,0,0,0.00,0.00,0.00,-0.80,0.00,-0.03,-0.37,-0.12,0.012,0.042,0.002,0.008,-0.608,-0.013,-0.043,0.000,0.308,-24.51,-15.02,-1.17
0.094,takeoff,0,0,0,0.00,0.00,0.00,-0.80,0.00,-0.03,-0.37,-0.12,0.012,0.042,0.002,0.008,-0.608,-0.013,-0.043,0.000,0.308,-24.51,-15.02,-1.17
0.109,takeoff,0,0,0,0.00,0.00,0.00,-0.80,0.00,-0.03,-0.37,-0.12,0.012,0.042,0.002,0.009,-0.609,-0.013,-0.042,0.000,0.308,-24.51,-15.02,-1.17
0.109,takeoff,0,0,0,0.00,0.00,0.00,-0.80,0.00,-0.03,-0.37,-0.14,0.012,0.042,0.002,0.009,-0.609,-0.013,-0.042,0.000,0.307,-24.51,-15.03,-1.17
0.109,takeoff,0,0,0,0.00,0.00,0.00,-0.80,0.00,-0.03,-0.37,-0.14,0.012,0.042,0.002,0.009,-0.609,-0.013,-0.042,0.000,0.307,-24.51,-15.03,-1.17
0.109,takeoff,0,0,0,0.00,0.00,0.00,-0.80,0.00,-0.03,-0.36,-0.14,0.012,0.042,0.002,0.009,-0.609,-0.013,-0.042,0.000,0.307,-24.51,-15.03,-1.17
0.109,takeoff,0,0,0,0.00,0.00,0.00,-0.80,0.00,-0.03,-0.36,-0.14,0.012,0.042,0.002,0.009,-0.609,-0.013,-0.041,0.000,0.307,-24.51,-15.03,-1.17
0.109,takeoff,0,0,0,0.00,0.00,0.00,-0.80,0.00,-0.03,-0.36,-0.17,0.012,0.042,0.002,0.009,-0.609,-0.013,-0.041,0.000,0.304,-24.51,-15.03,-1.18
0.125,takeoff,0,0,0,0.00,0.00,0.00,-0.80,0.00,-0.03,-0.36,-0.17,0.012,0.042,0.002,0.009,-0.609,-0.013,-0.041,0.000,0.305,-24.51,-15.03,-1.18
0.125,takeoff,0,0,0,0.00,0.00,0.00,-0.80,0.00,-0.03,-0.36,-0.17,0.012,0.042,0.002,0.011,-0.610,-0.012,-0.039,0.000,0.305,-24.51,-15.03,-1.18
0.125,takeoff,0,0,0,0.00,0.00,0.00,-0.80,0.00,-0.03,-0.36,-0.17,0.012,0.042,0.002,0.011,-0.610,-0.012,-0.039,0.000,0.305,-24.51,-15.03,-1.18
0.125,takeoff,0,0,0,0.00,0.00,0.00,-0.80,0.00,-0.03,-0.36,-0.19,0.012,0.042,0.002,0.011,-0.610,-0.012,-0.039,0.000,0.303,-24.51,-15.03,-1.18
0.125,takeoff,0,0,0,0.00,0.00,0.00,-0.80,0.00,-0.03,-0.36,-0.19,0.012,0.042,0.002,0.011,-0.610,-0.012,-0.039,0.000,0.303,-24.51,-15.03,-1.18
0.125,takeoff,0,0,0,0.00,0.00,0.00,-0.80,0.00,-0.03,-0.36,-0.19,0.012,0.042,0.003,0.011,-0.610,-0.012,-0.038,0.000,0.303,-24.51,-15.03,-1.18
0.125,takeoff,0,0,0,0.00,0.00,0.00,-0.80,0.00,-0.03,-0.36,-0.19,0.012,0.042,0.003,0.011,-0.610,-0.012,-0.038,0.000,0.303,-24.51,-15.03,-1.18
0.141,takeoff,0,0,0,0.00,0.00,0.00,-0.80,0.00,-0.03,-0.36,-0.19,0.012,0.042,0.003,0.011,-0.610,-0.012,-0.038,0.000,0.304,-24.51,-15.03,-1.18
0.141,takeoff,0,0,0,0.00,0.00,0.00,-0.80,0.00,-0.03,-0.36,-0.22,0.012,0.042,0.003,0.011,-0.610,-0.012,-0.038,0.000,0.301,-24.52,-15.04,-1.18
0.141,takeoff,0,0,0,0.00,0.00,0.00,-0.80,0.00,-0.03,-0.36,-0.22,0.012,0.042,0.003,0.012,-0.610,-0.011,-0.037,0.000,0.301,-24.52,-15.04,-1.18
0.141,takeoff,0,0,0,0.00,0.00,0.00,-0.80,0.00,-0.03,-0.36,-0.22,0.012,0.042,0.003,0.012,-0.610,-0.011,-0.037,0.000,0.301,-24.52,-15.04,-1.18
0.141,takeoff,0,0,0,0.00,0.00,0.00,-0.80,0.00,-0.03,-0.36,-0.22,0.012,0.042,0.003,0.012,-0.610,-0.011,-0.037,0.000,0.301,-24.52,-15.04,-1.18
0.141,takeoff,0,0,0,0.00,0.00,0.00,-0.80,0.00,-0.03,-0.36,-0.22,0.012,0.042,0.003,0.012,-0.610,-0.011,-0.037,0.000,0.301,-24.52,-15.04,-1.18
0.156,takeoff,0,0,0,0.00,0.00,0.00,-0.80,0.00,-0.03,-0.36,-0.24,0.012,0.041,0.003,0.013,-0.610,-0.011,-0.035,0.000,0.300,-24.52,-15.04,-1.18
0.156,takeoff,0,0,0,0.00,0.00,0.00,-0.80,0.00,-0.03,-0.36,-0.24,0.012,0.041,0.003,0.013,-0.610,-0.011,-0.035,0.000,0.300,-24.52,-15.04,-1.18
0.156,takeoff,0,0,0,0.00,0.00,0.00,-0.80,0.00,-0.03,-0.36,-0.24,0.012,0.041,0.003,0.013,-0.610,-0.011,-0.035,0.000,0.300,-24.52,-15.04,-1.18
0.156,takeoff,0,0,0,0.00,0.00,0.00,-0.80,0.00,-0.03,-0.36,-0.27,0.012,0.041,0.003,0.014,-0.610,-0.011,-0.034,0.000,0.298,-24.52,-15.04,-1.18
0.156,takeoff,0,0,0,0.00,0.00,0.00,-0.80,0.00,-0.03,-0.36,-0.27,0.012,0.041,0.003,0.014,-0.610,-0.011,-0.034,0.000,0.298,-24.52,-15.04,-1.18
0.156,takeoff,0,0,0,0.00,0.00,0.00,-0.80,0.00,-0.03,-0.36,-0.27,0.012,0.041,0.003,0.014,-0.610,-0.011,-0.034,0.000,0.298,-24.52,-15.04,-1.18
0.172,takeoff,0,0,0,0.00,0.00,0.00,-0.80,0.00,-0.03,-0.36,-0.27,0.012,0.041,0.003,0.014,-0.610,-0.011,-0.034,0.000,0.298,-24.52,-15.04,-1.18
0.172,takeoff,0,0,0,0.00,0.00,0.00,-0.80,0.00,-0.03,-0.36,-0.27,0.012,0.041,0.004,0.014,-0.609,-0.010,-0.033,0.000,0.298,-24.52,-15.04,-1.18
0.172,takeoff,0,0,0,0.00,0.00,0.00,-0.80,0.00,-0.03,-0.36,-0.29,0.012,0.041,0.004,0.014,-0.609,-0.010,-0.033,0.000,0.297,-24.52,-15.04,-1.19
0.172,takeoff,0,0,0,0.00,0.00,0.00,-0.80,0.00,-0.03,-0.36,-0.29,0.012,0.041,0.004,0.014,-0.609,-0.010,-0.033,0.000,0.297,-24.52,-15.04,-1.19
0.172,takeoff,0,0,0,0.00,0.00,0.00,-0.80,0.00,-0.03,-0.36,-0.29,0.012,0.041,0.004,0.015,-0.609,-0.010,-0.033,0.000,0.297,-24.52,-15.04,-1.19
0.172,takeoff,0,0,0,0.00,0.00,0.00,-0.80,0.00,-0.03,-0.36,-0.29,0.012,0.041,0.004,0.015,-0.609,-0.010,-0.033,0.000,0.297,-24.52,-15.04,-1.19
0.172,takeoff,0,0,0,0.00,0.00,0.00,-0.80,0.00,-0.03,-0.35,-0.29,0.012,0.041,0.004,0.015,-0.609,-0.010,-0.033,0.000,0.297,-24.52,-15.04,-1.19
0.172,takeoff,0,0,0,0.00,0.00,0.00,-0.80,0.00,-0.03,-0.35,-0.31,0.012,0.041,0.004,0.015,-0.609,-0.010,-0.032,0.000,0.295,-24.53,-15.05,-1.19
0.187,takeoff,0,0,0,0.00,0.00,0.00,-0.80,0.00,-0.03,-0.35,-0.31,0.012,0.041,0.004,0.015,-0.609,-0.010,-0.032,0.000,0.295,-24.53,-15.05,-1.19
0.187,takeoff,0,0,0,0.00,0.00,0.00,-0.80,0.00,-0.03,-0.35,-0.31,0.012,0.041,0.004,0.016,-0.609,-0.010,-0.031,0.000,0.295,-24.53,-15.05,-1.19
0.187,takeoff,0,0,0,0.00,0.00,0.00,-0.80,0.00,-0.03,-0.35,-0.31,0.012,0.041,0.004,0.016,-0.609,-0.010,-0.031,0.000,0.295,-24.53,-15.05,-1.19
0.187,takeoff,0,0,0,0.00,0.00,0.00,-0.80,0.00,-0.03,-0.35,-0.31,0.012,0.041,0.004,0.016,-0.609,-0.010,-0.031,0.000,0.295,-24.53,-15.05,-1.19
0.187,takeoff,0,0,0,0.00,0.00,0.00,-0.80,0.00,-0.03,-0.35,-0.34,0.012,0.040,0.004,0.016,-0.609,-0.010,-0.030,0.000,0.294,-24.53,-15.05,-1.20
0.187,takeoff,0,0,0,0.00,0.00,0.00,-0.80,0.00,-0.03,-0.35,-0.34,0.012,0.040,0.004,0.017,-0.609,-0.009,-0.030,0.000,0.294,-24.53,-15.05,-1.20
0.187,takeoff,0,0,0,0.00,0.00,0.00,-0.80,0.00,-0.03,-0.35,-0.34,0.012,0.040,0.004,0.017,-0.609,-0.009,-0.030,0.000,0.294,-24.53,-15.05,-1.20
0.203,takeoff,0,0,0,0.00,0.00,0.00,-0.80,0.00,-0.03,-0.35,-0.34,0.012,0.040,0.004,0.017,-0.609,-0.009,-0.030,0.000,0.294,-24.53,-15.05,-1.20
0.203,takeoff,0,0,0,0.00,0.00,0.00,-0.80,0.00,-0.03,-0.35,-0.34,0.012,0.040,0.004,0.017,-0.609,-0.009,-0.030,0.000,0.294,-24.53,-15.05,-1.20
0.203,takeoff,0,0,0,0.00,0.00,0.00,-0.80,0.00,-0.03,-0.35,-0.35,0.012,0.040,0.004,0.017,-0.609,-0.009,-0.029,0.000,0.293,-24.53,-15.05,-1.20
0.203,takeoff,0,0,0,0.00,0.00,0.00,-0.80,0.00,-0.03,-0.35,-0.35,0.012,0.040,0.004,0.017,-0.609,-0.009,-0.029,0.000,0.293,-24.53,-15.05,-1.20
0.203,takeoff,0,0,0,0.00,0.00,0.00,-0.80,0.00,-0.03,-0.35,-0.35,0.012,0.040,0.004,0.017,-0.609,-0.009,-0.029,0.000,0.293,-24.53,-15.05,-1.20
0.203,takeoff,0,0,0,0.00,0.00,0.00,-0.80,0.00,-0.03,-0.35,-0.35,0.012,0.040,0.005,0.018,-0.609,-0.009,-0.028,0.000,0.292,-24.53,-15.06,-1.20
0.219,takeoff,0,0,0,0.00,0.00,0.00,-0.80,0.00,-0.03,-0.35,-0.35,0.012,0.040,0.005,0.018,-0.609,-0.009,-0.028,0.000,0.293,-24.53,-15.06,-1.20
0.219,takeoff,0,0,0,0.00,0.00,0.00,-0.80,0.00,-0.03,-0.35,-0.35,0.012,0.040,0.005,0.018,-0.609,-0.009,-0.028,0.000,0.293,-24.53,-15.06,-1.20
0.219,takeoff,0,0,0,0.00,0.00,0.00,-0.80,0.00,-0.03,-0.34,-0.35,0.012,0.040,0.005,0.018,-0.609,-0.009,-0.028,0.000,0.293,-24.53,-15.06,-1.20
0.219,takeoff,0,0,0,0.00,0.00,0.00,-0.80,0.00,-0.03,-0.34,-0.37,0.012,0.040,0.005,0.019,-0.609,-0.008,-0.026,0.000,0.291,-24.53,-15.06,-1.21
0.219,takeoff,0,0,0,0.00,0.00,0.00,-0.80,0.00,-0.03,-0.34,-0.37,0.012,0.040,0.005,0.019,-0.609,-0.008,-0.026,0.000,0.291,-24.53,-15.06,-1.21
0.219,takeoff,0,0,0,0.00,0.00,0.00,-0.80,0.00,-0.03,-0.34,-0.37,0.012,0.040,0.005,0.019,-0.609,-0.008,-0.026,0.000,0.291,-24.53,-15.06,-1.21
0.234,takeoff,0,0,0,0.00,0.00,0.00,-0.80,0.00,-0.03,-0.34,-0.37,0.012,0.040,0.005,0.019,-0.609,-0.008,-0.025,0.000,0.292,-24.53,-15.06,-1.21
0.234,takeoff,0,0,0,0.00,0.00,0.00,-0.80,0.00,-0.03,-0.34,-0.37,0.012,0.040,0.005,0.019,-0.609,-0.008,-0.025,0.000,0.292,-24.53,-15.06,-1.21
0.234,takeoff,0,0,0,0.00,0.00,0.00,-0.80,0.00,-0.03,-0.34,-0.37,0.012,0.040,0.005,0.019,-0.609,-0.008,-0.025,0.000,0.292,-24.53,-15.06,-1.21
0.234,takeoff,0,0,0,0.00,0.00,0.00,-0.80,0.00,-0.03,-0.34,-0.39,0.012,0.039,0.005,0.019,-0.609,-0.008,-0.025,0.000,0.290,-24.54,-15.06,-1.21
0.234,takeoff,0,0,0,0.00,0.00,0.00,-0.80,0.00,-0.03,-0.34,-0.39,0.012,0.039,0.005,0.020,-0.609,-0.008,-0.024,0.000,0.290,-24.54,-15.06,-1.21
0.234,takeoff,0,0,0,0.00,0.00,0.00,-0.80,0.00,-0.03,-0.34,-0.39,0.012,0.039,0.005,0.020,-0.609,-0.008,-0.024,0.000,0.290,-24.54,-15.06,-1.21
0.234,takeoff,0,0,0,0.00,0.00,0.00,-0.80,0.00,-0.03,-0.34,-0.39,0.012,0.039,0.005,0.020,-0.609,-0.008,-0.024,0.000,0.290,-24.54,-15.06,-1.21
0.234,takeoff,0,0,0,0.00,0.00,0.00,-0.80,0.00,-0.03,-0.34,-0.39,0.012,0.039,0.005,0.020,-0.609,-0.008,-0.024,0.000,0.290,-24.54,-15.07,-1.21
0.250,takeoff,0,0,0,0.00,0.00,0.00,-0.80,0.00,-0.03,-0.34,-0.39,0.012,0.039,0.005,0.020,-0.609,-0.008,-0.024,0.000,0.290,-24.54,-15.07,-1.21
0.250,takeoff,0,0,0,0.00,0.00,0.00,-0.80,0.00,-0.03,-0.34,-0.39,0.012,0.039,0.005,0.020,-0.609,-0.008,-0.024,0.000,0.290,-24.54,-15.07,-1.21
0.250,takeoff,0,0,0,0.00,0.00,0.00,-0.80,0.00,-0.03,-0.34,-0.39,0.012,0.039,0.005,0.020,-0.609,-0.008,-0.024,0.000,0.290,-24.54,-15.07,-1.21
0.250,takeoff,0,0,0,0.00,0.00,0.00,-0.80,0.00,-0.03,-0.34,-0.39,0.012,0.039,0.005,0.020,-0.609,-0.008,-0.024,0.000,0.290,-24.54,-15.07,-1.21
0.250,takeoff,0,0,0,0.00,0.00,0.00,-0.80,0.00,-0.03,-0.34,-0.41,0.012,0.039,0.006,0.021,-0.609,-0.007,-0.022,0.000,0.289,-24.54,-15.07,-1.22
0.250,takeoff,0,0,0,0.00,0.00,0.00,-0.80,0.00,-0.03,-0.34,-0.41,0.012,0.039,0.006,0.021,-0.609,-0.007,-0.022,0.000,0.289,-24.54,-15.07,-1.22
0.250,takeoff,0,0,0,0.00,0.00,0.00,-0.80,0.00,-0.03,-0.34,-0.41,0.012,0.039,0.006,0.021,-0.609,-0.007,-0.022,0.000,0.289,-24.54,-15.07,-1.22
0.266,takeoff,0,0,0,0.00,0.00,0.00,-0.80,0.00,-0.03,-0.33,-0.41,0.012,0.039,0.006,0.021,-0.609,-0.007,-0.022,0.000,0.290,-24.54,-15.07,-1.22
0.266,takeoff,0,0,0,0.00,0.00,0.00,-0.80,0.00,-0.03,-0.33,-0.41,0.012,0.039,0.006,0.021,-0.609,-0.007,-0.022,0.000,0.290,-24.54,-15.07,-1.22
0.266,takeoff,0,0,0,0.00,0.00,0.00,-0.80,0.00,-0.03,-0.33,-0.41,0.012,0.039,0.006,0.022,-0.609,-0.007,-0.021,0.000,0.289,-24.54,-15.07,-1.22
0.266,takeoff,0,0,0,0.00,0.00,0.00,-0.80,0.00,-0.03,-0.33,-0.41,0.012,0.039,0.006,0.022,-0.609,-0.007,-0.021,0.000,0.289,-24.54,-15.07,-1.22
0.266,takeoff,0,0,0,0.00,0.00,0.00,-0.80,0.00,-0.03,-0.33,-0.41,0.012,0.039,0.006,0.022,-0.609,-0.007,-0.021,0.000,0.289,-24.54,-15.07,-1.22
0.266,takeoff,0,0,0,0.00,0.00,0.00,-0.80,0.00,-0.03,-0.33,-0.41,0.012,0.039,0.006,0.022,-0.609,-0.007,-0.021,0.000,0.289,-24.54,-15.07,-1.22
0.266,takeoff,0,0,0,0.00,0.00,0.00,-0.80,0.00,-0.03,-0.33,-0.41,0.012,0.039,0.006,0.022,-0.609,-0.007,-0.021,0.000,0.289,-24.54,-15.07,-1.22
0.281,takeoff,0,0,0,0.00,0.00,0.00,-0.80,0.00,-0.03,-0.33,-0.42,0.011,0.038,0.006,0.022,-0.609,-0.007,-0.020,0.000,0.289,-24.55,-15.07,-1.23
0.281,takeoff,0,0,0,0.00,0.00,0.00,-0.80,0.00,-0.03,-0.33,-0.42,0.011,0.038,0.006,0.022,-0.609,-0.007,-0.020,0.000,0.289,-24.55,-15.07,-1.23
0.281,takeoff,0,0,0,0.00,0.00,0.00,-0.80,0.00,-0.03,-0.33,-0.42,0.011,0.038,0.006,0.022,-0.609,-0.007,-0.020,0.000,0.289,-24.55,-15.07,-1.23
0.281,takeoff,0,0,0,0.00,0.00,0.00,-0.80,0.00,-0.03,-0.33,-0.42,0.011,0.038,0.006,0.022,-0.609,-0.007,-0.020,0.000,0.289,-24.55,-15.07,-1.23
0.281,takeoff,0,0,0,0.00,0.00,0.00,-0.80,0.00,-0.03,-0.33,-0.43,0.011,0.038,0.006,0.022,-0.609,-0.007,-0.020,0.000,0.288,-24.55,-15.08,-1.23
0.281,takeoff,0,0,0,0.00,0.00,0.00,-0.80,0.00,-0.03,-0.33,-0.43,0.011,0.038,0.006,0.022,-0.609,-0.007,-0.020,0.000,0.288,-24.55,-15.08,-1.23
0.281,takeoff,0,0,0,0.00,0.00,0.00,-0.80,0.00,-0.03,-0.33,-0.43,0.011,0.038,0.006,0.023,-0.609,-0.006,-0.019,0.000,0.288,-24.55,-15.08,-1.23
0.297,takeoff,0,0,0,0.00,0.00,0.00,-0.80,0.00,-0.03,-0.33,-0.43,0.011,0.038,0.006,0.023,-0.609,-0.006,-0.019,0.000,0.288,-24.55,-15.08,-1.23
0.297,takeoff,0,0,0,0.00,0.00,0.00,-0.80,0.00,-0.03,-0.33,-0.43,0.011,0.038,0.006,0.023,-0.609,-0.006,-0.019,0.000,0.288,-24.55,-15.08,-1.23
0.297,takeoff,0,0,0,0.00,0.00,0.00,-0.80,0.00,-0.03,-0.33,-0.44,0.011,0.038,0.006,0.023,-0.609,-0.006,-0.018,0.000,0.287,-24.55,-15.08,-1.24
0.297,takeoff,0,0,0,0.00,0.00,0.00,-0.80,0.00,-0.03,-0.33,-0.44,0.011,0.038,0.006,0.023,-0.609,-0.006,-0.018,0.000,0.287,-24.55,-15.08,-1.24
0.297,takeoff,0,0,0,0.00,0.00,0.00,-0.80,0.00,-0.03,-0.33,-0.44,0.011,0.038,0.006,0.023,-0.609,-0.006,-0.018,0.000,0.287,-24.55,-15.08,-1.24
0.297,takeoff,0,0,0,0.00,0.00,0.00,-0.80,0.00,-0.03,-0.32,-0.44,0.011,0.038,0.006,0.023,-0.609,-0.006,-0.018,0.000,0.287,-24.55,-15.08,-1.24
0.297,takeoff,0,0,0,0.00,0.00,0.00,-0.80,0.00,-0.03,-0.32,-0.44,0.011,0.037,0.006,0.023,-0.609,-0.006,-0.018,0.000,0.287,-24.55,-15.08,-1.24
0.312,takeoff,0,0,0,0.00,0.00,0.00,-0.80,0.00,-0.03,-0.32,-0.44,0.011,0.037,0.006,0.024,-0.609,-0.006,-0.017,0.000,0.287,-24.55,-15.08,-1.24
0.312,takeoff,0,0,0,0.00,0.00,0.00,-0.80,0.00,-0.03,-0.32,-0.44,0.011,0.037,0.006,0.024,-0.609,-0.006,-0.017,0.000,0.287,-24.55,-15.08,-1.24
0.312,takeoff,0,0,0,0.00,0.00,0.00,-0.80,0.00,-0.03,-0.32,-0.44,0.011,0.037,0.006,0.024,-0.609,-0.006,-0.017,0.000,0.287,-24.55,-15.08,-1.24
0.312,takeoff,0,0,0,0.00,0.00,0.00,-0.80,0.00,-0.03,-0.32,-0.44,0.011,0.037,0.006,0.024,-0.609,-0.006,-0.017,0.000,0.287,-24.55,-15.08,-1.24
0.312,takeoff,0,0,0,0.00,0.00,0.00,-0.80,0.00,-0.03,-0.32,-0.46,0.011,0.037,0.007,0.024,-0.609,-0.005,-0.016,0.000,0.286,-24.55,-15.09,-1.25
0.312,takeoff,0,0,0,0.00,0.00,0.00,-0.80,0.00,-0.03,-0.32,-0.46,0.011,0.037,0.007,0.024,-0.609,-0.005,-0.016,0.000,0.286,-24.55,-15.09,-1.25
0.328,takeoff,0,0,0,0.00,0.00,0.00,-0.80,0.00,-0.03,-0.32,-0.46,0.011,0.037,0.007,0.024,-0.609,-0.005,-0.016,0.000,0.287,-24.55,-15.09,-1.25
0.328,takeoff,0,0,0,0.00,0.00,0.00,-0.80,0.00,-0.03,-0.32,-0.46,0.011,0.037,0.007,0.025,-0.609,-0.005,-0.015,0.000,0.287,-24.55,-15.09,-1.25
0.328,takeoff,0,0,0,0.00,0.00,0.00,-0.80,0.00,-0.03,-0.32,-0.46,0.011,0.037,0.007,0.025,-0.609,-0.005,-0.015,0.000,0.287,-24.55,-15.09,-1.25
0.328,takeoff,0,0,0,0.00,0.00,0.00,-0.80,0.00,-0.03,-0.32,-0.46,0.011,0.037,0.007,0.025,-0.609,-0.005,-0.015,0.000,0.286,-24.56,-15.09,-1.25
0.328,takeoff,0,0,0,0.00,0.00,0.00,-0.80,0.00,-0.03,-0.32,-0.46,0.011,0.037,0.007,0.025,-0.609,-0.005,-0.015,0.000,0.286,-24.56,-15.09,-1.25
0.328,takeoff,0,0,0,0.00,0.00,0.00,-0.80,0.00,-0.03,-0.32,-0.46,0.011,0.037,0.007,0.025,-0.609,-0.005,-0.015,0.000,0.286,-24.56,-15.09,-1.25
0.328,takeoff,0,0,0,0.00,0.00,0.00,-0.80,0.00,-0.03,-0.32,-0.46,0.011,0.037,0.007,0.025,-0.609,-0.005,-0.015,0.000,0.286,-24.56,-15.09,-1.25
0.328,takeoff,0,0,0,0.00,0.00,0.00,-0.80,0.00,-0.03,-0.32,-0.46,0.011,0.037,0.007,0.025,-0.609,-0.005,-0.015,0.000,0.286,-24.56,-15.09,-1.25
0.344,takeoff,0,0,0,0.00,0.00,0.00,-0.80,0.00,-0.03,-0.32,-0.47,0.011,0.036,0.007,0.025,-0.609,-0.005,-0.014,0.000,0.286,-24.56,-15.09,-1.26
0.344,takeoff,0,0,0,0.00,0.00,0.00,-0.80,0.00,-0.03,-0.32,-0.47,0.011,0.036,0.007,0.025,-0.609,-0.005,-0.014,0.000,0.286,-24.56,-15.09,-1.26
0.344,takeoff,0,0,0,0.00,0.00,0.00,-0.80,0.00,-0.03,-0.31,-0.47,0.011,0.036,0.007,0.025,-0.609,-0.005,-0.014,0.000,0.286,-24.56,-15.09,-1.26
0.344,takeoff,0,0,0,0.00,0.00,0.00,-0.80,0.00,-0.03,-0.31,-0.47,0.011,0.036,0.007,0.025,-0.609,-0.005,-0.014,0.000,0.286,-24.56,-15.09,-1.26
0.344,takeoff,0,0,0,0.00,0.00,0.00,-0.80,0.00,-0.03,-0.31,-0.47,0.011,0.036,0.007,0.025,-0.609,-0.005,-0.014,0.000,0.286,-24.56,-15.09,-1.26
0.344,takeoff,0,0,0,0.00,0.00,0.00,-0.80,0.00,-0.03,-0.31,-0.48,0.011,0.036,0.007,0.025,-0.609,-0.005,-0.014,0.000,0.285,-24.56,-15.09,-1.26
0.344,takeoff,0,0,0,0.00,0.00,0.00,-0.80,0.00,-0.03,-0.31,-0.48,0.011,0.036,0.007,0.026,-0.609,-0.005,-0.013,0.000,0.285,-24.56,-15.09,-1.26
0.359,takeoff,0,0,0,0.00,0.00,0.00,-0.80,0.00,-0.03,-0.31,-0.48,0.011,0.036,0.007,0.026,-0.609,-0.005,-0.013,0.000,0.285,-24.56,-15.09,-1.26
0.359,takeoff,0,0,0,0.00,0.00,0.00,-0.80,0.00,-0.03,-0.31,-0.48,0.011,0.036,0.007,0.026,-0.609,-0.005,-0.013,0.000,0.285,-24.56,-15.09,-1.26
0.359,takeoff,0,0,0,0.00,0.00,0.00,-0.80,0.00,-0.03,-0.31,-0.49,0.011,0.036,0.007,0.026,-0.609,-0.004,-0.012,0.000,0.285,-24.56,-15.10,-1.27
0.359,takeoff,0,0,0,0.00,0.00,0.00,-0.80,0.00,-0.03,-0.31,-0.49,0.011,0.036,0.007,0.026,-0.609,-0.004,-0.012,0.000,0.285,-24.56,-15.10,-1.27
0.359,takeoff,0,0,0,0.00,0.00,0.00,-0.80,0.00,-0.03,-0.31,-0.49,0.011,0.036,0.007,0.026,-0.609,-0.004,-0.012,0.000,0.285,-24.56,-15.10,-1.27
0.359,takeoff,0,0,0,0.00,0.00,0.00,-0.80,0.00,-0.03,-0.31,-0.49,0.011,0.036,0.007,0.026,-0.609,-0.004,-0.012,0.000,0.285,-24.56,-15.10,-1.27
0.359,takeoff,0,0,0,0.00,0.00,0.00,-0.80,0.00,-0.03,-0.31,-0.49,0.011,0.036,0.007,0.026,-0.609,-0.004,-0.012,0.000,0.285,-24.56,-15.10,-1.27
0.375,takeoff,0,0,0,0.00,0.00,0.00,-0.80,0.00,-0.03,-0.30,-0.49,0.011,0.035,0.007,0.026,-0.609,-0.004,-0.011,0.000,0.284,-24.56,-15.10,-1.27
0.375,takeoff,0,0,0,0.00,0.00,0.00,-0.80,0.00,-0.03,-0.30,-0.49,0.011,0.035,0.007,0.026,-0.609,-0.004,-0.011,0.000,0.284,-24.56,-15.10,-1.27
0.375,takeoff,0,0,0,0.00,0.00,0.00,-0.80,0.00,-0.03,-0.30,-0.49,0.011,0.035,0.007,0.026,-0.609,-0.004,-0.011,0.000,0.284,-24.56,-15.10,-1.27
0.375,takeoff,0,0,0,0.00,0.00,0.00,-0.80,0.00,-0.03,-0.30,-0.49,0.011,0.035,0.007,0.026,-0.609,-0.004,-0.011,0.000,0.284,-24.56,-15.10,-1.27
0.375,takeoff,0,0,0,0.00,0.00,0.00,-0.80,0.00,-0.03,-0.30,-0.49,0.011,0.035,0.007,0.026,-0.609,-0.004,-0.011,0.000,0.284,-24.56,-15.10,-1.27
0.375,takeoff,0,0,0,0.00,0.00,0.00,-0.80,0.00,-0.03,-0.30,-0.50,0.011,0.035,0.007,0.026,-0.609,-0.004,-0.011,0.000,0.284,-24.57,-15.10,-1.27
0.375,takeoff,0,0,0,0.00,0.00,0.00,-0.80,0.00,-0.03,-0.30,-0.50,0.011,0.035,0.007,0.026,-0.609,-0.004,-0.011,0.000,0.284,-24.57,-15.10,-1.27
0.375,takeoff,0,0,0,0.00,0.00,0.00,-0.80,0.00,-0.03,-0.30,-0.50,0.011,0.035,0.007,0.026,-0.609,-0.004,-0.011,0.000,0.284,-24.57,-15.10,-1.27
0.391,takeoff,0,0,0,0.00,0.00,0.00,-0.80,0.00,-0.03,-0.30,-0.50,0.011,0.035,0.007,0.026,-0.609,-0.004,-0.011,0.000,0.284,-24.57,-15.10,-1.27
0.391,takeoff,0,0,0,0.00,0.00,0.00,-0.80,0.00,-0.03,-0.30,-0.50,0.011,0.035,0.008,0.027,-0.609,-0.004,-0.010,0.000,0.284,-24.57,-15.10,-1.27
0.391,takeoff,0,0,0,0.00,0.00,0.00,-0.80,0.00,-0.03,-0.30,-0.51,0.011,0.035,0.008,0.027,-0.609,-0.004,-0.010,0.000,0.284,-24.57,-15.10,-1.28
0.391,takeoff,0,0,0,0.00,0.00,0.00,-0.80,0.00,-0.03,-0.30,-0.51,0.011,0.035,0.008,0.027,-0.609,-0.004,-0.010,0.000,0.284,-24.57,-15.10,-1.28
0.391,takeoff,0,0,0,0.00,0.00,0.00,-0.80,0.00,-0.03,-0.30,-0.51,0.011,0.035,0.008,0.027,-0.609,-0.004,-0.010,0.000,0.284,-24.57,-15.10,-1.28
0.391,takeoff,0,0,0,0.00,0.00,0.00,-0.80,0.00,-0.03,-0.30,-0.51,0.011,0.035,0.008,0.027,-0.609,-0.003,-0.010,0.000,0.284,-24.57,-15.10,-1.28
0.391,takeoff,0,0,0,0.00,0.00,0.00,-0.80,0.00,-0.03,-0.30,-0.51,0.011,0.035,0.008,0.027,-0.609,-0.003,-0.010,0.000,0.284,-24.57,-15.10,-1.28
0.406,takeoff,0,0,0,0.00,0.00,0.00,-0.80,0.00,-0.03,-0.30,-0.52,0.010,0.034,0.008,0.027,-0.609,-0.003,-0.009,0.000,0.283,-24.57,-15.11,-1.29
0.406,takeoff,0,0,0,0.00,0.00,0.00,-0.80,0.00,-0.03,-0.30,-0.52,0.010,0.034,0.008,0.027,-0.609,-0.003,-0.009,0.000,0.283,-24.57,-15.11,-1.29
0.406,takeoff,0,0,0,0.00,0.00,0.00,-0.80,0.00,-0.03,-0.30,-0.52,0.010,0.034,0.008,0.027,-0.609,-0.003,-0.009,0.000,0.283,-24.57,-15.11,-1.29
0.406,takeoff,0,0,0,0.00,0.00,0.00,-0.80,0.00,-0.03,-0.30,-0.52,0.010,0.034,0.008,0.027,-0.609,-0.003,-0.009,0.000,0.283,-24.57,-15.11,-1.29
0.406,takeoff,0,0,0,0.00,0.00,0.00,-0.80,0.00,-0.03,-0.29,-0.52,0.010,0.034,0.008,0.027,-0.609,-0.003,-0.009,0.000,0.283,-24.57,-15.11,-1.29
0.406,takeoff,0,0,0,0.00,0.00,0.00,-0.80,0.00,-0.03,-0.29,-0.52,0.010,0.034,0.008,0.027,-0.609,-0.003,-0.008,0.000,0.283,-24.57,-15.11,-1.29
0.406,takeoff,0,0,0,0.00,0.00,0.00,-0.80,0.00,-0.03,-0.29,-0.52,0.010,0.034,0.008,0.028,-0.609,-0.003,-0.008,0.000,0.283,-24.57,-15.11,-1.29
0.422,takeoff,0,0,0,0.00,0.00,0.00,-0.80,0.00,-0.03,-0.29,-0.52,0.010,0.034,0.008,0.028,-0.609,-0.003,-0.008,0.000,0.283,-24.57,-15.11,-1.29
0.422,takeoff,0,0,0,0.00,0.00,0.00,-0.80,0.00,-0.03,-0.29,-0.52,0.010,0.034,0.008,0.028,-0.609,-0.003,-0.008,0.000,0.283,-24.57,-15.11,-1.29
0.422,takeoff,0,0,0,0.00,0.00,0.00,-0.80,0.00,-0.03,-0.29,-0.52,0.010,0.034,0.008,0.028,-0.609,-0.003,-0.008,0.000,0.283,-24.57,-15.11,-1.29
0.422,takeoff,0,0,0,0.00,0.00,0.00,-0.80,0.00,-0.03,-0.29,-0.53,0.010,0.033,0.008,0.028,-0.609,-0.003,-0.007,0.000,0.282,-24.57,-15.11,-1.30
0.422,takeoff,0,0,0,0.00,0.00,0.00,-0.80,0.00,-0.03,-0.29,-0.53,0.010,0.033,0.008,0.028,-0.609,-0.003,-0.007,0.000,0.282,-24.57,-15.11,-1.30
0.422,takeoff,0,0,0,0.00,0.00,0.00,-0.80,0.00,-0.03,-0.29,-0.53,0.010,0.033,0.008,0.028,-0.609,-0.003,-0.007,0.000,0.282,-24.57,-15.11,-1.30
0.422,takeoff,0,0,0,0.00,0.00,0.00,-0.80,0.00,-0.03,-0.29,-0.53,0.010,0.033,0.008,0.028,-0.609,-0.003,-0.007,0.000,0.282,-24.57,-15.11,-1.30
0.437,takeoff,0,0,0,0.00,0.00,0.00,-0.80,0.00,-0.03,-0.29,-0.53,0.010,0.033,0.008,0.028,-0.609,-0.003,-0.007,0.000,0.282,-24.57,-15.11,-1.30
0.437,takeoff,0,0,0,0.00,0.00,0.00,-0.80,0.00,-0.03,-0.29,-0.53,0.010,0.033,0.008,0.028,-0.609,-0.003,-0.007,0.000,0.282,-24.58,-15.11,-1.30
0.437,takeoff,0,0,0,0.00,0.00,0.00,-0.80,0.00,-0.03,-0.29,-0.53,0.010,0.033,0.008,0.028,-0.609,-0.003,-0.007,0.000,0.282,-24.58,-15.11,-1.30
0.437,takeoff,0,0,0,0.00,0.00,0.00,-0.80,0.00,-0.03,-0.28,-0.53,0.010,0.033,0.008,0.028,-0.609,-0.003,-0.007,0.000,0.282,-24.58,-15.11,-1.30
0.437,takeoff,0,0,0,0.00,0.00,0.00,-0.80,0.00,-0.03,-0.28,-0.53,0.010,0.033,0.008,0.028,-0.609,-0.003,-0.006,0.000,0.282,-24.58,-15.11,-1.30
0.437,takeoff,0,0,0,0.00,0.00,0.00,-0.80,0.00,-0.03,-0.28,-0.53,0.010,0.033,0.008,0.028,-0.609,-0.003,-0.006,0.000,0.282,-24.58,-15.11,-1.30
0.437,takeoff,0,0,0,0.00,0.00,0.00,-0.80,0.00,-0.03,-0.28,-0.54,0.010,0.033,0.008,0.028,-0.609,-0.002,-0.006,0.000,0.281,-24.58,-15.11,-1.31
0.437,takeoff,0,0,0,0.00,0.00,0.00,-0.80,0.00,-0.03,-0.28,-0.54,0.010,0.033,0.008,0.028,-0.609,-0.002,-0.006,0.000,0.281,-24.58,-15.11,-1.31
0.453,takeoff,0,0,0,0.00,0.00,0.00,-0.80,0.00,-0.03,-0.28,-0.54,0.010,0.033,0.008,0.028,-0.609,-0.002,-0.006,0.000,0.282,-24.58,-15.11,-1.31
0.453,takeoff,0,0,0,0.00,0.00,0.00,-0.80,0.00,-0.03,-0.28,-0.54,0.010,0.033,0.008,0.028,-0.609,-0.002,-0.006,0.000,0.282,-24.58,-15.11,-1.31
0.453,takeoff,0,0,0,0.00,0.00,0.00,-0.80,0.00,-0.03,-0.28,-0.55,0.010,0.032,0.008,0.028,-0.609,-0.002,-0.005,0.000,0.281,-24.58,-15.12,-1.31
0.453,takeoff,0,0,0,0.00,0.00,0.00,-0.80,0.00,-0.03,-0.28,-0.55,0.010,0.032,0.008,0.028,-0.609,-0.002,-0.005,0.000,0.281,-24.58,-15.12,-1.31
0.453,takeoff,0,0,0,0.00,0.00,0.00,-0.80,0.00,-0.03,-0.28,-0.55,0.010,0.032,0.008,0.028,-0.609,-0.002,-0.005,0.000,0.281,-24.58,-15.12,-1.31
0.469,takeoff,0,0,0,0.00,0.00,0.00,-0.80,0.00,-0.03,-0.28,-0.55,0.010,0.032,0.008,0.028,-0.609,-0.002,-0.005,0.000,0.281,-24.58,-15.12,-1.31
0.469,takeoff,0,0,0,0.00,0.00,0.00,-0.80,0.00,-0.03,-0.27,-0.55,0.010,0.032,0.008,0.028,-0.609,-0.002,-0.004,0.000,0.281,-24.58,-15.12,-1.32
0.469,takeoff,0,0,0,0.00,0.00,0.00,-0.80,0.00,-0.03,-0.27,-0.55,0.010,0.032,0.008,0.029,-0.609,-0.002,-0.004,0.000,0.281,-24.58,-15.12,-1.32
0.469,takeoff,0,0,0,0.00,0.00,0.00,-0.80,0.00,-0.03,-0.27,-0.55,0.010,0.032,0.008,0.029,-0.609,-0.002,-0.004,0.000,0.281,-24.58,-15.12,-1.32
0.469,takeoff,0,0,0,0.00,0.00,0.00,-0.80,0.00,-0.03,-0.27,-0.56,0.010,0.032,0.008,0.029,-0.609,-0.002,-0.004,0.000,0.280,-24.58,-15.12,-1.33
0.469,takeoff,0,0,0,0.00,0.00,0.00,-0.80,0.00,-0.03,-0.27,-0.56,0.010,0.032,0.008,0.029,-0.609,-0.002,-0.004,0.000,0.280,-24.58,-15.12,-1.33
0.484,takeoff,0,0,0,0.00,0.00,0.00,-0.80,0.00,-0.03,-0.27,-0.56,0.010,0.032,0.008,0.029,-0.609,-0.002,-0.004,0.000,0.281,-24.58,-15.12,-1.33
0.484,takeoff,0,0,0,0.00,0.00,0.00,-0.80,0.00,-0.03,-0.27,-0.56,0.010,0.032,0.008,0.029,-0.609,-0.002,-0.004,0.000,0.281,-24.58,-15.12,-1.33
0.484,takeoff,0,0,0,0.00,0.00,0.00,-0.80,0.00,-0.03,-0.27,-0.56,0.010,0.032,0.008,0.029,-0.609,-0.002,-0.004,0.000,0.281,-24.58,-15.12,-1.33
0.484,takeoff,0,0,0,0.00,0.00,0.00,-0.80,0.00,-0.03,-0.27,-0.57,0.010,0.031,0.008,0.029,-0.609,-0.002,-0.003,0.000,0.280,-24.59,-15.12,-1.33
0.484,takeoff,0,0,0,0.00,0.00,0.00,-0.80,0.00,-0.03,-0.27,-0.57,0.010,0.031,0.008,0.029,-0.609,-0.002,-0.003,0.000,0.280,-24.59,-15.12,-1.33
0.484,takeoff,0,0,0,0.00,0.00,0.00,-0.80,0.00,-0.03,-0.27,-0.57,0.010,0.031,0.008,0.029,-0.609,-0.002,-0.003,0.000,0.280,-24.59,-15.12,-1.33
0.484,takeoff,0,0,0,0.00,0.00,0.00,-0.80,0.00,-0.03,-0.27,-0.57,0.010,0.031,0.008,0.029,-0.609,-0.002,-0.003,0.000,0.280,-24.59,-15.12,-1.33
0.500,takeoff,0,0,0,0.00,0.00,0.00,-0.80,0.00,-0.03,-0.26,-0.57,0.010,0.031,0.008,0.029,-0.609,-0.001,-0.003,0.000,0.280,-24.59,-15.12,-1.33
0.500,takeoff,0,0,0,0.00,0.00,0.00,-0.80,0.00,-0.03,-0.26,-0.57,0.010,0.031,0.008,0.029,-0.609,-0.001,-0.003,0.000,0.280,-24.59,-15.12,-1.33
0.500,takeoff,0,0,0,0.00,0.00,0.00,-0.80,0.00,-0.03,-0.26,-0.57,0.009,0.031,0.008,0.029,-0.609,-0.001,-0.003,0.000,0.280,-24.59,-15.13,-1.34
0.500,takeoff,0,0,0,0.00,0.00,0.00,-0.80,0.00,-0.03,-0.26,-0.57,0.009,0.031,0.008,0.029,-0.609,-0.001,-0.003,0.000,0.280,-24.59,-15.13,-1.34
0.500,takeoff,0,0,0,0.00,0.00,0.00,-0.80,0.00,-0.03,-0.26,-0.57,0.009,0.031,0.008,0.029,-0.609,-0.001,-0.003,0.000,0.280,-24.59,-15.13,-1.34
0.500,takeoff,0,0,0,0.00,0.00,0.00,-0.80,0.00,-0.03,-0.26,-0.57,0.009,0.031,0.008,0.029,-0.609,-0.001,-0.002,0.000,0.280,-24.59,-15.13,-1.34
0.500,takeoff,0,0,0,0.00,0.00,0.00,-0.80,0.00,-0.03,-0.26,-0.57,0.009,0.031,0.008,0.029,-0.609,-0.001,-0.002,0.000,0.280,-24.59,-15.13,-1.34
0.500,takeoff,0,0,0,0.00,0.00,0.00,-0.80,0.00,-0.03,-0.26,-0.58,0.009,0.030,0.008,0.029,-0.609,-0.001,-0.002,0.000,0.280,-24.59,-15.13,-1.35
0.516,takeoff,0,0,0,0.00,0.00,0.00,-0.80,0.00,-0.03,-0.26,-0.58,0.009,0.030,0.008,0.029,-0.609,-0.001,-0.002,0.000,0.280,-24.59,-15.13,-1.35
0.516,takeoff,0,0,0,0.00,0.00,0.00,-0.80,0.00,-0.03,-0.26,-0.58,0.009,0.030,0.008,0.029,-0.609,-0.001,-0.002,0.000,0.280,-24.59,-15.13,-1.35
0.516,takeoff,0,0,0,0.00,0.00,0.00,-0.80,0.00,-0.03,-0.26,-0.58,0.009,0.030,0.008,0.029,-0.609,-0.001,-0.002,0.000,0.280,-24.59,-15.13,-1.35
0.516,takeoff,0,0,0,0.00,0.00,0.00,-0.80,0.00,-0.03,-0.26,-0.58,0.009,0.030,0.008,0.029,-0.609,-0.001,-0.002,0.000,0.280,-24.59,-15.13,-1.35
0.516,takeoff,0,0,0,0.00,0.00,0.00,-0.80,0.00,-0.03,-0.26,-0.58,0.009,0.030,0.008,0.029,-0.609,-0.001,-0.001,0.000,0.280,-24.59,-15.13,-1.35
0.516,takeoff,0,0,0,0.00,0.00,0.00,-0.80,0.00,-0.03,-0.26,-0.58,0.009,0.030,0.008,0.029,-0.609,-0.001,-0.001,0.000,0.280,-24.59,-15.13,-1.35
0.516,takeoff,0,0,0,0.00,0.00,0.00,-0.80,0.00,-0.03,-0.26,-0.58,0.009,0.030,0.008,0.029,-0.609,-0.001,-0.001,0.000,0.280,-24.59,-15.13,-1.35
0.516,takeoff,0,0,0,0.00,0.00,0.00,-0.80,0.00,-0.03,-0.26,-0.58,0.009,0.030,0.008,0.029,-0.609,-0.001,-0.001,0.000,0.280,-24.59,-15.13,-1.35
0.516,takeoff,0,0,0,0.00,0.00,0.00,-0.80,0.00,-0.03,-0.26,-0.58,0.009,0.030,0.008,0.029,-0.609,-0.001,-0.001,0.000,0.280,-24.59,-15.13,-1.35
0.531,takeoff,0,0,0,0.00,0.00,0.00,-0.80,0.00,-0.03,-0.26,-0.59,0.009,0.030,0.008,0.029,-0.609,-0.001,-0.001,0.000,0.280,-24.59,-15.13,-1.36
0.531,takeoff,0,0,0,0.00,0.00,0.00,-0.80,0.00,-0.03,-0.26,-0.59,0.009,0.030,0.008,0.029,-0.609,-0.001,-0.000,0.000,0.280,-24.59,-15.13,-1.36
0.531,takeoff,0,0,0,0.00,0.00,0.00,-0.80,0.00,-0.03,-0.26,-0.59,0.009,0.030,0.008,0.029,-0.609,-0.001,-0.000,0.000,0.280,-24.59,-15.13,-1.36
0.531,takeoff,0,0,0,0.00,0.00,0.00,-0.80,0.00,-0.03,-0.26,-0.59,0.009,0.030,0.008,0.029,-0.609,-0.001,-0.000,0.000,0.280,-24.59,-15.13,-1.36
0.531,takeoff,0,0,0,0.00,0.00,0.00,-0.80,0.00,-0.03,-0.25,-0.59,0.009,0.030,0.008,0.029,-0.609,-0.001,-0.000,0.000,0.280,-24.59,-15.13,-1.36
0.531,takeoff,0,0,0,0.00,0.00,0.00,-0.80,0.00,-0.03,-0.25,-0.59,0.009,0.029,0.008,0.029,-0.609,-0.001,-0.000,0.000,0.280,-24.59,-15.13,-1.36
0.531,takeoff,0,0,0,0.00,0.00,0.00,-0.80,0.00,-0.03,-0.25,-0.59,0.009,0.029,0.008,0.029,-0.609,-0.001,-0.000,0.000,0.280,-24.59,-15.13,-1.36
0.547,takeoff,0,0,0,0.00,0.00,0.00,-0.80,0.00,-0.03,-0.25,-0.59,0.009,0.029,0.008,0.029,-0.609,-0.001,-0.000,0.000,0.280,-24.59,-15.13,-1.36
0.547,takeoff,0,0,0,0.00,0.00,0.00,-0.80,0.00,-0.03,-0.25,-0.59,0.009,0.029,0.008,0.029,-0.609,-0.001,-0.000,0.000,0.280,-24.59,-15.13,-1.36
0.547,takeoff,0,0,0,0.00,0.00,0.00,-0.80,0.00,-0.03,-0.25,-0.59,0.009,0.029,0.008,0.029,-0.609,-0.001,-0.000,0.000,0.280,-24.59,-15.13,-1.36
0.547,takeoff,0,0,0,0.00,0.00,0.00,-0.80,0.00,-0.03,-0.25,-0.59,0.009,0.029,0.008,0.029,-0.609,-0.001,-0.000,0.000,0.280,-24.59,-15.13,-1.36
0.547,takeoff,0,0,0,0.00,0.00,0.00,-0.80,0.00,-0.03,-0.25,-0.60,0.009,0.029,0.008,0.029,-0.609,-0.000,0.000,0.000,0.280,-24.59,-15.14,-1.37
0.547,takeoff,0,0,0,0.00,0.00,0.00,-0.80,0.00,-0.03,-0.25,-0.60,0.009,0.029,0.008,0.029,-0.609,-0.000,0.000,0.000,0.280,-24.59,-15.14,-1.37
0.547,takeoff,0,0,0,0.00,0.00,0.00,-0.80,0.00,-0.03,-0.25,-0.60,0.009,0.029,0.008,0.029,-0.609,-0.000,0.000,0.000,0.280,-24.59,-15.14,-1.37
0.562,takeoff,0,0,0,0.00,0.00,0.00,-0.80,0.00,-0.03,-0.25,-0.60,0.009,0.029,0.009,0.029,-0.609,-0.000,0.000,0.000,0.280,-24.59,-15.14,-1.37
0.562,takeoff,0,0,0,0.00,0.00,0.00,-0.80,0.00,-0.03,-0.25,-0.60,0.009,0.029,0.009,0.029,-0.609,-0.000,0.000,0.000,0.280,-24.59,-15.14,-1.37
0.562,takeoff,0,0,0,0.00,0.00,0.00,-0.80,0.00,-0.03,-0.25,-0.61,0.009,0.028,0.009,0.029,-0.609,-0.000,0.001,0.000,0.280,-24.60,-15.14,-1.38
0.562,takeoff,0,0,0,0.00,0.00,0.00,-0.80,0.00,-0.03,-0.24,-0.61,0.009,0.028,0.009,0.029,-0.609,-0.000,0.001,0.000,0.280,-24.60,-15.14,-1.38
0.562,takeoff,0,0,0,0.00,0.00,0.00,-0.80,0.00,-0.03,-0.24,-0.61,0.009,0.028,0.009,0.029,-0.609,-0.000,0.001,0.000,0.280,-24.60,-15.14,-1.38
0.562,takeoff,0,0,0,0.00,0.00,0.00,-0.80,0.00,-0.03,-0.24,-0.61,0.009,0.028,0.009,0.029,-0.609,-0.000,0.001,0.000,0.280,-24.60,-15.14,-1.38
0.562,takeoff,0,0,0,0.00,0.00,0.00,-0.80,0.00,-0.03,-0.24,-0.61,0.009,0.028,0.009,0.029,-0.609,-0.000,0.001,0.000,0.280,-24.60,-15.14,-1.38
0.562,takeoff,0,0,0,0.00,0.00,0.00,-0.80,0.00,-0.03,-0.24,-0.61,0.009,0.028,0.009,0.029,-0.609,-0.000,0.001,0.000,0.280,-24.60,-15.14,-1.38
0.578,takeoff,0,0,0,0.00,0.00,0.00,-0.80,0.00,-0.03,-0.24,-0.61,0.009,0.028,0.009,0.029,-0.609,-0.000,0.001,0.000,0.280,-24.60,-15.14,-1.38
0.578,takeoff,0,0,0,0.00,0.00,0.00,-0.80,0.00,-0.03,-0.24,-0.61,0.009,0.028,0.009,0.029,-0.609,-0.000,0.001,0.000,0.280,-24.60,-15.14,-1.38
0.578,takeoff,0,0,0,0.00,0.00,0.00,-0.80,0.00,-0.03,-0.24,-0.61,0.009,0.028,0.009,0.029,-0.609,-0.000,0.001,0.000,0.280,-24.60,-15.14,-1.38
0.578,takeoff,0,0,0,0.00,0.00,0.00,-0.80,0.00,-0.03,-0.24,-0.61,0.009,0.028,0.009,0.029,-0.609,-0.000,0.001,0.000,0.280,-24.60,-15.14,-1.38
0.578,takeoff,0,0,0,0.00,0.00,0.00,-0.80,0.00,-0.03,-0.24,-0.62,0.009,0.028,0.009,0.029,-0.609,0.000,0.002,0.000,0.280,-24.60,-15.14,-1.39
0.578,takeoff,0,0,0,0.00,0.00,0.00,-0.80,0.00,-0.03,-0.24,-0.62,0.009,0.028,0.009,0.029,-0.609,0.000,0.002,0.000,0.280,-24.60,-15.14,-1.39
0.578,takeoff,0,0,0,0.00,0.00,0.00,-0.80,0.00,-0.03,-0.24,-0.62,0.009,0.028,0.009,0.029,-0.609,0.000,0.002,0.000,0.280,-24.60,-15.14,-1.39
0.578,takeoff,0,0,0,0.00,0.00,0.00,-0.80,0.00,-0.03,-0.24,-0.62,0.009,0.028,0.009,0.029,-0.609,0.000,0.002,0.000,0.280,-24.60,-15.14,-1.39
0.594,takeoff,0,0,0,0.00,0.00,0.00,-0.80,0.00,-0.03,-0.24,-0.62,0.009,0.028,0.009,0.029,-0.609,0.000,0.002,0.000,0.280,-24.60,-15.14,-1.39
0.594,takeoff,0,0,0,0.00,0.00,0.00,-0.80,0.00,-0.03,-0.23,-0.62,0.009,0.028,0.009,0.029,-0.609,0.000,0.002,0.000,0.280,-24.60,-15.14,-1.39
0.594,takeoff,0,0,0,0.00,0.00,0.00,-0.80,0.00,-0.03,-0.23,-0.62,0.008,0.027,0.009,0.029,-0.609,0.000,0.002,0.000,0.280,-24.60,-15.14,-1.40
0.594,takeoff,0,0,0,0.00,0.00,0.00,-0.80,0.00,-0.03,-0.23,-0.62,0.008,0.027,0.009,0.029,-0.609,0.000,0.002,0.000,0.280,-24.60,-15.14,-1.40
0.594,takeoff,0,0,0,0.00,0.00,0.00,-0.80,0.00,-0.03,-0.23,-0.62,0.008,0.027,0.009,0.029,-0.609,0.000,0.002,0.000,0.280,-24.60,-15.14,-1.40
0.594,takeoff,0,0,0,0.00,0.00,0.00,-0.80,0.00,-0.03,-0.23,-0.62,0.008,0.027,0.009,0.029,-0.609,0.000,0.002,0.000,0.280,-24.60,-15.14,-1.40
0.594,takeoff,0,0,0,0.00,0.00,0.00,-0.80,0.00,-0.03,-0.23,-0.62,0.008,0.027,0.009,0.029,-0.609,0.000,0.002,0.000,0.280,-24.60,-15.14,-1.40
0.594,takeoff,0,0,0,0.00,0.00,0.00,-0.80,0.00,-0.03,-0.23,-0.62,0.008,0.027,0.009,0.029,-0.609,0.000,0.002,0.000,0.280,-24.60,-15.14,-1.40
0.609,takeoff,0,0,0,0.00,0.00,0.00,-0.80,0.00,-0.03,-0.23,-0.63,0.008,0.027,0.009,0.029,-0.609,0.000,0.003,0.000,0.280,-24.60,-15.15,-1.40
0.609,takeoff,0,0,0,0.00,0.00,0.00,-0.80,0.00,-0.03,-0.23,-0.63,0.008,0.027,0.009,0.029,-0.609,0.000,0.003,0.000,0.280,-24.60,-15.15,-1.40
0.609,takeoff,0,0,0,0.00,0.00,0.00,-0.80,0.00,-0.03,-0.23,-0.63,0.008,0.027,0.009,0.029,-0.609,0.000,0.003,0.000,0.280,-24.60,-15.15,-1.40
0.609,takeoff,0,0,0,0.00,0.00,0.00,-0.80,0.00,-0.03,-0.23,-0.63,0.008,0.027,0.009,0.029,-0.609,0.000,0.003,0.000,0.280,-24.60,-15.15,-1.40
0.609,takeoff,0,0,0,0.00,0.00,0.00,-0.80,0.00,-0.03,-0.23,-0.63,0.008,0.027,0.009,0.029,-0.609,0.000,0.003,0.000,0.280,-24.60,-15.15,-1.41
0.609,takeoff,0,0,0,0.00,0.00,0.00,-0.80,0.00,-0.03,-0.23,-0.63,0.008,0.027,0.009,0.029,-0.609,0.000,0.003,0.000,0.280,-24.60,-15.15,-1.41
0.609,takeoff,0,0,0,0.00,0.00,0.00,-0.80,0.00,-0.03,-0.23,-0.63,0.008,0.027,0.009,0.029,-0.609,0.000,0.003,0.000,0.280,-24.60,-15.15,-1.41
0.625,takeoff,0,0,0,0.00,0.00,0.00,-0.80,0.00,-0.03,-0.22,-0.63,0.008,0.027,0.009,0.029,-0.609,0.000,0.003,0.000,0.280,-24.60,-15.15,-1.41
0.625,takeoff,0,0,0,0.00,0.00,0.00,-0.80,0.00,-0.03,-0.22,-0.63,0.008,0.027,0.009,0.029,-0.609,0.000,0.003,0.000,0.280,-24.60,-15.15,-1.41
0.625,takeoff,0,0,0,0.00,0.00,0.00,-0.80,0.00,-0.03,-0.22,-0.64,0.008,0.026,0.009,0.029,-0.609,0.001,0.004,0.000,0.280,-24.61,-15.15,-1.42
0.625,takeoff,0,0,0,0.00,0.00,0.00,-0.80,0.00,-0.03,-0.22,-0.64,0.008,0.026,0.009,0.029,-0.609,0.001,0.004,0.000,0.280,-24.61,-15.15,-1.42
0.625,takeoff,0,0,0,0.00,0.00,0.00,-0.80,0.00,-0.03,-0.22,-0.64,0.008,0.026,0.009,0.029,-0.609,0.001,0.004,0.000,0.280,-24.61,-15.15,-1.42
0.625,takeoff,0,0,0,0.00,0.00,0.00,-0.80,0.00,-0.03,-0.22,-0.64,0.008,0.026,0.009,0.029,-0.609,0.001,0.004,0.000,0.280,-24.61,-15.15,-1.42
0.625,takeoff,0,0,0,0.00,0.00,0.00,-0.80,0.00,-0.03,-0.22,-0.64,0.008,0.026,0.009,0.029,-0.609,0.001,0.004,0.000,0.280,-24.61,-15.15,-1.42
0.641,takeoff,0,0,0,0.00,0.00,0.00,-0.80,0.00,-0.03,-0.22,-0.65,0.008,0.026,0.009,0.029,-0.609,0.001,0.004,0.000,0.280,-24.61,-15.15,-1.42
0.641,takeoff,0,0,0,0.00,0.00,0.00,-0.80,0.00,-0.03,-0.22,-0.65,0.008,0.026,0.009,0.029,-0.609,0.001,0.004,0.000,0.280,-24.61,-15.15,-1.42
0.641,takeoff,0,0,0,0.00,0.00,0.00,-0.80,0.00,-0.03,-0.22,-0.65,0.008,0.026,0.009,0.029,-0.609,0.001,0.004,0.000,0.280,-24.61,-15.15,-1.42
0.641,takeoff,0,0,0,0.00,0.00,0.00,-0.80,0.00,-0.03,-0.22,-0.65,0.008,0.026,0.009,0.029,-0.609,0.001,0.004,0.000,0.280,-24.61,-15.15,-1.42
0.641,takeoff,0,0,0,0.00,0.00,0.00,-0.80,0.00,-0.03,-0.22,-0.66,0.008,0.025,0.009,0.029,-0.609,0.001,0.005,0.000,0.280,-24.61,-15.15,-1.43
0.641,takeoff,0,0,0,0.00,0.00,0.00,-0.80,0.00,-0.03,-0.22,-0.66,0.008,0.025,0.009,0.029,-0.609,0.001,0.005,0.000,0.280,-24.61,-15.15,-1.43
0.656,takeoff,0,0,0,0.00,0.00,0.00,-0.80,0.00,-0.03,-0.22,-0.66,0.008,0.025,0.009,0.029,-0.609,0.001,0.005,0.000,0.280,-24.61,-15.15,-1.43
0.656,takeoff,0,0,0,0.00,0.00,0.00,-0.80,0.00,-0.03,-0.22,-0.66,0.008,0.025,0.009,0.029,-0.609,0.001,0.005,0.000,0.280,-24.61,-15.15,-1.43
0.656,takeoff,0,0,0,0.00,0.00,0.00,-0.80,0.00,-0.03,-0.22,-0.66,0.008,0.025,0.009,0.029,-0.609,0.001,0.005,0.000,0.280,-24.61,-15.15,-1.43
0.656,takeoff,0,0,0,0.00,0.00,0.00,-0.80,0.00,-0.03,-0.22,-0.66,0.008,0.025,0.009,0.029,-0.609,0.001,0.005,0.000,0.280,-24.61,-15.16,-1.44
0.656,takeoff,0,0,0,0.00,0.00,0.00,-0.80,0.00,-0.03,-0.22,-0.66,0.008,0.025,0.009,0.029,-0.609,0.001,0.005,0.000,0.280,-24.61,-15.16,-1.44
0.656,takeoff,0,0,0,0.00,0.00,0.00,-0.80,0.00,-0.03,-0.21,-0.66,0.008,0.025,0.009,0.029,-0.609,0.001,0.005,0.000,0.280,-24.61,-15.16,-1.44
0.656,takeoff,0,0,0,0.00,0.00,0.00,-0.80,0.00,-0.03,-0.21,-0.66,0.008,0.025,0.009,0.029,-0.609,0.001,0.005,0.000,0.280,-24.61,-15.16,-1.44
0.656,takeoff,0,0,0,0.00,0.00,0.00,-0.80,0.00,-0.03,-0.21,-0.66,0.008,0.025,0.009,0.029,-0.609,0.001,0.005,0.000,0.280,-24.61,-15.16,-1.44
0.672,takeoff,0,0,0,0.00,0.00,0.00,-0.80,0.00,-0.03,-0.21,-0.67,0.008,0.025,0.009,0.029,-0.609,0.001,0.005,0.000,0.280,-24.61,-15.16,-1.44
0.672,takeoff,0,0,0,0.00,0.00,0.00,-0.80,0.00,-0.03,-0.21,-0.67,0.008,0.025,0.009,0.029,-0.609,0.001,0.005,0.000,0.280,-24.61,-15.16,-1.44
0.672,takeoff,0,0,0,0.00,0.00,0.00,-0.80,0.00,-0.03,-0.21,-0.67,0.008,0.025,0.009,0.029,-0.609,0.001,0.005,0.000,0.280,-24.61,-15.16,-1.44
0.672,takeoff,0,0,0,0.00,0.00,0.00,-0.80,0.00,-0.03,-0.21,-0.67,0.008,0.025,0.009,0.029,-0.609,0.001,0.005,0.000,0.280,-24.61,-15.16,-1.44
0.672,takeoff,0,0,0,0.00,0.00,0.00,-0.80,0.00,-0.03,-0.21,-0.67,0.008,0.025,0.009,0.029,-0.609,0.001,0.005,0.000,0.280,-24.61,-15.16,-1.44
0.672,takeoff,0,0,0,0.00,0.00,0.00,-0.80,0.00,-0.03,-0.21,-0.67,0.008,0.025,0.009,0.029,-0.609,0.001,0.005,0.000,0.280,-24.61,-15.16,-1.44
0.672,takeoff,0,0,0,0.00,0.00,0.00,-0.80,0.00,-0.03,-0.21,-0.68,0.008,0.024,0.009,0.029,-0.609,0.001,0.006,0.000,0.280,-24.61,-15.16,-1.45
0.672,takeoff,0,0,0,0.00,0.00,0.00,-0.80,0.00,-0.03,-0.21,-0.68,0.008,0.024,0.009,0.029,-0.609,0.001,0.005,0.000,0.280,-24.61,-15.16,-1.45
0.687,takeoff,0,0,0,0.00,0.00,0.00,-0.80,0.00,-0.03,-0.21,-0.68,0.008,0.024,0.009,0.029,-0.609,0.001,0.005,0.000,0.280,-24.61,-15.16,-1.45
0.687,takeoff,0,0,0,0.00,0.00,0.00,-0.80,0.00,-0.03,-0.21,-0.68,0.008,0.024,0.009,0.029,-0.609,0.001,0.005,0.000,0.280,-24.61,-15.16,-1.45
0.687,takeoff,0,0,0,0.00,0.00,0.00,-0.80,0.00,-0.03,-0.21,-0.68,0.008,0.024,0.009,0.029,-0.609,0.001,0.005,0.000,0.280,-24.61,-15.16,-1.45
0.687,takeoff,0,0,0,0.00,0.00,0.00,-0.80,0.00,-0.03,-0.20,-0.68,0.007,0.024,0.008,0.029,-0.609,0.001,0.006,0.000,0.280,-24.62,-15.16,-1.46
0.687,takeoff,0,0,0,0.00,0.00,0.00,-0.80,0.00,-0.03,-0.20,-0.68,0.007,0.024,0.008,0.029,-0.609,0.001,0.006,0.000,0.280,-24.62,-15.16,-1.46
0.687,takeoff,0,0,0,0.00,0.00,0.00,-0.80,0.00,-0.03,-0.20,-0.68,0.007,0.024,0.008,0.029,-0.609,0.001,0.006,0.000,0.280,-24.62,-15.16,-1.46
0.687,takeoff,0,0,0,0.00,0.00,0.00,-0.80,0.00,-0.03,-0.20,-0.68,0.007,0.024,0.008,0.029,-0.609,0.001,0.006,0.000,0.280,-24.62,-15.16,-1.46
0.687,takeoff,0,0,0,0.00,0.00,0.00,-0.80,0.00,-0.03,-0.20,-0.68,0.007,0.024,0.008,0.029,-0.609,0.001,0.006,0.000,0.280,-24.62,-15.16,-1.46
0.703,takeoff,0,0,0,0.00,0.00,0.00,-0.80,0.00,-0.03,-0.20,-0.69,0.007,0.024,0.008,0.029,-0.609,0.001,0.006,0.000,0.280,-24.62,-15.16,-1.46
0.703,takeoff,0,0,0,0.00,0.00,0.00,-0.80,0.00,-0.03,-0.20,-0.69,0.007,0.024,0.008,0.029,-0.609,0.001,0.006,0.000,0.280,-24.62,-15.16,-1.46
0.703,takeoff,0,0,0,0.00,0.00,0.00,-0.80,0.00,-0.03,-0.20,-0.69,0.007,0.024,0.008,0.029,-0.609,0.001,0.006,0.000,0.280,-24.62,-15.16,-1.46
0.703,takeoff,0,0,0,0.00,0.00,0.00,-0.80,0.00,-0.03,-0.20,-0.69,0.007,0.024,0.008,0.029,-0.609,0.001,0.006,0.000,0.280,-24.62,-15.16,-1.46
0.703,takeoff,0,0,0,0.00,0.00,0.00,-0.80,0.00,-0.03,-0.20,-0.69,0.007,0.024,0.008,0.029,-0.609,0.001,0.006,0.000,0.280,-24.62,-15.16,-1.46
0.703,takeoff,0,0,0,0.00,0.00,0.00,-0.80,0.00,-0.03,-0.20,-0.69,0.007,0.023,0.008,0.029,-0.609,0.001,0.006,0.000,0.280,-24.62,-15.16,-1.47
0.703,takeoff,0,0,0,0.00,0.00,0.00,-0.80,0.00,-0.03,-0.20,-0.69,0.007,0.023,0.008,0.029,-0.609,0.001,0.006,0.000,0.280,-24.62,-15.16,-1.47
0.703,takeoff,0,0,0,0.00,0.00,0.00,-0.80,0.00,-0.03,-0.20,-0.69,0.007,0.023,0.008,0.029,-0.609,0.001,0.006,0.000,0.280,-24.62,-15.16,-1.47
0.719,takeoff,0,0,0,0.00,0.00,0.00,-0.80,0.00,-0.03,-0.20,-0.69,0.007,0.023,0.008,0.028,-0.609,0.001,0.006,0.000,0.280,-24.62,-15.16,-1.47
0.719,takeoff,0,0,0,0.00,0.00,0.00,-0.80,0.00,-0.03,-0.19,-0.69,0.007,0.023,0.008,0.028,-0.609,0.001,0.006,0.000,0.280,-24.62,-15.16,-1.47
0.719,takeoff,0,0,0,0.00,0.00,0.00,-0.80,0.00,-0.03,-0.19,-0.70,0.007,0.023,0.008,0.028,-0.609,0.002,0.007,0.000,0.280,-24.62,-15.17,-1.48
0.719,takeoff,0,0,0,0.00,0.00,0.00,-0.80,0.00,-0.03,-0.19,-0.70,0.007,0.023,0.008,0.028,-0.609,0.002,0.007,0.000,0.280,-24.62,-15.17,-1.48
0.719,takeoff,0,0,0,0.00,0.00,0.00,-0.80,0.00,-0.03,-0.19,-0.70,0.007,0.023,0.008,0.028,-0.609,0.002,0.007,0.000,0.280,-24.62,-15.17,-1.48
0.719,takeoff,0,0,0,0.00,0.00,0.00,-0.80,0.00,-0.03,-0.19,-0.70,0.007,0.023,0.008,0.028,-0.609,0.002,0.007,0.000,0.280,-24.62,-15.17,-1.48
0.719,takeoff,0,0,0,0.00,0.00,0.00,-0.80,0.00,-0.03,-0.19,-0.70,0.007,0.023,0.008,0.028,-0.609,0.002,0.007,0.000,0.280,-24.62,-15.17,-1.48
0.719,takeoff,0,0,0,0.00,0.00,0.00,-0.80,0.00,-0.03,-0.19,-0.70,0.007,0.023,0.008,0.028,-0.609,0.002,0.007,0.000,0.280,-24.62,-15.17,-1.48
0.719,takeoff,0,0,0,0.00,0.00,0.00,-0.80,0.00,-0.03,-0.19,-0.71,0.007,0.023,0.008,0.028,-0.609,0.002,0.007,0.000,0.280,-24.62,-15.17,-1.48
0.734,takeoff,0,0,0,0.00,0.00,0.00,-0.80,0.00,-0.03,-0.19,-0.71,0.007,0.023,0.008,0.028,-0.609,0.002,0.007,0.000,0.280,-24.62,-15.17,-1.48
0.734,takeoff,0,0,0,0.00,0.00,0.00,-0.80,0.00,-0.03,-0.19,-0.71,0.007,0.023,0.008,0.028,-0.609,0.002,0.007,0.000,0.280,-24.62,-15.17,-1.48
0.734,takeoff,0,0,0,0.00,0.00,0.00,-0.80,0.00,-0.03,-0.19,-0.71,0.007,0.023,0.008,0.028,-0.609,0.002,0.007,0.000,0.280,-24.62,-15.17,-1.48
0.734,takeoff,0,0,0,0.00,0.00,0.00,-0.80,0.00,-0.03,-0.19,-0.71,0.007,0.023,0.008,0.028,-0.609,0.002,0.007,0.000,0.280,-24.62,-15.17,-1.48
0.734,takeoff,0,0,0,0.00,0.00,0.00,-0.80,0.00,-0.03,-0.19,-0.72,0.007,0.022,0.008,0.028,-0.609,0.002,0.008,0.000,0.280,-24.62,-15.17,-1.50
0.734,takeoff,0,0,0,0.00,0.00,0.00,-0.80,0.00,-0.03,-0.19,-0.72,0.007,0.022,0.008,0.028,-0.609,0.002,0.007,0.000,0.280,-24.62,-15.17,-1.50
0.734,takeoff,0,0,0,0.00,0.00,0.00,-0.80,0.00,-0.03,-0.19,-0.72,0.007,0.022,0.008,0.028,-0.609,0.002,0.007,0.000,0.280,-24.62,-15.17,-1.50
0.734,takeoff,0,0,0,0.00,0.00,0.00,-0.80,0.00,-0.03,-0.19,-0.72,0.007,0.022,0.008,0.028,-0.609,0.002,0.007,0.000,0.280,-24.62,-15.17,-1.50
0.750,takeoff,0,0,0,0.00,0.00,0.00,-0.80,0.00,-0.03,-0.19,-0.72,0.007,0.022,0.008,0.028,-0.609,0.002,0.007,0.000,0.280,-24.62,-15.17,-1.50
0.750,takeoff,0,0,0,0.00,0.00,0.00,-0.80,0.00,-0.03,-0.19,-0.72,0.007,0.022,0.008,0.028,-0.609,0.002,0.007,0.000,0.280,-24.62,-15.17,-1.50
0.750,servo,0,0,0,0.00,0.00,0.00,0.00,0.00,-0.03,-0.19,-0.72,0.007,0.022,0.008,0.028,-0.609,0.002,0.008,0.000,0.206,-24.62,-15.17,-1.50
0.750,servo,0,0,0,0.00,0.00,0.00,0.00,0.00,-0.03,-0.19,-0.72,0.007,0.022,0.008,0.028,-0.609,0.002,0.008,0.000,0.206,-24.62,-15.17,-1.50
0.750,servo,0,0,0,0.00,0.00,0.00,0.00,0.00,-0.03,-0.19,-0.72,0.007,0.022,0.008,0.028,-0.609,0.002,0.008,0.000,0.206,-24.62,-15.17,-1.50
0.750,servo,0,0,0,0.00,0.00,0.00,0.00,0.00,-0.03,-0.19,-0.72,0.007,0.022,0.008,0.028,-0.609,0.002,0.008,0.000,0.206,-24.62,-15.17,-1.50
0.750,servo,0,0,0,0.00,0.00,0.00,0.00,0.00,-0.03,-0.18,-0.72,0.007,0.022,0.008,0.028,-0.609,0.002,0.008,0.000,0.206,-24.62,-15.17,-1.50
0.750,servo,0,0,0,0.00,0.00,0.00,0.00,0.00,-0.03,-0.18,-0.73,0.007,0.021,0.008,0.028,-0.609,0.002,0.008,0.000,0.205,-24.62,-15.17,-1.51
0.766,servo,0,0,0,0.00,0.00,0.00,0.00,0.00,-0.03,-0.18,-0.73,0.007,0.021,0.008,0.028,-0.609,0.002,0.008,0.000,0.204,-24.62,-15.17,-1.51
0.766,servo,0,0,0,0.00,0.00,0.00,0.00,0.00,-0.03,-0.18,-0.73,0.007,0.021,0.008,0.028,-0.609,0.002,0.008,0.000,0.204,-24.62,-15.17,-1.51
0.766,servo,0,0,0,0.00,0.00,0.00,0.00,0.00,-0.03,-0.18,-0.73,0.007,0.021,0.008,0.028,-0.609,0.002,0.008,0.000,0.204,-24.62,-15.17,-1.51
0.766,servo,0,0,0,0.00,0.00,0.00,0.00,0.00,-0.03,-0.18,-0.73,0.007,0.021,0.008,0.028,-0.609,0.002,0.008,0.000,0.204,-24.62,-15.17,-1.51
0.766,servo,0,0,0,0.00,0.00,0.00,0.00,0.00,-0.03,-0.18,-0.73,0.007,0.021,0.008,0.028,-0.609,0.002,0.008,0.000,0.204,-24.62,-15.17,-1.51
0.766,servo,0,0,0,0.00,0.00,0.00,0.00,0.00,-0.03,-0.18,-0.72,0.007,0.021,0.008,0.028,-0.609,0.002,0.008,0.000,0.206,-24.62,-15.17,-1.52
0.766,servo,0,0,0,0.00,0.00,0.00,0.00,0.00,-0.03,-0.18,-0.72,0.007,0.021,0.008,0.028,-0.609,0.002,0.008,0.000,0.206,-24.62,-15.17,-1.52
0.766,servo,0,0,0,0.00,0.00,0.00,0.00,0.00,-0.03,-0.18,-0.72,0.007,0.021,0.008,0.027,-0.609,0.002,0.008,0.000,0.206,-24.62,-15.17,-1.52
0.781,servo,0,0,0,0.00,0.00,0.00,0.00,0.00,-0.03,-0.18,-0.72,0.007,0.021,0.008,0.027,-0.609,0.002,0.008,0.000,0.205,-24.62,-15.17,-1.52
0.781,servo,0,0,0,0.00,0.00,0.00,0.00,0.00,-0.03,-0.18,-0.65,0.007,0.021,0.008,0.027,-0.609,0.002,0.008,0.000,0.210,-24.63,-15.18,-1.52
0.781,servo,0,0,0,0.00,0.00,0.00,0.00,0.00,-0.03,-0.18,-0.65,0.007,0.021,0.008,0.027,-0.609,0.002,0.008,0.000,0.210,-24.63,-15.18,-1.52
0.781,servo,0,0,0,0.00,0.00,0.00,0.00,0.00,-0.03,-0.18,-0.65,0.007,0.021,0.008,0.027,-0.609,0.002,0.008,0.000,0.210,-24.63,-15.18,-1.52
0.781,servo,0,0,0,0.00,0.00,0.00,0.00,0.00,-0.03,-0.18,-0.65,0.007,0.021,0.008,0.027,-0.609,0.002,0.008,0.000,0.210,-24.63,-15.18,-1.52
0.781,servo,0,0,0,0.00,0.00,0.00,0.00,0.00,-0.03,-0.18,-0.65,0.007,0.021,0.008,0.027,-0.609,0.002,0.008,0.000,0.210,-24.63,-15.18,-1.52
0.781,servo,0,0,0,0.00,0.00,0.00,0.00,0.00,-0.03,-0.18,-0.65,0.007,0.021,0.008,0.027,-0.609,0.002,0.008,0.000,0.210,-24.63,-15.18,-1.52
0.781,servo,0,0,0,0.00,0.00,0.00,0.00,0.00,-0.03,-0.18,-0.60,0.006,0.021,0.008,0.027,-0.609,0.002,0.008,0.000,0.214,-24.63,-15.18,-1.53
0.797,servo,0,0,0,0.00,0.00,0.00,0.00,0.00,-0.03,-0.18,-0.60,0.006,0.021,0.008,0.027,-0.609,0.002,0.008,0.000,0.214,-24.63,-15.18,-1.53
0.797,servo,0,0,0,0.00,0.00,0.00,0.00,0.00,-0.03,-0.18,-0.60,0.006,0.021,0.008,0.027,-0.609,0.002,0.008,0.000,0.214,-24.63,-15.18,-1.53
0.797,servo,0,0,0,0.00,0.00,0.00,0.00,0.00,-0.02,-0.18,-0.60,0.006,0.021,0.008,0.027,-0.609,0.002,0.008,0.000,0.214,-24.63,-15.18,-1.53
0.797,servo,0,0,0,0.00,0.00,0.00,0.00,0.00,-0.02,-0.18,-0.60,0.006,0.021,0.008,0.027,-0.609,0.002,0.008,0.000,0.214,-24.63,-15.18,-1.53
0.797,servo,0,0,0,0.00,0.00,0.00,0.00,0.00,-0.02,-0.18,-0.51,0.006,0.021,0.008,0.027,-0.609,0.002,0.008,0.000,0.221,-24.63,-15.18,-1.54
0.797,servo,0,0,0,0.00,0.00,0.00,0.00,0.00,-0.02,-0.18,-0.51,0.006,0.021,0.008,0.027,-0.609,0.002,0.008,0.000,0.221,-24.63,-15.18,-1.54
0.797,servo,0,0,0,0.00,0.00,0.00,0.00,0.00,-0.02,-0.18,-0.51,0.006,0.021,0.008,0.027,-0.609,0.002,0.008,0.000,0.221,-24.63,-15.18,-1.54
0.812,servo,0,0,0,0.00,0.00,0.00,0.00,0.00,-0.02,-0.18,-0.51,0.006,0.021,0.008,0.027,-0.609,0.002,0.008,0.000,0.221,-24.63,-15.18,-1.54
0.812,servo,0,0,0,0.00,0.00,0.00,0.00,0.00,-0.02,-0.18,-0.51,0.006,0.021,0.008,0.027,-0.609,0.002,0.008,0.000,0.221,-24.63,-15.18,-1.54
0.812,servo,0,0,0,0.00,0.00,0.00,0.00,0.00,-0.02,-0.18,-0.47,0.006,0.021,0.008,0.027,-0.609,0.002,0.008,0.000,0.224,-24.63,-15.18,-1.54
0.812,servo,0,0,0,0.00,0.00,0.00,0.00,0.00,-0.02,-0.18,-0.47,0.006,0.021,0.008,0.027,-0.609,0.002,0.008,0.000,0.224,-24.63,-15.18,-1.54
0.812,servo,0,0,0,0.00,0.00,0.00,0.00,0.00,-0.02,-0.18,-0.47,0.006,0.021,0.008,0.027,-0.609,0.002,0.008,0.000,0.224,-24.63,-15.18,-1.54
0.812,servo,0,0,0,0.00,0.00,0.00,0.00,0.00,-0.02,-0.18,-0.47,0.006,0.021,0.008,0.027,-0.609,0.002,0.008,0.000,0.224,-24.63,-15.18,-1.54
0.812,servo,0,0,0,0.00,0.00,0.00,0.00,0.00,-0.02,-0.18,-0.47,0.006,0.021,0.008,0.027,-0.609,0.002,0.008,0.000,0.224,-24.63,-15.18,-1.54
0.812,servo,0,0,0,0.00,0.00,0.00,0.00,0.00,-0.02,-0.18,-0.47,0.006,0.021,0.008,0.027,-0.609,0.002,0.008,0.000,0.224,-24.63,-15.18,-1.54
0.828,servo,0,0,0,0.00,0.00,0.00,0.00,0.00,-0.02,-0.17,-0.38,0.006,0.020,0.008,0.027,-0.609,0.002,0.008,0.000,0.230,-24.63,-15.18,-1.55
0.828,servo,0,0,0,0.00,0.00,0.00,0.00,0.00,-0.02,-0.17,-0.38,0.006,0.020,0.008,0.027,-0.609,0.002,0.008,0.000,0.230,-24.63,-15.18,-1.55
0.828,servo,0,0,0,0.00,0.00,0.00,0.00,0.00,-0.02,-0.17,-0.38,0.006,0.020,0.008,0.027,-0.609,0.002,0.008,0.000,0.230,-24.63,-15.18,-1.55
0.828,servo,0,0,0,0.00,0.00,0.00,0.00,0.00,-0.02,-0.17,-0.38,0.006,0.020,0.008,0.027,-0.609,0.002,0.008,0.000,0.230,-24.63,-15.18,-1.55
0.828,servo,0,0,0,0.00,0.00,0.00,0.00,0.00,-0.02,-0.17,-0.38,0.006,0.020,0.008,0.027,-0.609,0.002,0.008,0.000,0.230,-24.63,-15.18,-1.55
0.828,servo,0,0,0,0.00,0.00,0.00,0.00,0.00,-0.02,-0.17,-0.35,0.006,0.020,0.008,0.026,-0.609,0.002,0.008,0.000,0.233,-24.63,-15.18,-1.55
0.828,servo,0,0,0,0.00,0.00,0.00,0.00,0.00,-0.02,-0.17,-0.35,0.006,0.020,0.008,0.026,-0.609,0.002,0.008,0.000,0.233,-24.63,-15.18,-1.55
0.844,servo,0,0,0,0.00,0.00,0.00,0.00,0.00,-0.02,-0.17,-0.35,0.006,0.020,0.008,0.026,-0.609,0.002,0.008,0.000,0.233,-24.63,-15.18,-1.55
0.844,servo,0,0,0,0.00,0.00,0.00,0.00,0.00,-0.02,-0.17,-0.35,0.006,0.020,0.008,0.026,-0.609,0.002,0.008,0.000,0.233,-24.63,-15.18,-1.55
0.844,servo,0,0,0,0.00,0.00,0.00,0.00,0.00,-0.02,-0.17,-0.29,0.006,0.020,0.008,0.026,-0.609,0.002,0.008,0.000,0.238,-24.63,-15.18,-1.55
0.844,servo,0,0,0,0.00,0.00,0.00,0.00,0.00,-0.02,-0.17,-0.29,0.006,0.020,0.008,0.026,-0.609,0.002,0.008,0.000,0.238,-24.63,-15.18,-1.55
0.844,servo,0,0,0,0.00,0.00,0.00,0.00,0.00,-0.02,-0.17,-0.29,0.006,0.020,0.008,0.026,-0.609,0.002,0.008,0.000,0.238,-24.63,-15.18,-1.55
0.844,servo,0,0,0,0.00,0.00,0.00,0.00,0.00,-0.02,-0.17,-0.29,0.006,0.020,0.008,0.026,-0.609,0.002,0.008,0.000,0.238,-24.63,-15.18,-1.55
0.844,servo,0,0,0,0.00,0.00,0.00,0.00,0.00,-0.02,-0.17,-0.29,0.006,0.020,0.008,0.026,-0.609,0.002,0.008,0.000,0.238,-24.63,-15.18,-1.55
0.859,servo,0,0,0,0.00,0.00,0.00,0.00,0.00,-0.02,-0.17,-0.24,0.006,0.020,0.008,0.026,-0.609,0.002,0.008,0.000,0.241,-24.63,-15.19,-1.56
0.859,servo,0,0,0,0.00,0.00,0.00,0.00,0.00,-0.02,-0.17,-0.24,0.006,0.020,0.008,0.026,-0.609,0.002,0.008,0.000,0.241,-24.63,-15.19,-1.56
0.859,servo,0,0,0,0.00,0.00,0.00,0.00,0.00,-0.02,-0.17,-0.24,0.006,0.020,0.008,0.026,-0.609,0.002,0.008,0.000,0.241,-24.63,-15.19,-1.56
0.859,servo,0,0,0,0.00,0.00,0.00,0.00,0.00,-0.02,-0.17,-0.24,0.006,0.020,0.008,0.026,-0.609,0.002,0.008,0.000,0.241,-24.63,-15.19,-1.56
0.859,servo,0,0,0,0.00,0.00,0.00,0.00,0.00,-0.02,-0.17,-0.24,0.006,0.020,0.008,0.026,-0.609,0.002,0.008,0.000,0.241,-24.63,-15.19,-1.56
0.859,servo,0,0,0,0.00,0.00,0.00,0.00,0.00,-0.02,-0.17,-0.24,0.006,0.020,0.008,0.026,-0.609,0.002,0.008,0.000,0.241,-24.63,-15.19,-1.56
0.859,servo,0,0,0,0.00,0.00,0.00,0.00,0.00,-0.01,-0.17,-0.23,0.006,0.020,0.008,0.026,-0.609,0.002,0.008,0.000,0.243,-24.64,-15.19,-1.56
0.859,servo,0,0,0,0.00,0.00,0.00,0.00,0.00,-0.01,-0.17,-0.23,0.006,0.020,0.008,0.026,-0.609,0.002,0.008,0.000,0.243,-24.64,-15.19,-1.56
0.875,servo,0,0,0,0.00,0.00,0.00,0.00,0.00,-0.01,-0.17,-0.23,0.006,0.020,0.008,0.026,-0.609,0.002,0.008,0.000,0.242,-24.64,-15.19,-1.56
0.875,servo,0,0,0,0.00,0.00,0.00,0.00,0.00,-0.01,-0.17,-0.23,0.006,0.020,0.008,0.026,-0.609,0.002,0.008,0.000,0.242,-24.64,-15.19,-1.56
0.875,servo,0,0,0,0.00,0.00,0.00,0.00,0.00,-0.01,-0.17,-0.23,0.006,0.020,0.008,0.026,-0.609,0.002,0.008,0.000,0.242,-24.64,-15.19,-1.56
0.875,servo,0,0,0,0.00,0.00,0.00,0.00,0.00,-0.01,-0.17,-0.20,0.006,0.019,0.008,0.026,-0.609,0.002,0.008,0.000,0.244,-24.64,-15.19,-1.56
0.875,servo,0,0,0,0.00,0.00,0.00,0.00,0.00,-0.01,-0.17,-0.20,0.006,0.019,0.008,0.026,-0.609,0.002,0.008,0.000,0.244,-24.64,-15.19,-1.56
0.875,servo,0,0,0,0.00,0.00,0.00,0.00,0.00,-0.01,-0.17,-0.20,0.006,0.019,0.008,0.026,-0.609,0.002,0.008,0.000,0.244,-24.64,-15.19,-1.56
0.875,servo,0,0,0,0.00,0.00,0.00,0.00,0.00,-0.01,-0.17,-0.20,0.006,0.019,0.008,0.026,-0.609,0.002,0.008,0.000,0.244,-24.64,-15.19,-1.56
0.891,servo,0,0,0,0.00,0.00,0.00,0.00,0.00,-0.01,-0.17,-0.19,0.006,0.019,0.008,0.026,-0.609,0.002,0.008,0.000,0.245,-24.64,-15.19,-1.56
0.891,servo,0,0,0,0.00,0.00,0.00,0.00,0.00,-0.01,-0.17,-0.19,0.006,0.019,0.008,0.025,-0.609,0.002,0.008,0.000,0.245,-24.64,-15.19,-1.56
0.891,servo,0,0,0,0.00,0.00,0.00,0.00,0.00,-0.01,-0.17,-0.19,0.006,0.019,0.008,0.025,-0.609,0.002,0.008,0.000,0.245,-24.64,-15.19,-1.56
0.891,servo,0,0,0,0.00,0.00,0.00,0.00,0.00,-0.01,-0.16,-0.19,0.006,0.019,0.008,0.025,-0.609,0.002,0.008,0.000,0.245,-24.64,-15.19,-1.56
0.891,servo,0,0,0,0.00,0.00,0.00,0.00,0.00,-0.01,-0.16,-0.19,0.006,0.019,0.008,0.025,-0.609,0.002,0.008,0.000,0.245,-24.64,-15.19,-1.56
0.891,servo,0,0,0,0.00,0.00,0.00,0.00,0.00,-0.01,-0.16,-0.17,0.006,0.019,0.008,0.025,-0.609,0.002,0.008,0.000,0.247,-24.64,-15.19,-1.56
0.891,servo,0,0,0,0.00,0.00,0.00,0.00,0.00,-0.01,-0.16,-0.17,0.006,0.019,0.008,0.025,-0.609,0.002,0.008,0.000,0.247,-24.64,-15.19,-1.56
0.906,servo,0,0,0,0.00,0.00,0.00,0.00,0.00,-0.01,-0.16,-0.17,0.006,0.019,0.008,0.025,-0.609,0.002,0.008,0.000,0.247,-24.64,-15.19,-1.56
0.906,servo,0,0,0,0.00,0.00,0.00,0.00,0.00,-0.01,-0.16,-0.17,0.006,0.019,0.008,0.025,-0.609,0.002,0.008,0.000,0.247,-24.64,-15.19,-1.56
0.906,servo,0,0,0,0.00,0.00,0.00,0.00,0.00,-0.01,-0.16,-0.17,0.006,0.019,0.008,0.025,-0.609,0.002,0.008,0.000,0.247,-24.64,-15.19,-1.56
0.906,servo,0,0,0,0.00,0.00,0.00,0.00,0.00,-0.01,-0.16,-0.17,0.006,0.019,0.008,0.025,-0.609,0.002,0.008,0.000,0.247,-24.64,-15.19,-1.56
0.906,servo,0,0,0,0.00,0.00,0.00,0.00,0.00,-0.01,-0.16,-0.16,0.006,0.019,0.008,0.025,-0.609,0.002,0.008,0.000,0.247,-24.64,-15.19,-1.57
0.906,servo,0,0,0,0.00,0.00,0.00,0.00,0.00,-0.01,-0.16,-0.16,0.006,0.019,0.008,0.025,-0.609,0.002,0.008,0.000,0.247,-24.64,-15.19,-1.57
0.906,servo,0,0,0,0.00,0.00,0.00,0.00,0.00,-0.01,-0.16,-0.16,0.006,0.019,0.008,0.025,-0.609,0.002,0.008,0.000,0.247,-24.64,-15.19,-1.57
0.906,servo,0,0,0,0.00,0.00,0.00,0.00,0.00,-0.01,-0.16,-0.16,0.006,0.019,0.008,0.025,-0.609,0.002,0.008,0.000,0.247,-24.64,-15.19,-1.57
0.922,servo,0,0,0,0.00,0.00,0.00,0.00,0.00,-0.01,-0.16,-0.16,0.006,0.019,0.008,0.025,-0.609,0.002,0.008,0.000,0.247,-24.64,-15.19,-1.57
0.922,servo,0,0,0,0.00,0.00,0.00,0.00,0.00,-0.01,-0.16,-0.14,0.006,0.018,0.008,0.025,-0.609,0.002,0.008,0.000,0.249,-24.64,-15.19,-1.57
0.922,servo,0,0,0,0.00,0.00,0.00,0.00,0.00,-0.01,-0.16,-0.14,0.006,0.018,0.008,0.025,-0.609,0.002,0.008,0.000,0.249,-24.64,-15.19,-1.57
0.922,servo,0,0,0,0.00,0.00,0.00,0.00,0.00,-0.01,-0.16,-0.14,0.006,0.018,0.008,0.025,-0.609,0.002,0.008,0.000,0.249,-24.64,-15.19,-1.57
0.922,servo,0,0,0,0.00,0.00,0.00,0.00,0.00,-0.01,-0.16,-0.14,0.006,0.018,0.008,0.025,-0.609,0.002,0.008,0.000,0.249,-24.64,-15.19,-1.57
0.922,servo,0,0,0,0.00,0.00,0.00,0.00,0.00,-0.01,-0.16,-0.14,0.006,0.018,0.008,0.025,-0.609,0.002,0.008,0.000,0.249,-24.64,-15.19,-1.57
0.937,servo,0,0,0,0.00,0.00,0.00,0.00,0.00,-0.01,-0.16,-0.13,0.006,0.018,0.008,0.025,-0.609,0.002,0.009,0.000,0.249,-24.64,-15.20,-1.57
0.937,servo,0,0,0,0.00,0.00,0.00,0.00,0.00,-0.01,-0.15,-0.13,0.006,0.018,0.007,0.025,-0.609,0.002,0.008,0.000,0.249,-24.64,-15.20,-1.57
0.937,servo,0,0,0,0.00,0.00,0.00,0.00,0.00,-0.01,-0.15,-0.13,0.006,0.018,0.007,0.025,-0.609,0.002,0.008,0.000,0.249,-24.64,-15.20,-1.57
0.937,servo,0,0,0,0.00,0.00,0.00,0.00,0.00,-0.01,-0.15,-0.13,0.006,0.018,0.007,0.025,-0.609,0.002,0.008,0.000,0.249,-24.64,-15.20,-1.57
0.937,servo,0,0,0,0.00,0.00,0.00,0.00,0.00,-0.01,-0.15,-0.12,0.006,0.018,0.007,0.025,-0.609,0.002,0.009,0.000,0.251,-24.64,-15.20,-1.57
0.937,servo,0,0,0,0.00,0.00,0.00,0.00,0.00,-0.01,-0.15,-0.12,0.006,0.018,0.007,0.024,-0.609,0.002,0.008,0.000,0.251,-24.64,-15.20,-1.57
0.937,servo,0,0,0,0.00,0.00,0.00,0.00,0.00,-0.01,-0.15,-0.12,0.006,0.018,0.007,0.024,-0.609,0.002,0.008,0.000,0.251,-24.64,-15.20,-1.57
